[{"TravelLokaId":9000001067333,"HotelName":"Son Hoi An Boutique Hotel & Spa","Country":"Vietnam","City":"Hoi An","Address":"114/4 Đào Duy Từ, Tp Hội An","Lat":15.8775178,"Lng":108.3189893},{"TravelLokaId":9000001069103,"HotelName":"Wyndham Grand Vedana Ninh Binh Resort","Country":"Vietnam","City":"Nho Quan District","Address":"Dong Tam Village","Lat":20.323219,"Lng":105.752873},{"TravelLokaId":9000001069247,"HotelName":"Ohana Village Quy Nhon","Country":"Vietnam","City":"Phu Cat District, Quy Nhon City","Address":"Ohana Village,  Cat Tien, Phu Cat","Lat":13.9583823,"Lng":109.2440962},{"TravelLokaId":9000001069630,"HotelName":"Rubeach Hotel & Restaurant","Country":"Vietnam","City":"Song Cau Town","Address":"Hamlet 2","Lat":13.6606806,"Lng":109.2299753},{"TravelLokaId":9000001069641,"HotelName":"Rockmila Hotel","Country":"Vietnam","City":"Phu Quoc","Address":"63/7 Tran Hung Dao","Lat":10.2109456,"Lng":103.9617682},{"TravelLokaId":9000001069829,"HotelName":"Viet Anh Hotel Quang Ninh","Country":"Vietnam","City":"Ha Long City","Address":"Tung Duong 1-36, Ha Long Sreet","Lat":20.9472971,"Lng":107.0288614},{"TravelLokaId":9000001069834,"HotelName":"K House vs Apartment","Country":"Vietnam","City":"Son Tra District","Address":"44B Lam Hoanh","Lat":16.0613318,"Lng":108.2453963},{"TravelLokaId":9000001069847,"HotelName":"Cozrum Homes - Oriental House","Country":"Vietnam","City":"District 5","Address":"682/2 Võ Văn Kiệt","Lat":10.752219716,"Lng":106.682922214},{"TravelLokaId":9000001069855,"HotelName":"Q's House Dalat","Country":"Vietnam","City":"Da Lat","Address":"Alley 29, Le Hong Phong Street","Lat":11.9315818,"Lng":108.4250774},{"TravelLokaId":9000001069949,"HotelName":"ROSIE GARDEN MĂNG ĐEN","Country":"Vietnam","City":"Kon Plong District","Address":"34 Phạm Văn Đồng, Kon Tum, Vietnam","Lat":14.5916487,"Lng":108.2842432},{"TravelLokaId":9000001069984,"HotelName":"Perolas Villas Resort Powered by ASTON","Country":"Vietnam","City":"Phan Thiet City","Address":"Cay Gang Hamlet","Lat":10.710457081,"Lng":107.948519585},{"TravelLokaId":9000001069991,"HotelName":"Happy Hotel & Apartment","Country":"Vietnam","City":"Da Lat","Address":"91 Trang Trinh","Lat":11.9515128,"Lng":108.4592216},{"TravelLokaId":9000001069996,"HotelName":"La Hotel Binh Tan","Country":"Vietnam","City":"Binh Tan District","Address":"184 Street No. 1A, Binh Tri Dong B Ward","Lat":10.748065825,"Lng":106.614762723},{"TravelLokaId":9000001070046,"HotelName":"HAYA Hotel","Country":"Vietnam","City":"Phu Quoc","Address":"82 Tran Hung Dao","Lat":10.205588221,"Lng":103.963140249},{"TravelLokaId":9000001070161,"HotelName":"SOJO Hotel Lao Cai","Country":"Vietnam","City":"Lao Cai City","Address":"2a Đường An Dương Vương, Cốc Lếu","Lat":22.4977234,"Lng":103.9697787},{"TravelLokaId":9000001070200,"HotelName":"VNAHOMES Serviced Apartment","Country":"Vietnam","City":"Tay Ho District","Address":"26 Vong Thi Buoi","Lat":21.051326301,"Lng":105.811007528},{"TravelLokaId":9000001070202,"HotelName":"Thanh Vinh Hotel Cu Chi","Country":"Vietnam","City":"Cu Chi District","Address":"1/9 Dinh Chuong Duong, Cu Chi","Lat":10.977399561,"Lng":106.488997936},{"TravelLokaId":9000001070203,"HotelName":"Nep Apartment - The Song Vung Tau","Country":"Vietnam","City":"Vung Tau City","Address":"28 Thi Sách, phường Thắng Tam, TP.Vũng Tàu","Lat":10.3500335,"Lng":107.0961128},{"TravelLokaId":9000001070204,"HotelName":"Aloha Homestay Dalat","Country":"Vietnam","City":"Da Lat","Address":"227 Nguyen Trung Truc","Lat":11.9306209,"Lng":108.4369221},{"TravelLokaId":9000001070610,"HotelName":"Cara Hotel","Country":"Vietnam","City":"Da Lat","Address":"155A Thanh Mau","Lat":11.9745162,"Lng":108.4376774},{"TravelLokaId":9000001070804,"HotelName":"Young Dong Hotel & Apartment","Country":"Vietnam","City":"District 7","Address":"74 Cao Trieu Phat Street","Lat":10.732060511,"Lng":106.707478613},{"TravelLokaId":9000001070885,"HotelName":"Justay Pink Church","Country":"Vietnam","City":"District 3","Address":"22 Ly Chinh Thang","Lat":10.790934,"Lng":106.6869059},{"TravelLokaId":9000001070964,"HotelName":"Cozrum Homes - Delightful Corner 2","Country":"Vietnam","City":"District 1","Address":"TK15/20-21 Nguyễn Cảnh Chân, Phường Cầu Kho, Quận 1, Tp Hồ Chí Minh","Lat":10.758238004,"Lng":106.688092908},{"TravelLokaId":9000001071006,"HotelName":"New Tourane Hotel","Country":"Vietnam","City":"Son Tra District","Address":"15 My Khe 2, Phuoc My, Son Tra","Lat":16.0632952,"Lng":108.2391184},{"TravelLokaId":9000001071008,"HotelName":"Muong Hoa Valle Hotel","Country":"Vietnam","City":"Sa Pa District","Address":"28 Muong Hoa street","Lat":22.3313136,"Lng":103.8445078},{"TravelLokaId":9000001071039,"HotelName":"Orient Resort Phu Quoc","Country":"Vietnam","City":"Phu Quoc","Address":"ĐT45, Gành Dầu","Lat":10.3731805,"Lng":103.8614401},{"TravelLokaId":9000001071046,"HotelName":"Vincent Hotel","Country":"Vietnam","City":"Ha Dong District","Address":"Lot G25 + G26 service area B","Lat":20.9526614,"Lng":105.7463921},{"TravelLokaId":9000001071066,"HotelName":"Apollo Vacation","Country":"Vietnam","City":"Nha Trang","Address":"Đinh Tiên Hoàng","Lat":12.075985467,"Lng":109.172461803},{"TravelLokaId":9000001071070,"HotelName":"Be's Beach Homestay An Bang","Country":"Vietnam","City":"Hoi An","Address":"K182 Nguyen Phan Vinh","Lat":15.915709,"Lng":108.3360963},{"TravelLokaId":9000001071073,"HotelName":"Your Second Home - The Song Vung Tau","Country":"Vietnam","City":"Vung Tau City","Address":"28 Thi Sach street, Thang Tam Ward, Vung Tau City, Viet Nam","Lat":10.3500428,"Lng":107.0958238},{"TravelLokaId":9000001071075,"HotelName":"Amon Hotel Phu Quoc","Country":"Vietnam","City":"Phu Quoc","Address":"V07-SV06, Khu tổ hợp du lịch Sonasea Villas & Resort","Lat":10.1300635,"Lng":103.982792433},{"TravelLokaId":9000001071076,"HotelName":"Central Beach Hotel","Country":"Vietnam","City":"Ngu Hanh Son District","Address":"Lot 35-36 Tran Bach Dang, My An Ward","Lat":16.049211709,"Lng":108.247871598},{"TravelLokaId":9000001071088,"HotelName":"Duke Casa Apartment","Country":"Vietnam","City":"Son Tra District","Address":"41 Phuoc Truong 11","Lat":16.0773789,"Lng":108.242272},{"TravelLokaId":9000001071092,"HotelName":"Orihomes - Anland Lakeview Luxury Apartment with Park, Aeon Mall","Country":"Vietnam","City":"Ha Dong District","Address":"Le Quang Dao","Lat":20.9832509,"Lng":105.7569768},{"TravelLokaId":9000001071108,"HotelName":"Hong Phat Hotel","Country":"Vietnam","City":"District 11","Address":"81 Ong Ich Khiem","Lat":10.766243,"Lng":106.643497},{"TravelLokaId":9000001071155,"HotelName":"Coco Garden Resort Phu Quoc","Country":"Vietnam","City":"Phu Quoc","Address":"Road N-02, Ong Lang","Lat":10.2705867,"Lng":103.9294766},{"TravelLokaId":9000001071205,"HotelName":"Hammock Glamping - Private Island Glamping","Country":"Vietnam","City":"Nhon Trach District","Address":"SwanBay Dai Phuoc Island, Dai Phuoc","Lat":10.7401597,"Lng":106.8274974},{"TravelLokaId":9000001071226,"HotelName":"Meritel Hanoi Hotel","Country":"Vietnam","City":"Hoan Kiem District","Address":"153 Hang Bong Street , Hoan Kiem District , Ha Noi","Lat":21.0292275,"Lng":105.8453327},{"TravelLokaId":9000001071229,"HotelName":"Tu Sakura Hotel","Country":"Vietnam","City":"Cau Giay District","Address":"62 Duy Tan","Lat":21.0309255,"Lng":105.7844415},{"TravelLokaId":9000001071243,"HotelName":"Monaco Hotel Can Tho","Country":"Vietnam","City":"Cai Rang District","Address":"69 Nguyễn Ngọc Bích khu dân cư Hưng Phú 1","Lat":10.0195532,"Lng":105.7839423},{"TravelLokaId":9000001071244,"HotelName":"Lucky Hotel","Country":"Vietnam","City":"Hue City","Address":"9, Ngo The Lan, Hue","Lat":16.470397,"Lng":107.5667023},{"TravelLokaId":9000001071246,"HotelName":"Puchin Hotel And Apartment","Country":"Vietnam","City":"Da Lat","Address":"72/6 Nguyen Van Troi, Da Lat City, Lam Dong, Viet Nam Pincode: , Dalat","Lat":11.9469827,"Lng":108.4372258},{"TravelLokaId":9000001071253,"HotelName":"Strawberry Homestay","Country":"Vietnam","City":"Vung Tau City","Address":"53 Le Ngoc Han","Lat":10.352705495,"Lng":107.072571516},{"TravelLokaId":9000001071256,"HotelName":"La Bonita Hotel and Apartment","Country":"Vietnam","City":"District 7","Address":"38-42 Hưng Phước 4, Tân Phong, District 7, Ho Chi Minh City, Vietnam","Lat":10.7296286,"Lng":106.7076665},{"TravelLokaId":9000001071257,"HotelName":"Elite Stay - Panorama Nha Trang","Country":"Vietnam","City":"Nha Trang","Address":"02 Nguyễn Thị Minh Khai - Phường Lộc Thọ - TP.Nha Trang - Khánh Hòa","Lat":12.239131306,"Lng":109.195751808},{"TravelLokaId":9000001071268,"HotelName":"ZEDD Hotel","Country":"Vietnam","City":"Cau Giay District","Address":"No. 9 Alley 26/1 Do Quang","Lat":21.0106204,"Lng":105.802056},{"TravelLokaId":9000001071288,"HotelName":"Smarana Hanoi Heritage","Country":"Vietnam","City":"Cau Giay District","Address":"No 5, 82/1 Alley, Dich Vong Hau","Lat":21.0290217,"Lng":105.7854901},{"TravelLokaId":9000001071429,"HotelName":"Number One Hotel","Country":"Vietnam","City":"Ninh Kieu District","Address":"01B Ngô Đức Kế","Lat":10.0297111,"Lng":105.7872853},{"TravelLokaId":9000001071441,"HotelName":"Puluong Casa","Country":"Vietnam","City":"Ba Thuoc District","Address":"Thôn Nông Công, Thành Sơn , Bá Thước , Thanh Hóa","Lat":20.460067406,"Lng":105.1334095},{"TravelLokaId":9000001071450,"HotelName":"Enjoy Hotel Hue","Country":"Vietnam","City":"Hue City","Address":"08 Nguyen Cong Tru","Lat":16.4720029,"Lng":107.5951898},{"TravelLokaId":9000001071453,"HotelName":"Cityhouse - The Song Vung Tau","Country":"Vietnam","City":"Vung Tau City","Address":"28 Thi Sach","Lat":10.3499614,"Lng":107.0961159},{"TravelLokaId":9000001071458,"HotelName":"Emerald Halong Hotel","Country":"Vietnam","City":"Ha Long City","Address":"17-18 Thuy Tung, Ha Long Street","Lat":20.9467334,"Lng":107.0301063},{"TravelLokaId":9000001071485,"HotelName":"Milan Homestay - The Song Vung Tau","Country":"Vietnam","City":"Vung Tau City","Address":"28 Đường Thi Sách, Thắng Tam, Thành phố Vũng Tầu, Bà Rịa - Vũng Tàu, Việt Nam","Lat":10.3499949,"Lng":107.0958366},{"TravelLokaId":9000001071501,"HotelName":"The Little Village Homestay","Country":"Vietnam","City":"Hoa Lu District","Address":"Ninh Thang - Hoa Lu - Ninh Binh","Lat":20.215207016,"Lng":105.951354504},{"TravelLokaId":9000001071505,"HotelName":"Cherie Home Hotel","Country":"Vietnam","City":"Ha Long City","Address":"6-8 Thuong Mai Street","Lat":20.9504209,"Lng":107.0786517},{"TravelLokaId":9000001071571,"HotelName":"Rustique Maison","Country":"Vietnam","City":"District 1","Address":"44 Nguyen Phi Khanh","Lat":10.79187,"Lng":106.694215},{"TravelLokaId":9000001071602,"HotelName":"Hodota Cam Bình Resort and Spa - Lagi Beach","Country":"Vietnam","City":"La Gi Town","Address":"Le Minh Cong Street","Lat":10.6437264,"Lng":107.7430552},{"TravelLokaId":9000001071611,"HotelName":"Con Son Victory Con Dao","Country":"Vietnam","City":"Con Dao (Hon Son) District","Address":"Số 5, Pham Van Dong Street","Lat":8.688652738,"Lng":106.611303985},{"TravelLokaId":9000001071623,"HotelName":"Home 62 Ha Huy Tap","Country":"Vietnam","City":"Da Lat","Address":"62 Ha Huy Tap","Lat":11.9334164,"Lng":108.4410265},{"TravelLokaId":9000001071624,"HotelName":"Tea Garden House","Country":"Vietnam","City":"Bao Loc City","Address":"183C/4 Nguyen Van Cu","Lat":11.5731051,"Lng":107.8346924}]