[{"TravelLokaId":3000020008784,"HotelName":"Joy House 1","Country":"Vietnam","City":"Tuy Hoa City","Address":"Block 14-16, Area FPS","Lat":13.11185,"Lng":109.298614},{"TravelLokaId":3000020008792,"HotelName":"Full House The Villa","Country":"Vietnam","City":"Ha Long City","Address":"27 Ngo Quyen","Lat":20.975463353,"Lng":107.081051581},{"TravelLokaId":3000020008793,"HotelName":"Violet House","Country":"Vietnam","City":"Da Lat","Address":"3 Bis/6 Co Giang","Lat":11.947115105,"Lng":108.456698656},{"TravelLokaId":3000020008798,"HotelName":"Sweet Home","Country":"Vietnam","City":"Da Lat","Address":"26a/5 Tran Phu","Lat":11.9368844,"Lng":108.4396878},{"TravelLokaId":3000020008828,"HotelName":"Queen Motel","Country":"Vietnam","City":"Vung Tau City","Address":"1B Phan Boi Chau","Lat":10.3404426,"Lng":107.076101},{"TravelLokaId":3000020008836,"HotelName":"Hotel 177","Country":"Vietnam","City":"Thu Duc District","Address":"01 Nguyen Cong Tru","Lat":10.8472615,"Lng":106.7714745},{"TravelLokaId":3000020008837,"HotelName":"Lagi Dinh Relax Hotel","Country":"Vietnam","City":"La Gi Town","Address":"456A Ly Thai To","Lat":10.7079897,"Lng":107.8396364},{"TravelLokaId":3000020008876,"HotelName":"Binh Minh 09 Hotel","Country":"Vietnam","City":"Vung Tau City","Address":"4 Phan Van Tri","Lat":10.3375404,"Lng":107.0903218},{"TravelLokaId":3000020008947,"HotelName":"Truong An Hotel Nha Trang","Country":"Vietnam","City":"Nha Trang","Address":"107 Hoàng Hoa Tham","Lat":12.2460066,"Lng":109.1939749},{"TravelLokaId":3000020008987,"HotelName":"Pi House Hotel Dalat","Country":"Vietnam","City":"Da Lat","Address":"128 Nguyen Van Troi","Lat":11.9493324,"Lng":108.4362439},{"TravelLokaId":3000020008988,"HotelName":"Tee's Hostel","Country":"Vietnam","City":"District 1","Address":"First Floor, 252 Ly Tu Trong","Lat":10.7720129,"Lng":106.6941386},{"TravelLokaId":3000020009004,"HotelName":"Khanh An Homestay","Country":"Vietnam","City":"Phan Thiet City","Address":"18/15 Tuyen Quang","Lat":10.930192972,"Lng":108.108801395},{"TravelLokaId":3000020009010,"HotelName":"Mihaco Villa","Country":"Vietnam","City":"Nha Trang","Address":"119-120 2F An Vien","Lat":12.2022406,"Lng":109.2128617},{"TravelLokaId":3000020009015,"HotelName":"Moc Tra Hotel","Country":"Vietnam","City":"Da Lat","Address":"3A/8 Ba Trieu","Lat":11.9369313,"Lng":108.4333556},{"TravelLokaId":3000020009023,"HotelName":"The Local Stay","Country":"Vietnam","City":"Son Tra District","Address":"40/7 Nguyen Thien Ke","Lat":16.060741,"Lng":108.238478},{"TravelLokaId":3000020009034,"HotelName":"7 Luom Hotel","Country":"Vietnam","City":"Vung Tau City","Address":"34 Hoang Hoa Tham","Lat":10.3402671,"Lng":107.0797633},{"TravelLokaId":3000020009051,"HotelName":"Quynh Nhi Hostel","Country":"Vietnam","City":"Da Lat","Address":"24 An Duong Vuong","Lat":11.951482,"Lng":108.4352413},{"TravelLokaId":3000020009065,"HotelName":"Muong Thanh Sea View Apartment","Country":"Vietnam","City":"Nha Trang","Address":"Block OC1A, floor 32, Muong Thanh Vien Trieu, 6 Pham Van Dong","Lat":12.273968696,"Lng":109.202181101},{"TravelLokaId":3000020009077,"HotelName":"HS-Peace Hotel","Country":"Vietnam","City":"Ninh Binh City","Address":"8, Alley 98 Trinh Tu","Lat":20.2745303,"Lng":105.9683912},{"TravelLokaId":3000020009086,"HotelName":"Tara House Da Lat","Country":"Vietnam","City":"Da Lat","Address":"56/38 Thong Thien Hoc","Lat":11.955769339,"Lng":108.43740821},{"TravelLokaId":3000020009087,"HotelName":"Sweet Home 2","Country":"Vietnam","City":"Da Lat","Address":"149 Ho Xuan Huong","Lat":11.9544926,"Lng":108.4777698},{"TravelLokaId":3000020009090,"HotelName":"Lam Thao Guesthouse","Country":"Vietnam","City":"Da Lat","Address":"141 Bui Thi Xuan","Lat":11.948243392,"Lng":108.439535741},{"TravelLokaId":3000020009120,"HotelName":"Ngoc Tran Hotel","Country":"Vietnam","City":"Rach Gia City","Address":"149 - 155 Nguyen An Ninh","Lat":9.9989859,"Lng":105.087828},{"TravelLokaId":3000020009135,"HotelName":"Tropical House","Country":"Vietnam","City":"Da Lat","Address":"10 Ho Xuan Huong","Lat":11.9528636,"Lng":108.4714127},{"TravelLokaId":3000020009137,"HotelName":"Spring Hung Anh Hotel","Country":"Vietnam","City":"Tan Binh District","Address":"19 Thep Moi","Lat":10.7962205,"Lng":106.648933},{"TravelLokaId":3000020009161,"HotelName":"The Time Apartment","Country":"Vietnam","City":"Tan Binh District","Address":"15/9A Hong Ha","Lat":10.813741,"Lng":106.669242},{"TravelLokaId":3000020009165,"HotelName":"Dreamland Homestay","Country":"Vietnam","City":"Nha Trang","Address":"220 Phuoc Long","Lat":12.209377888,"Lng":109.188249707},{"TravelLokaId":3000020009210,"HotelName":"Sunshine Valley","Country":"Vietnam","City":"Da Lat","Address":"3e Hoang Hoa Tham","Lat":11.9400723,"Lng":108.4631815},{"TravelLokaId":3000020009220,"HotelName":"Casa de Rose Homestay","Country":"Vietnam","City":"District 1","Address":"94/1 Nguyen Van Thu","Lat":10.792481,"Lng":106.701577},{"TravelLokaId":3000020009240,"HotelName":"Saigon Host - Rivergate Residence Unit A24.11","Country":"Vietnam","City":"District 4","Address":"151 - 155 Ben Van Don","Lat":10.7629696,"Lng":106.6986608},{"TravelLokaId":3000020009243,"HotelName":"Lablue Homestay - OSC Land","Country":"Vietnam","City":"Vung Tau City","Address":"OSC land building, 110 Vo Thi Sau","Lat":10.341203875,"Lng":107.089236081},{"TravelLokaId":3000020009244,"HotelName":"Six Six Garden - Rose Koi Homestay Dalat","Country":"Vietnam","City":"Da Lat","Address":"66 Hoang Dieu","Lat":11.9425601,"Lng":108.4257755},{"TravelLokaId":3000020009252,"HotelName":"New Life Tower Apartments T&V","Country":"Vietnam","City":"Ha Long City","Address":"Hoang Quoc Viet","Lat":20.9580359,"Lng":107.0077841},{"TravelLokaId":3000020009262,"HotelName":"White Pearl Hotel - Traveloka Exclusive Deal","Country":"Vietnam","City":"Da Lat","Address":"53 Phan Nhu Thach Street","Lat":11.9417793,"Lng":108.4345337},{"TravelLokaId":3000020009290,"HotelName":"Tran Duy City Homes 01 - Nguyen Hien","Country":"Vietnam","City":"Vung Tau City","Address":"38A Nguyen Hien","Lat":10.3322344,"Lng":107.0872059},{"TravelLokaId":3000020009292,"HotelName":"Tran Duy City Homes 02 - Ho Quy Ly","Country":"Vietnam","City":"Vung Tau City","Address":"17/2A Ho Quy Ly","Lat":10.3392645,"Lng":107.0905959},{"TravelLokaId":3000020009296,"HotelName":"Tran Duy City Villa 1","Country":"Vietnam","City":"Vung Tau City","Address":"139/23A Phan Chu Trinh","Lat":10.3301959,"Lng":107.0853234},{"TravelLokaId":3000020009326,"HotelName":"Son Thinh Apartment - Unit 15A","Country":"Vietnam","City":"Vung Tau City","Address":"Son Thinh Building, 23D Thuy Van","Lat":10.330192,"Lng":107.0883159},{"TravelLokaId":3000020009338,"HotelName":"Bungalow Da Lat - Lam Phuong Cac Hill","Country":"Vietnam","City":"Da Lat","Address":"02 Nguyen Thi Thu ( Trinh Hoai Duc )","Lat":11.9443613,"Lng":108.4819851},{"TravelLokaId":3000020009387,"HotelName":"Majestic Nha Trang Hotel - Traveloka Exclusive Deal","Country":"Vietnam","City":"Nha Trang","Address":"90-92 Tran Phu","Lat":12.229263,"Lng":109.198767},{"TravelLokaId":3000020009394,"HotelName":"Aroma Nha Trang Boutique Hotel - Traveloka Exclusive Deal","Country":"Vietnam","City":"Nha Trang","Address":"26A Tran Quang Khai Street","Lat":12.233239,"Lng":109.196492},{"TravelLokaId":3000020009395,"HotelName":"StayGuarantee - Da Nang","Country":"Vietnam","City":"Ngu Hanh Son District","Address":"06-10 Do Ba, T20 Beach","Lat":16.0514532,"Lng":108.2451931},{"TravelLokaId":3000020009396,"HotelName":"Sunny Hotel Nha Trang - Traveloka Exclusive Deal","Country":"Vietnam","City":"Nha Trang","Address":"96 Tran Phu","Lat":12.227419,"Lng":109.198681},{"TravelLokaId":3000020009397,"HotelName":"Come In Hotel Vung Tau","Country":"Vietnam","City":"Vung Tau City","Address":"H33, Bau Sen 2, Khu A Chau","Lat":10.337254188,"Lng":107.085242906},{"TravelLokaId":3000020009399,"HotelName":"Senkotel Hotel Nha Trang - Traveloka Exclusive Deal","Country":"Vietnam","City":"Nha Trang","Address":"64 Tran Phu Street","Lat":12.2349282,"Lng":109.1967087},{"TravelLokaId":3000020009401,"HotelName":"Arapang Hotel Dalat - Traveloka Exclusive Deal","Country":"Vietnam","City":"Da Lat","Address":"5 Phan Nhu Thach","Lat":11.941062,"Lng":108.435789},{"TravelLokaId":3000020009420,"HotelName":"Sea Wonder Hotel Danang - Traveloka Exclusive Deal","Country":"Vietnam","City":"Son Tra District","Address":"57 Nguyen Cong Sau, Phuoc My Ward","Lat":16.073016,"Lng":108.240958},{"TravelLokaId":3000020009421,"HotelName":"Dragon Sea Hotel - Traveloka Exclusive Deal","Country":"Vietnam","City":"Son Tra District","Address":"82 Ha Bong Street, My Khe Beach","Lat":16.065521,"Lng":108.2443857},{"TravelLokaId":3000020009461,"HotelName":"Full House The Apartment","Country":"Vietnam","City":"Ha Long City","Address":"Apartment 1212, 12th floor, building B, New Life Tower, Hoang Quoc Viet","Lat":20.9524598,"Lng":107.0245093},{"TravelLokaId":3000020009462,"HotelName":"Tofu's House - A Place Called Home","Country":"Vietnam","City":"Dong Da District","Address":"Số 27 ngõ 106 phố Chùa Láng, quận Đống Đa, Hà Nội","Lat":21.024342361,"Lng":105.80435308},{"TravelLokaId":3000020009495,"HotelName":"Hello Motel Long Hai","Country":"Vietnam","City":"Vung Tau City","Address":"Tinh Lo 44, Long Hai, Long Dien","Lat":10.3865132,"Lng":107.2386139},{"TravelLokaId":3000020009560,"HotelName":"Hacom Galaxy Hotel","Country":"Vietnam","City":"Phan Rang - Thap Cham City","Address":"Street 16/4, My Hai","Lat":11.56316389,"Lng":109.021368027},{"TravelLokaId":3000020009588,"HotelName":"Mia Sen Vong Hotel","Country":"Vietnam","City":"Hai Ba Trung District","Address":"No 2, 205 lane","Lat":20.996508,"Lng":105.842918},{"TravelLokaId":3000020009590,"HotelName":"Lily Hometel Centre Point","Country":"Vietnam","City":"Cau Giay District","Address":"219 Trung Kinh","Lat":21.0201997,"Lng":105.7916759},{"TravelLokaId":3000020009591,"HotelName":"Gao Homestay","Country":"Vietnam","City":"Da Lat","Address":"29 Tran Le","Lat":11.9375883,"Lng":108.4281451},{"TravelLokaId":3000020009606,"HotelName":"Tea Garden Apartment","Country":"Vietnam","City":"District 3","Address":"108/69A Tran Quang Dieu","Lat":10.790865,"Lng":106.680173},{"TravelLokaId":3000020009642,"HotelName":"Little Jasmine Homestay","Country":"Vietnam","City":"District 5","Address":"50/14 Nhieu Tam","Lat":10.7522402,"Lng":106.676234},{"TravelLokaId":3000020009644,"HotelName":"An Nhien Nguyen Trai Serviced Apartment","Country":"Vietnam","City":"District 1","Address":"214/B49 Nguyen Trai street","Lat":10.7637752,"Lng":106.6870116},{"TravelLokaId":3000020009687,"HotelName":"Snow House Hostel","Country":"Vietnam","City":"District 1","Address":"373/19 Pham Ngu Lao","Lat":10.77044,"Lng":106.698729},{"TravelLokaId":3000020009752,"HotelName":"Little Sapa Homestay","Country":"Vietnam","City":"Sa Pa District","Address":"434 Dien Bien Phu","Lat":22.338808246,"Lng":103.850149762}]