[{"TravelLokaId":9000000315434,"HotelName":"OBA Lea Apartment","Country":"Vietnam","City":"District 7","Address":"Sunrise City View, 33 Nguyen Huu Tho","Lat":10.7453754,"Lng":106.7015513},{"TravelLokaId":9000000315449,"HotelName":"Molly Luxury Apartment on Champa Island Resort","Country":"Vietnam","City":"Nha Trang","Address":"Champa Island Resort, 304, 2/4 Street","Lat":12.26438923,"Lng":109.189622735},{"TravelLokaId":9000000315453,"HotelName":"Phu Thinh 2 Hotel Danang","Country":"Vietnam","City":"Son Tra District","Address":"30 My Khe 2","Lat":16.0634025,"Lng":108.2395344},{"TravelLokaId":9000000315469,"HotelName":"Thanh Van Hotel Quy Nhon","Country":"Vietnam","City":"Quy Nhon City","Address":"311 -313 Dong Da","Lat":13.7824957,"Lng":109.2294842},{"TravelLokaId":9000000316975,"HotelName":"Lahome Retreats' Villa Des Arts Nha Trang","Country":"Vietnam","City":"Nha Trang","Address":"Pho Bien, Anh Nguyen Villa","Lat":12.2022406,"Lng":109.2128617},{"TravelLokaId":9000000317150,"HotelName":"A25 Hotel - 63A Phuong Liet","Country":"Vietnam","City":"Thanh Xuan District","Address":"Số 63A Phương Liệt, Thanh Xuân, Hà Nội","Lat":20.9925823,"Lng":105.8393044},{"TravelLokaId":9000000317184,"HotelName":"May House Nha Trang","Country":"Vietnam","City":"Nha Trang","Address":"14 Hung Dao Alley, Dang Tat","Lat":12.276518867,"Lng":109.199677314},{"TravelLokaId":9000000317218,"HotelName":"Sunas Home - Villa in Vung Tau","Country":"Vietnam","City":"Vung Tau City","Address":"H50 Bau Sen 2","Lat":10.3364142,"Lng":107.0817276},{"TravelLokaId":9000000317219,"HotelName":"The Dots House","Country":"Vietnam","City":"District 1","Address":"11 Ton That Tung","Lat":10.7702071,"Lng":106.6880567},{"TravelLokaId":9000000317502,"HotelName":"Rain Star Hotel","Country":"Vietnam","City":"Da Lat","Address":"41 Pham Ngu Lao","Lat":11.9378913,"Lng":108.434604},{"TravelLokaId":9000000317687,"HotelName":"Eudora Apartment Dalat","Country":"Vietnam","City":"Da Lat","Address":"90 Pham Ngoc Thach","Lat":11.9460791,"Lng":108.4313529},{"TravelLokaId":9000000318249,"HotelName":"The Sparrow Dalat","Country":"Vietnam","City":"Da Lat","Address":"1/30 Tran Nhan Tong","Lat":11.9495426,"Lng":108.4487429},{"TravelLokaId":9000000318790,"HotelName":"Baphu Apartment - 2mins Walk My Khe Beach","Country":"Vietnam","City":"Son Tra District","Address":"14 Lam Hoanh","Lat":16.0613404,"Lng":108.2455128},{"TravelLokaId":9000000318859,"HotelName":"Riverview Apartment","Country":"Vietnam","City":"District 2","Address":"23A No.6 Street","Lat":10.8069175,"Lng":106.7406408},{"TravelLokaId":9000000318860,"HotelName":"Chaien's House","Country":"Vietnam","City":"Binh Thanh District","Address":"158/70 Xo Viet Nghe Tinh","Lat":10.7937101,"Lng":106.7083887},{"TravelLokaId":9000000318863,"HotelName":"Plus Hotel Phu Quoc","Country":"Vietnam","City":"Phu Quoc","Address":"09-10 SS19 Sonasea Villa Complex, Duong Bao hamlet","Lat":10.1290514,"Lng":103.9826946},{"TravelLokaId":9000000318864,"HotelName":"Ciel de Puluong","Country":"Vietnam","City":"Ba Thuoc District","Address":"Don Village, Thanh Lam Commune, Ba Thuoc District, Thanh Hoa Province, Vietnam","Lat":20.445109,"Lng":105.1568021},{"TravelLokaId":9000000319078,"HotelName":"Heaven Gate Hotel O Quy Ho","Country":"Vietnam","City":"Tam Duong District","Address":"Cong Troi Area","Lat":22.355679,"Lng":103.7610056},{"TravelLokaId":9000000319079,"HotelName":"Vallee D' Amour Villa","Country":"Vietnam","City":"Da Lat","Address":"Alley 11 Khe Sanh","Lat":11.937163804,"Lng":108.45963679},{"TravelLokaId":9000000319085,"HotelName":"Sofia Hotel Phu Quoc","Country":"Vietnam","City":"Phu Quoc","Address":"SS17-S01 Sonasea Villas & Resort, Duong Bao Hamlet, Duong To Ward","Lat":10.1290514,"Lng":103.9826946},{"TravelLokaId":9000000319095,"HotelName":"Hoa Bon Mua Homestay","Country":"Vietnam","City":"Da Lat","Address":"360 Tu Phuoc","Lat":11.9445124,"Lng":108.5069709},{"TravelLokaId":9000000320311,"HotelName":"Sun Villa Muine","Country":"Vietnam","City":"Phan Thiet City","Address":"KP3, Nguyen Thong","Lat":10.9420521,"Lng":108.1743865},{"TravelLokaId":9000000320511,"HotelName":"Hanoi Ruby Guest House","Country":"Vietnam","City":"Hoan Kiem District","Address":"91 Hang Ma, Hoan Kiem, Ha Noi","Lat":21.036533,"Lng":105.846746},{"TravelLokaId":9000000320574,"HotelName":"Vincent Ha Long Hotel","Country":"Vietnam","City":"Ha Long City","Address":"44 Ha Long","Lat":20.9566776,"Lng":107.0562972},{"TravelLokaId":9000000320581,"HotelName":"Saigon City Center Hostel","Country":"Vietnam","City":"District 1","Address":"385/143 Nguyen Cong Tru","Lat":10.7651,"Lng":106.697779},{"TravelLokaId":9000000320584,"HotelName":"Auhome - Fuji Apartment","Country":"Vietnam","City":"District 1","Address":"5/90 Nguyen Trung Ngan","Lat":10.784637576,"Lng":106.70617973},{"TravelLokaId":9000000320687,"HotelName":"Ciao SaiGon Airport Hotel & Apartment","Country":"Vietnam","City":"Tan Binh District","Address":"18 Nguyen Van Mai","Lat":10.806185,"Lng":106.6634068},{"TravelLokaId":9000000320696,"HotelName":"X Tea n Stay","Country":"Vietnam","City":"District 1","Address":"120/33/25 Tran Hung Dao","Lat":10.76557,"Lng":106.691847},{"TravelLokaId":9000000320716,"HotelName":"Green Island Villa Hoi An","Country":"Vietnam","City":"Hoi An","Address":"256 Nguyen Tri Phuong","Lat":15.8728378,"Lng":108.3403513},{"TravelLokaId":9000000320746,"HotelName":"Hanh Nguyen Gems Hotel and Spa","Country":"Vietnam","City":"Hai Chau District","Address":"15 Pham Phu Thu","Lat":16.067371765,"Lng":108.22425711},{"TravelLokaId":9000000320773,"HotelName":"Beach House Homestay","Country":"Vietnam","City":"Dong Hoi City","Address":"189A Truong Phap","Lat":17.4949733,"Lng":106.625404},{"TravelLokaId":9000000320777,"HotelName":"Cherry Hotel & Apartment Da Nang","Country":"Vietnam","City":"Ngu Hanh Son District","Address":"19-21 Do Bi","Lat":16.0542935,"Lng":108.2457343},{"TravelLokaId":9000000320793,"HotelName":"Nha Trang Apartment","Country":"Vietnam","City":"Nha Trang","Address":"4 Trần Phú","Lat":12.2542955,"Lng":109.1965055},{"TravelLokaId":9000000320798,"HotelName":"Hanoi Alley Homestay","Country":"Vietnam","City":"Hoan Kiem District","Address":"9 Hai Tuong, Ta Hien, Hoan Kiem, Ha Noi","Lat":21.0343529,"Lng":105.8518388},{"TravelLokaId":9000000320804,"HotelName":"Van Xuan Motel","Country":"Vietnam","City":"Thanh Hoa City","Address":"34-36 Ham Tu St., Quang Hung ward","Lat":19.789829847,"Lng":105.807218287},{"TravelLokaId":9000000320805,"HotelName":"Davi's House & Apartment","Country":"Vietnam","City":"Ngu Hanh Son District","Address":"82/11 Tran Khanh Du","Lat":16.0511956,"Lng":108.2416178},{"TravelLokaId":9000000320819,"HotelName":"Crystal Apartment","Country":"Vietnam","City":"Hai Chau District","Address":"103 Nguyen Lo Trach","Lat":16.0323518,"Lng":108.2275932},{"TravelLokaId":9000000320822,"HotelName":"Mangcay House Sapa","Country":"Vietnam","City":"Sa Pa District","Address":"42 Cau May","Lat":22.3330233,"Lng":103.8426777},{"TravelLokaId":9000000320835,"HotelName":"Hometel Ha Long Bay","Country":"Vietnam","City":"Ha Long City","Address":"Sunrise Building,  Hung Thang 21","Lat":20.9590032,"Lng":107.0102735},{"TravelLokaId":9000000320850,"HotelName":"Miah Boutique Homestay","Country":"Vietnam","City":"Hoan Kiem District","Address":"205 Hang Bong street, Hoan Kiem","Lat":21.028905,"Lng":105.844508},{"TravelLokaId":9000000320869,"HotelName":"Hoang Son Hotel Can Tho","Country":"Vietnam","City":"Ninh Kieu District","Address":"191A Tran Van Kheo","Lat":10.0469221,"Lng":105.7882603},{"TravelLokaId":9000000320874,"HotelName":"Imotel6 Can Tho","Country":"Vietnam","City":"Cai Rang District","Address":"A12-A15 Tay Do Area","Lat":10.00788886,"Lng":105.77650936},{"TravelLokaId":9000000320893,"HotelName":"New Century Hotel","Country":"Vietnam","City":"Cau Giay District","Address":"No 4 Khuc Thua Du Street Cau Giay District","Lat":21.0305024,"Lng":105.7912365},{"TravelLokaId":9000000320907,"HotelName":"Luxury Hotel Da Nang","Country":"Vietnam","City":"Cam Le District","Address":"167 Ton Dan","Lat":16.0543822,"Lng":108.1790821},{"TravelLokaId":9000000320925,"HotelName":"Ha Phuong Homestay","Country":"Vietnam","City":"Phu Loc District, Hue City","Address":"111 Nguyen Van","Lat":16.237197,"Lng":108.0783451},{"TravelLokaId":9000000320945,"HotelName":"Thanh Ngoc Hotel Nha Trang","Country":"Vietnam","City":"Nha Trang","Address":"21 Tue Tinh","Lat":12.231671559,"Lng":109.197519721},{"TravelLokaId":9000000320970,"HotelName":"Thien Thanh Hotel Danang","Country":"Vietnam","City":"Thanh Khe District","Address":"71 Dien Bien Phu","Lat":16.0655343,"Lng":108.2009067},{"TravelLokaId":9000000320973,"HotelName":"The Alps Homestay Da Nang","Country":"Vietnam","City":"Son Tra District","Address":"16 Le Tan Toan","Lat":16.0745057,"Lng":108.2403351},{"TravelLokaId":9000000321010,"HotelName":"Mihoki Suites Saigon","Country":"Vietnam","City":"District 3","Address":"117 Nguyen Dinh Chieu","Lat":10.7778832,"Lng":106.6899432},{"TravelLokaId":9000000321012,"HotelName":"Truong Thinh Hotel Ben Tre","Country":"Vietnam","City":"Ben Tre City","Address":"500A2, Nguyen Thi Đinh","Lat":10.254462245,"Lng":106.374295726},{"TravelLokaId":9000000321014,"HotelName":"The Bluffs Ho Tram Strip","Country":"Vietnam","City":"Xuyen Moc District, Vung Tau City","Address":"Phuoc Thuan Commune","Lat":10.4867856,"Lng":107.4538023},{"TravelLokaId":9000000321019,"HotelName":"Willday 2 Bedroom Near Airport","Country":"Vietnam","City":"Tan Binh District","Address":"5B Pho Quang","Lat":10.8061098,"Lng":106.6665712},{"TravelLokaId":9000000321022,"HotelName":"Park Homes Service Apartment 2","Country":"Vietnam","City":"Nam Tu Liem District","Address":"4, Alley 128 Dinh Thon","Lat":21.019080003,"Lng":105.776788462},{"TravelLokaId":9000000321060,"HotelName":"Hong Ngoc Hotel","Country":"Vietnam","City":"Luc Yen District","Address":"34 Ly Tu Trong street","Lat":22.112280417,"Lng":104.771188358},{"TravelLokaId":9000000321063,"HotelName":"Duy Nhat Hotel Gia Lai","Country":"Vietnam","City":"Chu Puh District","Address":"38 Hung Vuong","Lat":13.5498665,"Lng":108.0981631},{"TravelLokaId":9000000321072,"HotelName":"XXXX","Country":"Vietnam","City":"Phu Quoc","Address":"Area 1, Suoi Lon, Duong To","Lat":10.129102706,"Lng":104.010047263},{"TravelLokaId":9000000321074,"HotelName":"Duoc Coco Villa Dalat","Country":"Vietnam","City":"Da Lat","Address":"36 Le Van Tam","Lat":11.9381649,"Lng":108.4556145},{"TravelLokaId":9000000321076,"HotelName":"17 Degrees Homestay","Country":"Vietnam","City":"Da Lat","Address":"K6, Residential An Son, Ward 4, Da Lat City","Lat":11.922677767,"Lng":108.42061758},{"TravelLokaId":9000000321083,"HotelName":"Paradise House Da Lat","Country":"Vietnam","City":"Da Lat","Address":"39 Ly Nam De, Ward 8","Lat":11.9624686,"Lng":108.4398576},{"TravelLokaId":9000000321085,"HotelName":"Kim Oanh Orchids Hotel","Country":"Vietnam","City":"Da Lat","Address":"24 Khu Hoa Binh","Lat":11.9436529,"Lng":108.4361837}]