[{"TravelLokaId":9000000370472,"HotelName":"Bee Hotel Gia Lai","Country":"Vietnam","City":"Pleiku City","Address":"264 Phan Dinh Phung","Lat":13.9807681,"Lng":107.9927015},{"TravelLokaId":9000000370483,"HotelName":"Golden Villa Vung Tau","Country":"Vietnam","City":"Vung Tau City","Address":"9 Le Hong Phong","Lat":10.3598908,"Lng":107.0783832},{"TravelLokaId":9000000370486,"HotelName":"Amy Home - Vinhomes Greenbay Hanoi","Country":"Vietnam","City":"Nam Tu Liem District","Address":"Vinhomes Green Bay Me Tri, Moc Lan","Lat":21.0006065,"Lng":105.7843846},{"TravelLokaId":9000000370550,"HotelName":"Lan Anh Villa - Furama Da Nang","Country":"Vietnam","City":"Ngu Hanh Son District","Address":"107 Vo Nguyen Giap St., Khue My Ward, Ngu Hanh Son District, Danang City, Vietnam","Lat":16.0319433,"Lng":108.2535293},{"TravelLokaId":9000000370584,"HotelName":"A Oi - An Vien Villa","Country":"Vietnam","City":"Nha Trang","Address":"D2","Lat":12.197571933,"Lng":109.206301544},{"TravelLokaId":9000000370588,"HotelName":"Dolce Villas - Furama Villas","Country":"Vietnam","City":"Ngu Hanh Son District","Address":"107 Vo Nguyen Giap","Lat":16.036645293,"Lng":108.252027267},{"TravelLokaId":9000000370591,"HotelName":"Homestay Coco Vung Tau","Country":"Vietnam","City":"Vung Tau City","Address":"66/1 Ha Long, Ward 2","Lat":10.330599459,"Lng":107.076336391},{"TravelLokaId":9000000370593,"HotelName":"Shiny Homestay Da Nang","Country":"Vietnam","City":"Ngu Hanh Son District","Address":"369 Nguyen Xien","Lat":16.0152567,"Lng":108.2556084},{"TravelLokaId":9000000370637,"HotelName":"Mai Hung Hotel","Country":"Vietnam","City":"Phu Quoc","Address":"SS14 Sonasea Area, Group 5, Duong Bao Hamlel","Lat":10.130038,"Lng":103.9814134},{"TravelLokaId":9000000370746,"HotelName":"Quynh House","Country":"Vietnam","City":"Da Lat","Address":"B402 Mac Dinh Chi Apartment","Lat":11.9403915,"Lng":108.4260088},{"TravelLokaId":9000000370771,"HotelName":"Seana Hotel Nha Trang","Country":"Vietnam","City":"Nha Trang","Address":"4H - 5H Quan Tran","Lat":12.2344143,"Lng":109.1961479},{"TravelLokaId":9000000371192,"HotelName":"Mercury House - Green Bay Premium Ha Long","Country":"Vietnam","City":"Ha Long City","Address":"Green Bay Premium Building, Hoang Quoc Viet","Lat":20.9580991,"Lng":107.0077987},{"TravelLokaId":9000000371350,"HotelName":"Hong Mon Villas","Country":"Vietnam","City":"Da Lat","Address":"100 To Hien Thanh","Lat":11.93012557,"Lng":108.4433778},{"TravelLokaId":9000000371618,"HotelName":"A Little Hoi An - Da Nang Homestay","Country":"Vietnam","City":"Hai Chau District","Address":"654/11/5 Trung Nu Vuong","Lat":16.043951431,"Lng":108.207021142},{"TravelLokaId":9000000371621,"HotelName":"Lami Homestay Vung Tau","Country":"Vietnam","City":"Vung Tau City","Address":"149 Vo Thi Sau","Lat":10.3343764,"Lng":107.0858325},{"TravelLokaId":9000000371622,"HotelName":"Art Hotel Can Tho","Country":"Vietnam","City":"Ninh Kieu District","Address":"42-44-46 Nguyen An Ninh, Ninh Kieu District","Lat":10.0310427,"Lng":105.7866038},{"TravelLokaId":9000000371721,"HotelName":"Mi House - Luxury Apartment Landmark 81","Country":"Vietnam","City":"Binh Thanh District","Address":"208 Nguyen Huu Canh","Lat":10.7956957,"Lng":106.7188272},{"TravelLokaId":9000000371737,"HotelName":"Ohana Hotel","Country":"Vietnam","City":"Hai Ba Trung District","Address":"153 Trieu Viet Vuong, Hai Ba Trung","Lat":21.01346,"Lng":105.8504259},{"TravelLokaId":9000000371837,"HotelName":"Sunset Garden Villa Riverside","Country":"Vietnam","City":"Hoi An","Address":"Group 1, An Tan, Cam An","Lat":15.906613,"Lng":108.335416},{"TravelLokaId":9000000371847,"HotelName":"The Q Hotel Hanoi","Country":"Vietnam","City":"Ba Dinh District","Address":"87-89-91 Nguyen Truong To","Lat":21.042652,"Lng":105.84444},{"TravelLokaId":9000000371848,"HotelName":"La Sera Suites Nha Trang","Country":"Vietnam","City":"Nha Trang","Address":"Khu do thi bien An Vien","Lat":12.1969108,"Lng":109.2092716},{"TravelLokaId":9000000371851,"HotelName":"Sea Swan Apartment and Hotel","Country":"Vietnam","City":"Ngu Hanh Son District","Address":"Lot 17 An Thuong 29","Lat":16.051699,"Lng":108.24457},{"TravelLokaId":9000000378795,"HotelName":"Cozrum Homes Le Thanh Ton","Country":"Vietnam","City":"District 1","Address":"15A/26 Le Thanh Ton","Lat":10.7808879,"Lng":106.705619},{"TravelLokaId":9000000380095,"HotelName":"Hai Dang Mui Ne Resort","Country":"Vietnam","City":"Phan Thiet City","Address":"Suoi Nuoc","Lat":10.995948876,"Lng":108.345611005},{"TravelLokaId":9000000380097,"HotelName":"KAT Hostel","Country":"Vietnam","City":"Thanh Khe District","Address":"424/9 Ong Ich Khiem","Lat":16.0664599,"Lng":108.2142707},{"TravelLokaId":9000000380099,"HotelName":"Auntie Lien's Homestay","Country":"Vietnam","City":"Cau Giay District","Address":"Cau Giay","Lat":21.0362368,"Lng":105.7905825},{"TravelLokaId":9000000380997,"HotelName":"Oblue Premier Villas & Hotel Phu Quoc","Country":"Vietnam","City":"Phu Quoc","Address":"Sonasea Complex, Tran Hung Dao Street","Lat":10.194926446,"Lng":103.967200135},{"TravelLokaId":9000000386263,"HotelName":"666 Seoul Hotel","Country":"Vietnam","City":"Cau Giay District","Address":"6 Nguyen Chanh","Lat":21.0084532,"Lng":105.7953185},{"TravelLokaId":9000000398370,"HotelName":"Carol's Homestay","Country":"Vietnam","City":"Son Tra District","Address":"46 Tan Phu 1","Lat":16.0847884,"Lng":108.244811},{"TravelLokaId":9000000398400,"HotelName":"The Jas' Homies - Rivergate Residence","Country":"Vietnam","City":"District 4","Address":"155 Ben Van Don","Lat":10.7621804,"Lng":106.6991261},{"TravelLokaId":9000000398924,"HotelName":"Alibu Resort Nha Trang","Country":"Vietnam","City":"Nha Trang","Address":"Pham Van Dong","Lat":12.2975633,"Lng":109.2172054},{"TravelLokaId":9000000399462,"HotelName":"Woody House Saigon Center","Country":"Vietnam","City":"District 1","Address":"6/27 Cach Mang Thang Tam","Lat":10.7722401,"Lng":106.6935662},{"TravelLokaId":9000000400107,"HotelName":"Tan Long V Hotel & Apartment","Country":"Vietnam","City":"Ngo Quyen District","Address":"2B/193 Van Cao Street Hai An District","Lat":20.8361011,"Lng":106.7011455},{"TravelLokaId":9000000400113,"HotelName":"Tan Long V2 Hotel","Country":"Vietnam","City":"Ngo Quyen District","Address":"Số 88/193 Van Cao Street, Hai An District.","Lat":20.8384703,"Lng":106.7002201},{"TravelLokaId":9000000400119,"HotelName":"Tan Long Wonder Hotel","Country":"Vietnam","City":"Ngo Quyen District","Address":"194a/193 Van Cao, Dang Lam, Hai An District","Lat":20.8349998,"Lng":106.70136},{"TravelLokaId":9000000400455,"HotelName":"HomeAway - Melody Vung Tau","Country":"Vietnam","City":"Vung Tau City","Address":"149 Vo Thi Sau","Lat":10.3343764,"Lng":107.0858325},{"TravelLokaId":9000000400531,"HotelName":"Kem and Stay Nha Trang","Country":"Vietnam","City":"Nha Trang","Address":"3 Phuong Cau","Lat":12.2525603,"Lng":109.1919404},{"TravelLokaId":9000000407703,"HotelName":"Couple Nest Apartment - Super Romantic","Country":"Vietnam","City":"District 7","Address":"No. 33 Nguyen Huu Tho","Lat":10.7453754,"Lng":106.7015513},{"TravelLokaId":9000000407717,"HotelName":"Cloud Apartment","Country":"Vietnam","City":"Nha Trang","Address":"172/3 Bạch Đằng","Lat":12.2398581,"Lng":109.1930694},{"TravelLokaId":9000000412873,"HotelName":"Fuji Boutique Danang","Country":"Vietnam","City":"Hai Chau District","Address":"K19/21 Quang Trung","Lat":16.07484847,"Lng":108.221763352},{"TravelLokaId":9000000413720,"HotelName":"H&T Apartments","Country":"Vietnam","City":"Phu Nhuan District","Address":"146 Nguyen Van Troi","Lat":10.798722,"Lng":106.670563},{"TravelLokaId":9000000413910,"HotelName":"Liti Home","Country":"Vietnam","City":"Hoan Kiem District","Address":"9 Ba Trieu","Lat":21.025337,"Lng":105.851602},{"TravelLokaId":9000000413921,"HotelName":"The Nang Suites","Country":"Vietnam","City":"Son Tra District","Address":"K74/31 Vo Van Kiet","Lat":16.0630963,"Lng":108.2372893},{"TravelLokaId":9000000413935,"HotelName":"Nano Eco Hostel","Country":"Vietnam","City":"Huong Thuy Town","Address":"Cu Chanh 1 village, Thuy Bang commune, Huong Thuy town","Lat":16.412965102,"Lng":107.575991885},{"TravelLokaId":9000000413939,"HotelName":"Lamin Hotel Binh Thuan","Country":"Vietnam","City":"Phu Quy District","Address":"38 Ly Thuong Kiet","Lat":10.5104211,"Lng":108.9497765},{"TravelLokaId":9000000414110,"HotelName":"Mrs 3 Dorms & Nature","Country":"Vietnam","City":"Ninh Kieu District","Address":"43/10/7 Tran Hung Dao","Lat":10.038586977,"Lng":105.777373188},{"TravelLokaId":9000000414113,"HotelName":"Rose House - Thuy Son","Country":"Vietnam","City":"Ngu Hanh Son District","Address":"334 Thuy Son 4","Lat":16.0115417,"Lng":108.2599126},{"TravelLokaId":9000000414175,"HotelName":"Cozrum Homes Dragon House","Country":"Vietnam","City":"District 1","Address":"161A/3 Nguyen Van Thu","Lat":10.7886776,"Lng":106.6979024},{"TravelLokaId":9000000414223,"HotelName":"Anna Sweet Home 153","Country":"Vietnam","City":"Son Tra District","Address":"153 To Hien Thanh","Lat":16.0570491,"Lng":108.2441736},{"TravelLokaId":9000000414238,"HotelName":"Nhat Quang Hotel Bao Loc","Country":"Vietnam","City":"Bao Loc City","Address":"199 Ly Thuong Kiet","Lat":11.559730272,"Lng":107.818187911},{"TravelLokaId":9000000414272,"HotelName":"Hotel K","Country":"Vietnam","City":"District 4","Address":"214C Xom Chieu","Lat":10.7547388,"Lng":106.7086625},{"TravelLokaId":9000000414276,"HotelName":"The Royal Hotel & Apartment","Country":"Vietnam","City":"District 7","Address":"No 24 Noi khu Hung Phuoc 1 Street","Lat":10.7316362,"Lng":106.7094022},{"TravelLokaId":9000000414296,"HotelName":"Mymy hotel","Country":"Vietnam","City":"District 10","Address":"391/40 Su Van Hanh","Lat":10.7718339,"Lng":106.6694727},{"TravelLokaId":9000000414300,"HotelName":"Nha Viet Hotel","Country":"Vietnam","City":"Ninh Binh City","Address":"No 72, Le Thai To st, Tan Thanh ward, Ninh Binh city","Lat":20.2574572,"Lng":105.9631231},{"TravelLokaId":9000000414302,"HotelName":"TH Quy Nhon","Country":"Vietnam","City":"Quy Nhon City","Address":"Lot 19 Nguyen Thi Thap","Lat":13.776981114,"Lng":109.239119888},{"TravelLokaId":9000000414432,"HotelName":"Hanoi Star Hotel","Country":"Vietnam","City":"Chuong My District","Address":"14 Nguyen Nhu Do","Lat":20.926204839,"Lng":105.684531553},{"TravelLokaId":9000000415748,"HotelName":"Kegon Hotel","Country":"Vietnam","City":"Ba Dinh District","Address":"84 Dao Tan","Lat":21.0334186,"Lng":105.8067841},{"TravelLokaId":9000000416386,"HotelName":"EX Da Nang Luxury Hotel","Country":"Vietnam","City":"Ngu Hanh Son District","Address":"02 An Tu Cong Chua","Lat":16.036966541,"Lng":108.239903443},{"TravelLokaId":9000000416752,"HotelName":"Krittina VK - Luxury Ciputra Apartment","Country":"Vietnam","City":"Tay Ho District","Address":"Ciputra Hanoi International City","Lat":21.0714833,"Lng":105.8086462},{"TravelLokaId":9000000416878,"HotelName":"Sao Mai Beach Resort","Country":"Vietnam","City":"Tuy Hoa City","Address":"Le Duan, An Phu","Lat":13.154326645,"Lng":109.292111265}]