[{"TravelLokaId":9000000709870,"HotelName":"Megi Homestay Nha Trang","Country":"Vietnam","City":"Nha Trang","Address":"7 Sao Bien","Lat":12.2772762,"Lng":109.2004966},{"TravelLokaId":9000000709871,"HotelName":"The Tournesol","Country":"Vietnam","City":"Hoan Kiem District","Address":"120B Hang Bong","Lat":21.0297007,"Lng":105.8458479},{"TravelLokaId":9000000711033,"HotelName":"Nine Housing - Tran Vu","Country":"Vietnam","City":"Ba Dinh District","Address":"62-64 Tran Vu","Lat":21.0435159,"Lng":105.838866},{"TravelLokaId":9000000711230,"HotelName":"Bien Ngoc Hotel","Country":"Vietnam","City":"Vung Tau City","Address":"1013/3 Street 30 Thang 4","Lat":10.4100116,"Lng":107.1274615},{"TravelLokaId":9000000717158,"HotelName":"Happy View Hotel","Country":"Vietnam","City":"La Gi Town","Address":"472 Ly Thai To","Lat":10.707629,"Lng":107.8400292},{"TravelLokaId":9000000717370,"HotelName":"Doan Gia Resort Phong Nha","Country":"Vietnam","City":"Bo Trach District","Address":"DT 20 , Phong Nha, Son Trach, Bo Trach, Quang Binh","Lat":17.6103968,"Lng":106.3083136},{"TravelLokaId":9000000717396,"HotelName":"Tam Coc Condeluz Boutique Hotel","Country":"Vietnam","City":"Hoa Lu District","Address":"3, Van Lam, Ninh Hai","Lat":20.2153474,"Lng":105.9372031},{"TravelLokaId":9000000717403,"HotelName":"Tuong Lai Hotel & Apartment","Country":"Vietnam","City":"Vung Tau City","Address":"I21 Bau Sen Street","Lat":10.336535971,"Lng":107.081749815},{"TravelLokaId":9000000717407,"HotelName":"Cozoro 1 - Luxury Apartment ChinaTown","Country":"Vietnam","City":"District 6","Address":"50 Phan Văn Khoe","Lat":10.749237,"Lng":106.6531244},{"TravelLokaId":9000000718421,"HotelName":"Quang Vinh Apartment and Hotel Hoi An","Country":"Vietnam","City":"Hoi An","Address":"9 Ly Nam De","Lat":15.8824818,"Lng":108.3337173},{"TravelLokaId":9000000718467,"HotelName":"Pavilor Hotel Nha Trang","Country":"Vietnam","City":"Nha Trang","Address":"3 Pham Van Dong, OC3 Buiding","Lat":12.273676066,"Lng":109.201682357},{"TravelLokaId":9000000718535,"HotelName":"Hoi An Gravel Pool Villa & Spa","Country":"Vietnam","City":"Hoi An","Address":"34 Huynh Thuc Khang","Lat":15.891408,"Lng":108.31854},{"TravelLokaId":9000000718576,"HotelName":"Chikoo Homestay","Country":"Vietnam","City":"Ba Dinh District","Address":"Số 12 Ngõ 35 Phan Đình Phùng, Quán Thánh, Ba Đình, Hà Nội, Vietnam, Hanoi","Lat":21.040169383,"Lng":105.843652869},{"TravelLokaId":9000000719306,"HotelName":"Elizabeth Hotel Tam Coc","Country":"Vietnam","City":"Hoa Lu District","Address":"Group 4, Van Lam, Hoa Lu","Lat":20.2114357,"Lng":105.936831},{"TravelLokaId":9000000720837,"HotelName":"Huna Apartment","Country":"Vietnam","City":"District 7","Address":"829A Huynh Tan Phat","Lat":10.7359838,"Lng":106.7306972},{"TravelLokaId":9000000722743,"HotelName":"Santorin Hoian Villa","Country":"Vietnam","City":"Hoi An","Address":"202 Nguyen Duy Hieu","Lat":15.8795002,"Lng":108.3425207},{"TravelLokaId":9000000722788,"HotelName":"Tiny Apartment Saigon Centre","Country":"Vietnam","City":"District 1","Address":"7/1A Nguyen Trai","Lat":10.7707268,"Lng":106.6931882},{"TravelLokaId":9000000723269,"HotelName":"Ha Long Land","Country":"Vietnam","City":"Ha Long City","Address":"A78+ 79 Au Tau Area, Tuan Chau","Lat":20.9174913,"Lng":106.9914441},{"TravelLokaId":9000000723290,"HotelName":"Galaxy Hotel","Country":"Vietnam","City":"Tan Binh District","Address":"38/6 Lam son","Lat":10.811112,"Lng":106.6672959},{"TravelLokaId":9000000724215,"HotelName":"An Yen Villa Da Lat","Country":"Vietnam","City":"Da Lat","Address":"3E Hoang Hoa Tham Street","Lat":11.9344808,"Lng":108.4645777},{"TravelLokaId":9000000724227,"HotelName":"Ninh Binh Paradise Apartment","Country":"Vietnam","City":"Ninh Binh City","Address":"35 Nguyễn Văn Hoan, Ninh Khánh, Ninh Bình, Việt Nam","Lat":20.2787568,"Lng":105.969562},{"TravelLokaId":9000000724519,"HotelName":"Alagon Plus Hotel & Spa","Country":"Vietnam","City":"District 1","Address":"52 Pham Hong Thai, Ben Thanh Ward, Distric 1","Lat":10.7716179,"Lng":106.6945034},{"TravelLokaId":9000000724555,"HotelName":"The Time Hotel Nha Trang","Country":"Vietnam","City":"Nha Trang","Address":"17/15 Nguyen Thi Minh Khai","Lat":12.2384041,"Lng":109.1928729},{"TravelLokaId":9000000724852,"HotelName":"Elysian homestay Dalat","Country":"Vietnam","City":"Da Lat","Address":"109/7 Ngo Thi Sy","Lat":11.9326674,"Lng":108.4202124},{"TravelLokaId":9000000724859,"HotelName":"Hue 1962 Inn","Country":"Vietnam","City":"Hue City","Address":"9/130 Đang Thai Than","Lat":16.4741622,"Lng":107.5779151},{"TravelLokaId":9000000725251,"HotelName":"White Palace Hotel Thai Binh","Country":"Vietnam","City":"Thai Binh City","Address":"245B Tran Thai Tong","Lat":20.4458133,"Lng":106.3286777},{"TravelLokaId":9000000725255,"HotelName":"Chu Nguyen Hotel Dalat","Country":"Vietnam","City":"Da Lat","Address":"89/25 Dong Tam","Lat":11.9381845,"Lng":108.4256508},{"TravelLokaId":9000000725821,"HotelName":"Giang Son Sea View Hotel","Country":"Vietnam","City":"Cat Hai District","Address":"230 Mot Thang Tu","Lat":20.7236182,"Lng":107.0502049},{"TravelLokaId":9000000725852,"HotelName":"Duy Tung Hotel Da Nang","Country":"Vietnam","City":"Son Tra District","Address":"90 To Hien Thanh","Lat":16.0618737,"Lng":108.2421632},{"TravelLokaId":9000000725927,"HotelName":"Hotel J-ESPACE","Country":"Vietnam","City":"District 1","Address":"190 Nguyen Van Thu","Lat":10.7858205,"Lng":106.6949195},{"TravelLokaId":9000000726230,"HotelName":"Brody Beach Hotel","Country":"Vietnam","City":"Thanh Khe District","Address":"567 Nguyen Tat Thanh","Lat":16.0735725,"Lng":108.2027521},{"TravelLokaId":9000000726562,"HotelName":"22Housing Vinhomes Metropolis","Country":"Vietnam","City":"Ba Dinh District","Address":"Vinhomes Metropolis, 29 Lieu Giai, Ba Dinh","Lat":21.0310827,"Lng":105.8134343},{"TravelLokaId":9000000726743,"HotelName":"Binh Minh Hotel Ha Nam","Country":"Vietnam","City":"Duy Tien District","Address":"Nguyen Huu Tien st, Dong Van Ward, Duy Tien, Ha Nam","Lat":20.64428,"Lng":105.9349354},{"TravelLokaId":9000000726845,"HotelName":"Titanic 2 Hotel","Country":"Vietnam","City":"Bac Tu Liem District","Address":"Số 22, Ngõ 467 Phạm Văn Đồng, Cổ Nhuế 1, Bắc Từ Liêm, Hà Nội","Lat":21.0593087,"Lng":105.7836134},{"TravelLokaId":9000000727982,"HotelName":"Circle Chiquilla","Country":"Vietnam","City":"Da Lat","Address":"128C An Duong Vuong","Lat":11.9548382,"Lng":108.4357898},{"TravelLokaId":9000000728609,"HotelName":"Doc Moc Homestay","Country":"Vietnam","City":"Da Lat","Address":"B17 Mac Dinh Chi","Lat":11.940108188,"Lng":108.428409513},{"TravelLokaId":9000000728932,"HotelName":"Leisure Inn Cocobay","Country":"Vietnam","City":"Ngu Hanh Son District","Address":"Cocobay Complex, Truong Sa Street, Hoa Hai Ward, Ngu Hanh Son District, Danang.","Lat":15.9662992,"Lng":108.2822691},{"TravelLokaId":9000000729489,"HotelName":"O Zoli Home","Country":"Vietnam","City":"Ninh Binh City","Address":"No 18/22, alley 67, Tran Hung Dao","Lat":20.2630925,"Lng":105.9705214},{"TravelLokaId":9000000729498,"HotelName":"Dinh Ngoc Guesthouse","Country":"Vietnam","City":"Phan Thiet City","Address":"201 Nguyen Dinh Chieu","Lat":10.9554513,"Lng":108.2269615},{"TravelLokaId":9000000730156,"HotelName":"Chi Hieu Homestay","Country":"Vietnam","City":"Bac Lieu City","Address":"No 3, Tran Van Tat Street","Lat":9.2985657,"Lng":105.7274684},{"TravelLokaId":9000000732598,"HotelName":"Artmio Hotel Apartment & Coffee","Country":"Vietnam","City":"Vung Tau City","Address":"11 Le Van Tam","Lat":10.3490432,"Lng":107.0760584},{"TravelLokaId":9000000732886,"HotelName":"Nam Dinh Homestay","Country":"Vietnam","City":"Con Dao (Hon Son) District","Address":"Vo Thi Sau","Lat":8.687761411,"Lng":106.607939071},{"TravelLokaId":9000000732956,"HotelName":"Hotel Villa Ju","Country":"Vietnam","City":"Nam Tu Liem District","Address":"C34 Lane 89, Le Duc Tho, My Dinh 2, Nam Tu Liem","Lat":21.028984,"Lng":105.7697},{"TravelLokaId":9000000733304,"HotelName":"Thuy Duong Hotel Dalat","Country":"Vietnam","City":"Da Lat","Address":"19A Phan Nhu Thach","Lat":11.9412188,"Lng":108.4352532},{"TravelLokaId":9000000733320,"HotelName":"Hotel Ngan Ha","Country":"Vietnam","City":"Dong Da District","Address":"No.9, Alley 62, Nguyen Chi Thanh","Lat":21.020988708,"Lng":105.807946768},{"TravelLokaId":9000000733604,"HotelName":"Chestnut Panorama","Country":"Vietnam","City":"Nha Trang","Address":"02 Nguyen Thi Minh Khai","Lat":12.2390678,"Lng":109.1955775},{"TravelLokaId":9000000734920,"HotelName":"Hong Diem Motel","Country":"Vietnam","City":"Lien Chieu District","Address":"5 Phan Van Dat","Lat":16.081149856,"Lng":108.146283239},{"TravelLokaId":9000000735028,"HotelName":"Casa Blanca Villa Nha Trang","Country":"Vietnam","City":"Nha Trang","Address":"Lot R12 - R14, Anh Nguyen Villas, Pho Rung Street","Lat":12.2032474,"Lng":109.2126732},{"TravelLokaId":9000000735202,"HotelName":"Hanoi Antique Hotel","Country":"Vietnam","City":"Hoan Kiem District","Address":"39, 39 Hang Be","Lat":21.032854964,"Lng":105.853876896},{"TravelLokaId":9000000735620,"HotelName":"Dinh Nguyen Hotel Dalat","Country":"Vietnam","City":"Da Lat","Address":"108 Nguyen Thi Nghia","Lat":11.9511134,"Lng":108.4395469},{"TravelLokaId":9000000735680,"HotelName":"Cocoviet Villa Hoi An","Country":"Vietnam","City":"Hoi An","Address":"09 Pham Hong Thai, Cam Chau, Hoi An, Quang Nam, Viet Nam","Lat":15.877712,"Lng":108.3357042},{"TravelLokaId":9000000735869,"HotelName":"Tuyet Hoa Hon Bo Bungalow","Country":"Vietnam","City":"Da Lat","Address":"Huynh Tan Phat Street","Lat":11.9711416,"Lng":108.4875711},{"TravelLokaId":9000000736060,"HotelName":"An Nhien Hotel Apartment - Tran Quang Dieu","Country":"Vietnam","City":"District 3","Address":"46/29 Tran Quang Dieu Street","Lat":10.788967474,"Lng":106.678909078},{"TravelLokaId":9000000736117,"HotelName":"Chapa Farmstay - Mountain Retreat","Country":"Vietnam","City":"Sa Pa District","Address":"Lao Chai","Lat":22.31035522,"Lng":103.863547746},{"TravelLokaId":9000000736191,"HotelName":"The Moon Apartment","Country":"Vietnam","City":"Vung Tau City","Address":"110 Vo Thi Sau","Lat":10.3412107,"Lng":107.089024},{"TravelLokaId":9000000736193,"HotelName":"Hanoi D'Capitale Condominium -  Vinhomes D'Capitale","Country":"Vietnam","City":"Cau Giay District","Address":"119 Tran Duy Hung. C2 Building, Vinhomes D'Capitale","Lat":21.00511,"Lng":105.794233},{"TravelLokaId":9000000736194,"HotelName":"Anh Duong Hotel","Country":"Vietnam","City":"District 4","Address":"15/3 Doan Nhu Hai","Lat":10.766195301,"Lng":106.706204883},{"TravelLokaId":9000000736196,"HotelName":"An An House Dalat","Country":"Vietnam","City":"Da Lat","Address":"100 Hai Ba Trung","Lat":11.9449617,"Lng":108.433312},{"TravelLokaId":9000000736201,"HotelName":"Mimanchi Villa Tubong","Country":"Vietnam","City":"Nha Trang","Address":"No. 08 Ly Thai To","Lat":12.298018576,"Lng":109.216506525},{"TravelLokaId":9000000736222,"HotelName":"Q Villa Hoi An","Country":"Vietnam","City":"Hoi An","Address":"67 Nguyen Phuc Tan","Lat":15.8750228,"Lng":108.3254598}]