[{"TravelLokaId":3000010037762,"HotelName":"Van Thy Motel Binh Duong","Country":"Vietnam","City":"Thu Dau Mot City","Address":"30/4, KP12","Lat":10.962850435,"Lng":106.666453862},{"TravelLokaId":3000010037766,"HotelName":"Chuong Duong Hotel","Country":"Vietnam","City":"My Tho City","Address":"10 Street 30/4","Lat":10.352428448,"Lng":106.365686059},{"TravelLokaId":3000010037767,"HotelName":"Eiffel Hotel","Country":"Vietnam","City":"Thanh Khe District","Address":"117 Le Do","Lat":16.0672989,"Lng":108.201378},{"TravelLokaId":3000010037781,"HotelName":"Ngoc Tuyet Guest House","Country":"Vietnam","City":"Phu Quoc","Address":"18 Nguyen Trai St., Duong Dong, Phu Quoc","Lat":10.216355,"Lng":103.960125},{"TravelLokaId":3000010037789,"HotelName":"Golden Horse Service Apartment","Country":"Vietnam","City":"Ba Dinh District","Address":"No 9, Lane 169/22 Kim Ma","Lat":21.032537,"Lng":105.827402},{"TravelLokaId":3000010037794,"HotelName":"Minh Ha Hotel Binh Tan","Country":"Vietnam","City":"Binh Tan District","Address":"24-26 Duong 30","Lat":10.750349155,"Lng":106.612309037},{"TravelLokaId":3000010037799,"HotelName":"Home Fantasy No 1","Country":"Vietnam","City":"Hai Ba Trung District","Address":"16 The Giao","Lat":21.0139991,"Lng":105.847548111},{"TravelLokaId":3000010037802,"HotelName":"Chuong Duong Guesthouse","Country":"Vietnam","City":"My Tho City","Address":"1 Truong Dinh","Lat":10.3539482,"Lng":106.3657985},{"TravelLokaId":3000010037807,"HotelName":"Song Nhat Hotel","Country":"Vietnam","City":"Tan Binh District","Address":"20/19 Nui Thanh","Lat":10.800019,"Lng":106.64224},{"TravelLokaId":3000010037811,"HotelName":"Tam Thanh Natural Beach Resort","Country":"Vietnam","City":"Nui Thanh District","Address":"Tam Thanh Beach, Thanh Nien","Lat":15.5839196,"Lng":108.5559833},{"TravelLokaId":3000010037821,"HotelName":"Apartment Caravel House 71","Country":"Vietnam","City":"Thanh Xuan District","Address":"32, Lane 71, Nguyen Thi Dinh","Lat":21.007418909,"Lng":105.805879994},{"TravelLokaId":3000010037824,"HotelName":"Dong Phu An Hotel","Country":"Vietnam","City":"Cam Le District","Address":"331 - 333 Nguyen Huu Tho","Lat":16.0361214,"Lng":108.2099407},{"TravelLokaId":3000010037832,"HotelName":"Mai Quyen Motel","Country":"Vietnam","City":"Bao Loc City","Address":"471B Tran Phu","Lat":11.5358658,"Lng":107.8169291},{"TravelLokaId":3000010037833,"HotelName":"QMP Friendly House TK","Country":"Vietnam","City":"Tay Ho District","Address":"115B Thuy Khue Street","Lat":21.041848359,"Lng":105.825772953},{"TravelLokaId":3000010037835,"HotelName":"Apartment Caravel House 81","Country":"Vietnam","City":"Cau Giay District","Address":"81 Nguyen Thi Dinh","Lat":21.0077578,"Lng":105.8051565},{"TravelLokaId":3000010037844,"HotelName":"Thien Ban Hotel Bao Loc","Country":"Vietnam","City":"Bao Loc City","Address":"23-24 CH1B Nguyen Cong Tru","Lat":11.5539836,"Lng":107.8060464},{"TravelLokaId":3000010037846,"HotelName":"Tu Hung Hotel Bao Loc","Country":"Vietnam","City":"Bao Loc City","Address":"88 Ly Tu Trong","Lat":11.5457296,"Lng":107.8059443},{"TravelLokaId":3000010037865,"HotelName":"Thank You Hotel","Country":"Vietnam","City":"Vung Tau City","Address":"H5, A Chau Area, Hoang Hoa Tham Street","Lat":10.3364635,"Lng":107.0825758},{"TravelLokaId":3000010037866,"HotelName":"Mai's House Homestay","Country":"Vietnam","City":"Mo Cay Bac District","Address":"Tan Long 3 Hamlet","Lat":10.2071882,"Lng":106.3376488},{"TravelLokaId":3000010037868,"HotelName":"Lai Minh Khai Apartment","Country":"Vietnam","City":"Hai Ba Trung District","Address":"Room D1102 - 21 Floor, 124 Minh Khai","Lat":20.995569,"Lng":105.852761},{"TravelLokaId":3000010037871,"HotelName":"QMP Friendly House NX","Country":"Vietnam","City":"Ba Dinh District","Address":"18 Ngu Xa,  Truc Bach Ward","Lat":21.0463056,"Lng":105.8413873},{"TravelLokaId":3000010037874,"HotelName":"Chalet Suisse Guest House","Country":"Vietnam","City":"Chau Thanh District","Address":"146A, Unit 4, An Khanh Village","Lat":10.3119,"Lng":106.34583},{"TravelLokaId":3000010037877,"HotelName":"Coi Nguon Phu Quoc Resort","Country":"Vietnam","City":"Phu Quoc","Address":"149 Tran Hung Dao, Duong Dong Town, Duong Dong, Vietnam","Lat":10.192746,"Lng":103.9673833},{"TravelLokaId":3000010037878,"HotelName":"Cabanon Da Nang","Country":"Vietnam","City":"Hai Chau District","Address":"24 Tran Quy Cap Street","Lat":16.0813223,"Lng":108.220927},{"TravelLokaId":3000010037881,"HotelName":"Hoan Kim Hotel","Country":"Vietnam","City":"Vung Tau City","Address":"109 Ly Tu Trong","Lat":10.3486065,"Lng":107.0781168},{"TravelLokaId":3000010037884,"HotelName":"Ben Tre Farmstay","Country":"Vietnam","City":"Mo Cay Bac District","Address":"Tan Long 3 Hamlet","Lat":10.2071882,"Lng":106.3376488},{"TravelLokaId":3000010037888,"HotelName":"Midori Guesthouse","Country":"Vietnam","City":"District 1","Address":"62/9 Dien Bien Phu","Lat":10.791018,"Lng":106.697888},{"TravelLokaId":3000010037894,"HotelName":"Hotel 27","Country":"Vietnam","City":"Vung Tau City","Address":"27 Phan Van Tri, Tam Thang Ward","Lat":10.3380751,"Lng":107.0891797},{"TravelLokaId":3000010037895,"HotelName":"Thao Nhi Ecological Garden","Country":"Vietnam","City":"Chau Thanh District","Address":"12/1 Hamlet 1, Tan Thach Village","Lat":10.32547455,"Lng":106.369113922},{"TravelLokaId":3000010037899,"HotelName":"Phuc Vinh An Hotel","Country":"Vietnam","City":"Ben Tre City","Address":"1K Nguyen Thi Dinh","Lat":10.2532847,"Lng":106.3945599},{"TravelLokaId":3000010037903,"HotelName":"Khanh Linh 2 Hotel","Country":"Vietnam","City":"Vung Tau City","Address":"L14 - A Chau Area","Lat":10.336754955,"Lng":107.084160951},{"TravelLokaId":3000010037905,"HotelName":"Phuong Dong Hotel Hoi An","Country":"Vietnam","City":"Hoi An","Address":"42 Ba Trieu, Cam Pho","Lat":15.877294083,"Lng":108.331799833},{"TravelLokaId":3000010037911,"HotelName":"Apollo Hostel","Country":"Vietnam","City":"Thanh Khe District","Address":"337 Hai Phong Street","Lat":16.0696105,"Lng":108.205545},{"TravelLokaId":3000010037915,"HotelName":"Phi Hoang Vu Hotel","Country":"Vietnam","City":"District 3","Address":"748 Dien Bien Phu","Lat":10.770457221,"Lng":106.676569499},{"TravelLokaId":3000010037916,"HotelName":"Minh Trang Hotel","Country":"Vietnam","City":"Vung Tau City","Address":"153 Phan Chu Trinh","Lat":10.3296306,"Lng":107.0875971},{"TravelLokaId":3000010037920,"HotelName":"Sao Viet Hotel","Country":"Vietnam","City":"Vung Tau City","Address":"189/1 Hoang Hoa Tham","Lat":10.335113,"Lng":107.0871397},{"TravelLokaId":3000010037921,"HotelName":"Charming Countryside Homestay","Country":"Vietnam","City":"Ben Tre City","Address":"208D, Group 10","Lat":10.2238334,"Lng":106.4034232},{"TravelLokaId":3000010037922,"HotelName":"Mekong Hotel","Country":"Vietnam","City":"Ben Tre City","Address":"232 - 239 Dong Khoi Highway","Lat":10.254154779,"Lng":106.370743825},{"TravelLokaId":3000010037926,"HotelName":"Davidduc's Service Apartment - Xom Chua","Country":"Vietnam","City":"Tay Ho District","Address":"82 Xom Chua","Lat":21.0599296,"Lng":105.8221653},{"TravelLokaId":3000010037929,"HotelName":"Mai Binh Phuong Bungalow","Country":"Vietnam","City":"Phu Quoc","Address":"91/2 Tran Hung Dao St., Group 7, Duong Dong, Phu Quoc","Lat":10.205772,"Lng":103.964428},{"TravelLokaId":3000010037931,"HotelName":"Davidduc's Apartment Nguyen Khac Hieu","Country":"Vietnam","City":"Ba Dinh District","Address":"34 Nguyen Khac Hieu","Lat":21.0457371,"Lng":105.840956},{"TravelLokaId":3000010037935,"HotelName":"Davidduc's Service Apartment - 84 Xom Chua","Country":"Vietnam","City":"Tay Ho District","Address":"84 Xom Chua","Lat":21.0599296,"Lng":105.8221653},{"TravelLokaId":3000010037936,"HotelName":"Umbala Motel","Country":"Vietnam","City":"Vung Tau City","Address":"E4-3/18 Chi Linh Residential","Lat":10.3785873,"Lng":107.1149451},{"TravelLokaId":3000010037941,"HotelName":"Thuy Nga Motel","Country":"Vietnam","City":"Vung Tau City","Address":"57 B13 Dinh Tien Hoang","Lat":10.3404653,"Lng":107.077401},{"TravelLokaId":3000010037944,"HotelName":"Davidduc's Apartment 23 Tay Ho","Country":"Vietnam","City":"Tay Ho District","Address":"23 Tay Ho","Lat":21.0647239,"Lng":105.82341},{"TravelLokaId":3000010037945,"HotelName":"Lan Vy 3 Guesthouse","Country":"Vietnam","City":"Vung Tau City","Address":"14 Pho Duc Chinh Street","Lat":10.3371005,"Lng":107.0899676},{"TravelLokaId":3000010037947,"HotelName":"Phuc Thinh Motel Vung Tau","Country":"Vietnam","City":"Vung Tau City","Address":"95 Ba Cu","Lat":10.3483662,"Lng":107.0745087},{"TravelLokaId":3000010037948,"HotelName":"Vu Hoang Guest House","Country":"Vietnam","City":"Vung Tau City","Address":"12 La Van Cau","Lat":10.3380376,"Lng":107.090211},{"TravelLokaId":3000010037950,"HotelName":"My House Hotel","Country":"Vietnam","City":"Vung Tau City","Address":"126A Ha Long Street","Lat":10.3371004,"Lng":107.0714906},{"TravelLokaId":3000010037952,"HotelName":"Ben Tre Farm Stay","Country":"Vietnam","City":"Ben Tre City","Address":"250B, Hamlet 3","Lat":10.211031384,"Lng":106.372687547},{"TravelLokaId":3000010037955,"HotelName":"Phu Gia Hotel","Country":"Vietnam","City":"Son Tra District","Address":"213 Ho Nghinh","Lat":16.0661875,"Lng":108.2432789},{"TravelLokaId":3000010037962,"HotelName":"Khanh An Hotel","Country":"Vietnam","City":"District 6","Address":"207-209-211 Cho Lon Street","Lat":10.7449435,"Lng":106.629591},{"TravelLokaId":3000010037963,"HotelName":"M Hostel Da Lat","Country":"Vietnam","City":"Da Lat","Address":"C6 Ba Trieu","Lat":11.9380322,"Lng":108.4339826},{"TravelLokaId":3000010037964,"HotelName":"Davidduc's Apartment Dang Thai Mai","Country":"Vietnam","City":"Tay Ho District","Address":"84 Xom Chua, Alley 12 Dang Thai Mai","Lat":21.0599296,"Lng":105.8221653},{"TravelLokaId":3000010037971,"HotelName":"Away Sea Breeze Apartment- Unit 710 OSC","Country":"Vietnam","City":"Vung Tau City","Address":"B710-OSC Land Building, 110 Vo Thi Sau","Lat":10.3343679,"Lng":107.0858692},{"TravelLokaId":3000010037985,"HotelName":"Davidduc's Apartment Tran Vu 3","Country":"Vietnam","City":"Ba Dinh District","Address":"182 Tran Vu, Tay Ho","Lat":21.047185457,"Lng":105.8411051},{"TravelLokaId":3000010037986,"HotelName":"Davidduc's Villa Dang Thai Mai 1","Country":"Vietnam","City":"Tay Ho District","Address":"36B/12/12 Dang Thai Mai","Lat":21.0639839,"Lng":105.825729},{"TravelLokaId":3000010037989,"HotelName":"Yen Trang 2 Hotel Su Van Hanh","Country":"Vietnam","City":"District 10","Address":"772D, Su Van Hanh, Ward 12","Lat":10.7734671,"Lng":106.6689351},{"TravelLokaId":3000010037990,"HotelName":"Nui Nho Motel","Country":"Vietnam","City":"Vung Tau City","Address":"5 Hai Dang Street","Lat":10.3366412,"Lng":107.076981},{"TravelLokaId":3000010037992,"HotelName":"Davidduc's Apartment Xuan Dieu","Country":"Vietnam","City":"Tay Ho District","Address":"31 Xuan Dieu","Lat":21.06277,"Lng":105.82862}]