[{"TravelLokaId":3000020014241,"HotelName":"Anh Chau Hotel","Country":"Vietnam","City":"Phu Quoc","Address":"Ward 1, Quarter 6, An Thoi Town","Lat":10.041092853,"Lng":104.017293283},{"TravelLokaId":3000020014302,"HotelName":"Fuji Hostel","Country":"Vietnam","City":"Son Tra District","Address":"3 To Hien Thanh","Lat":16.0645589,"Lng":108.2417397},{"TravelLokaId":3000020014306,"HotelName":"Homestay In 3D","Country":"Vietnam","City":"District 4","Address":"109F/11/13 Ben Van Don","Lat":10.763917525,"Lng":106.701271636},{"TravelLokaId":3000020014307,"HotelName":"Thuy Tien Ecolodge","Country":"Vietnam","City":"Tan Phu District","Address":"879 Hamlet 1, Nam Cat Tien Commune","Lat":11.4240075,"Lng":107.431753},{"TravelLokaId":3000020014325,"HotelName":"Vinh Quang Hotel Nha Trang - Quang Duc","Country":"Vietnam","City":"Nha Trang","Address":"25 Quang Duc","Lat":12.2846213,"Lng":109.1966532},{"TravelLokaId":3000020014328,"HotelName":"SuCha Homestay","Country":"Vietnam","City":"District 5","Address":"154/8 Nguyen Bieu","Lat":10.7571324,"Lng":106.6835098},{"TravelLokaId":3000020014329,"HotelName":"Kim Thuy Guesthouse","Country":"Vietnam","City":"Vung Tau City","Address":"DT44A","Lat":10.385123596,"Lng":107.239394188},{"TravelLokaId":3000020014330,"HotelName":"May Hotel Binh Duong","Country":"Vietnam","City":"Thuan An Town","Address":"419/3A, highway 13","Lat":10.9596886,"Lng":106.6970783},{"TravelLokaId":3000020014334,"HotelName":"Sunshine House Saigon","Country":"Vietnam","City":"District 1","Address":"69/20 De Tham","Lat":10.76387,"Lng":106.695015},{"TravelLokaId":3000020014349,"HotelName":"Rita Apartment -  Vinhomes Central Park","Country":"Vietnam","City":"Binh Thanh District","Address":"208 Nguyen Huu Canh","Lat":10.7921488,"Lng":106.7238368},{"TravelLokaId":3000020014355,"HotelName":"Chai Bo Homestay","Country":"Vietnam","City":"Da Lat","Address":"Ramp 3, Trieu Viet Vuong","Lat":11.931579404,"Lng":108.42831485},{"TravelLokaId":3000020014376,"HotelName":"Ana's Home","Country":"Vietnam","City":"Da Lat","Address":"70/9/2 Lu Gia","Lat":11.9545073,"Lng":108.461049},{"TravelLokaId":3000020014435,"HotelName":"Ha Long View - New Life Tower","Country":"Vietnam","City":"Ha Long City","Address":"24h Floor, Newlife Tower, Hoang Quoc Viet","Lat":20.95224147,"Lng":107.024511676},{"TravelLokaId":3000020014440,"HotelName":"Gold Land Hotel","Country":"Vietnam","City":"Da Lat","Address":"33 Ba Trieu","Lat":11.9404192,"Lng":108.4583132},{"TravelLokaId":3000020014441,"HotelName":"Hihi - The Happy Stay Dalat","Country":"Vietnam","City":"Da Lat","Address":"Alley 88B Hoang Dieu","Lat":11.9430652,"Lng":108.4233149},{"TravelLokaId":3000020014457,"HotelName":"Long Thuan Hotel & Resort","Country":"Vietnam","City":"Phan Rang - Thap Cham City","Address":"1 Yen Ninh, Binh Son - Ninh Chu Beach","Lat":11.561711667,"Lng":109.021932764},{"TravelLokaId":3000020014462,"HotelName":"Coconut Homestay","Country":"Vietnam","City":"Mo Cay Nam District","Address":"66 Tan Phuoc Village,  Mo Cay Town","Lat":10.0468396,"Lng":106.3699271},{"TravelLokaId":3000020014463,"HotelName":"Livin Home Nha Trang - Muong Thanh Vien Trieu","Country":"Vietnam","City":"Nha Trang","Address":"3 - 5 Pham Van Dong","Lat":12.2742607,"Lng":109.2018644},{"TravelLokaId":3000020014466,"HotelName":"Steve Luxury Apartment - Icon 56 Building","Country":"Vietnam","City":"District 4","Address":"56 Ben Van Don","Lat":10.7657146,"Lng":106.7031474},{"TravelLokaId":3000020014493,"HotelName":"AnCo House - Sky Garden 3 Apartment","Country":"Vietnam","City":"District 7","Address":"Sky Garden 3 Building, Pham Van Nghi","Lat":10.7334783,"Lng":106.7057344},{"TravelLokaId":3000020014495,"HotelName":"The Scents Saigon","Country":"Vietnam","City":"District 1","Address":"311C Tran Hung Dao","Lat":10.7617654,"Lng":106.690081805},{"TravelLokaId":3000020014496,"HotelName":"H2 Apartment","Country":"Vietnam","City":"Nha Trang","Address":"154 Duong Hien Quyen","Lat":12.2898114,"Lng":109.2044514},{"TravelLokaId":3000020014497,"HotelName":"QMQ's Convenient Homestay","Country":"Vietnam","City":"District 1","Address":"1/31 Pho Duc Chinh","Lat":10.7671899,"Lng":106.7010136},{"TravelLokaId":3000020014519,"HotelName":"Sea View Apartment Phu Quoc Resort","Country":"Vietnam","City":"Phu Quoc","Address":"Duong Bao Hamlet, Duong To Commune","Lat":10.1299253,"Lng":103.982025},{"TravelLokaId":3000020014537,"HotelName":"Skyrest Cat Ong","Country":"Vietnam","City":"Cat Hai District","Address":"Cat Ong Island","Lat":20.7126418,"Lng":107.0207266},{"TravelLokaId":3000020014539,"HotelName":"Sakura Inn Hostel","Country":"Vietnam","City":"District 1","Address":"262 Bui Vien","Lat":10.7656379,"Lng":106.690449},{"TravelLokaId":3000020014540,"HotelName":"Vani Home","Country":"Vietnam","City":"Nha Trang","Address":"209 Duong Hien Quyen","Lat":12.2899843,"Lng":109.2056143},{"TravelLokaId":3000020014543,"HotelName":"Laverne Apartment","Country":"Vietnam","City":"District 1","Address":"26/28 Nguyen Binh Khiem","Lat":10.791748,"Lng":106.70174},{"TravelLokaId":3000020014546,"HotelName":"Le Olive Villa","Country":"Vietnam","City":"Da Lat","Address":"2 Khoi Nghia Bac Son","Lat":11.9347476,"Lng":108.4469331},{"TravelLokaId":3000020014549,"HotelName":"Alley's Hostel","Country":"Vietnam","City":"District 1","Address":"41/12A Bui Vien","Lat":10.765834,"Lng":106.691245},{"TravelLokaId":3000020014562,"HotelName":"An Bang Villa du Bateau","Country":"Vietnam","City":"Hoi An","Address":"Group 4, An Bang Beach","Lat":15.91573061,"Lng":108.334776123},{"TravelLokaId":3000020014576,"HotelName":"New Time Apartment","Country":"Vietnam","City":"District 1","Address":"62 Vo Thi Sau","Lat":10.7894768,"Lng":106.6935271},{"TravelLokaId":3000020014589,"HotelName":"An Phuc House","Country":"Vietnam","City":"District 4","Address":"15/1B Doan Nhu Hai","Lat":10.766159,"Lng":106.706222},{"TravelLokaId":3000020014592,"HotelName":"Laze Apartment - Gold View","Country":"Vietnam","City":"District 4","Address":"Block A1, 346 Ben Van Don","Lat":10.7561489,"Lng":106.6918671},{"TravelLokaId":3000020014594,"HotelName":"Chau Long Hotel","Country":"Vietnam","City":"District 9","Address":"182/5 La Xuan Oai","Lat":10.83980763,"Lng":106.793546677},{"TravelLokaId":3000020014658,"HotelName":"Nice Hotel","Country":"Vietnam","City":"Go Vap District","Address":"472/5 Phan Huy Ich","Lat":10.8442481,"Lng":106.6399474},{"TravelLokaId":3000020014659,"HotelName":"Vung Tau Sun Hotel","Country":"Vietnam","City":"Vung Tau City","Address":"257/3 Le Hong Phong","Lat":10.350318608,"Lng":107.092233415},{"TravelLokaId":3000020014672,"HotelName":"BamBoo Homestay Hue","Country":"Vietnam","City":"Hue City","Address":"56B Dien Bien Phu","Lat":16.454395,"Lng":107.5810207},{"TravelLokaId":3000020014686,"HotelName":"Dalat Luxury Hotel","Country":"Vietnam","City":"Da Lat","Address":"156 Bui Thi Xuan","Lat":11.9489682,"Lng":108.4391868},{"TravelLokaId":3000020014711,"HotelName":"Bon Home Apartment Hoang Anh Quy Nhon","Country":"Vietnam","City":"Quy Nhon City","Address":"14 Floor, Hoang Anh Quy Nhon Apartment, Luu Huu Phuoc","Lat":13.778442877,"Lng":109.234051115},{"TravelLokaId":3000020014712,"HotelName":"Sweet Hotel","Country":"Vietnam","City":"Binh Chanh District","Address":"198 Street 7","Lat":10.733197639,"Lng":106.689981222},{"TravelLokaId":3000020014723,"HotelName":"Nha Trang Coast - Muong Thanh Vien Trieu","Country":"Vietnam","City":"Nha Trang","Address":"3 Pham Van Dong","Lat":12.2742607,"Lng":109.2018644},{"TravelLokaId":3000020014736,"HotelName":"An Corner Apartment","Country":"Vietnam","City":"District 1","Address":"214/19/56 Nguyen Van Nguyen","Lat":10.7929716,"Lng":106.6875102},{"TravelLokaId":3000020014742,"HotelName":"NaCon Hotel","Country":"Vietnam","City":"Nha Trang","Address":"48C Nguyen Thi Minh Khai","Lat":12.2383526,"Lng":109.1923674},{"TravelLokaId":3000020014782,"HotelName":"The Giang Hotel Vung Tau","Country":"Vietnam","City":"Vung Tau City","Address":"30 Phan Van Tri, Thang Tam Ward","Lat":10.3378622,"Lng":107.089681},{"TravelLokaId":3000020014809,"HotelName":"Amuin Apartment","Country":"Vietnam","City":"District 1","Address":"14 Le Loi","Lat":10.77507,"Lng":106.701194},{"TravelLokaId":3000020014877,"HotelName":"Kathy Vinhomes Apartment - Vinhome Central Park","Country":"Vietnam","City":"Binh Thanh District","Address":"Vinhome Central Park, 208 Nguyen Huu Canh","Lat":10.7951612,"Lng":106.7195944},{"TravelLokaId":3000020014886,"HotelName":"Lavender Hotel","Country":"Vietnam","City":"Dong Hoi City","Address":"143 Le Loi","Lat":17.4564241,"Lng":106.6207481},{"TravelLokaId":3000020014889,"HotelName":"My Dream Hotel Sapa 1","Country":"Vietnam","City":"Sa Pa District","Address":"162B Thach Son","Lat":22.3368689,"Lng":103.8492013},{"TravelLokaId":3000020014903,"HotelName":"No.9 Hotel & Apartments","Country":"Vietnam","City":"Vung Tau City","Address":"9 To Hien Thanh","Lat":10.356272126,"Lng":107.081876099},{"TravelLokaId":3000020014905,"HotelName":"Sao Kim Hotel Ca Mau","Country":"Vietnam","City":"Ca Mau city","Address":"03  Luu Tan Tai","Lat":9.1772577,"Lng":105.1507513},{"TravelLokaId":3000020014906,"HotelName":"Thien Phu Hotel Hue","Country":"Vietnam","City":"Hue City","Address":"35 - 37 Nguyen Truong To","Lat":16.453526641,"Lng":107.589218616},{"TravelLokaId":3000020014924,"HotelName":"The Glow Villa Vung Tau","Country":"Vietnam","City":"Vung Tau City","Address":"12/6B Trần Phú, Vũng Tàu","Lat":10.3532092,"Lng":107.0656445},{"TravelLokaId":3000020014926,"HotelName":"Kim Ngoc Khanh Hotel Phu Yen","Country":"Vietnam","City":"Tuy Hoa City","Address":"351-352 Ha Huy Tap","Lat":13.1189575,"Lng":109.293957},{"TravelLokaId":3000020014927,"HotelName":"Lan Rung Villa Dalat","Country":"Vietnam","City":"Da Lat","Address":"BL 29 Khu Quy Hoach Yersin","Lat":11.9452833,"Lng":108.4516561},{"TravelLokaId":3000020014929,"HotelName":"Strawberry Hotel","Country":"Vietnam","City":"Da Lat","Address":"Alley 6 Mai Anh","Lat":11.9492784,"Lng":108.4284409},{"TravelLokaId":3000020014956,"HotelName":"Shades Apartment","Country":"Vietnam","City":"Phan Thiet City","Address":"98A Nguyen Dinh Chieu","Lat":10.952757694,"Lng":108.215482235},{"TravelLokaId":3000020014964,"HotelName":"Villa De's Vins Dalat","Country":"Vietnam","City":"Da Lat","Address":"112 Hoang Hoa Tham","Lat":11.9306703,"Lng":108.4641973},{"TravelLokaId":3000020014965,"HotelName":"Ngoc Anh Hotel Ha Long","Country":"Vietnam","City":"Ha Long City","Address":"No. 39, 25/4 Street","Lat":20.952268633,"Lng":107.079227681},{"TravelLokaId":3000020014968,"HotelName":"Billie Homestay","Country":"Vietnam","City":"Ha Long City","Address":"52 Hoang Quoc Viet, Coral Semi-detached House Area","Lat":20.959651,"Lng":107.0490589}]