[{"TravelLokaId":3000020017008,"HotelName":"Green Lucks Villas - stop sales","Country":"Vietnam","City":"Nha Trang","Address":"Tan Hai Hamlet","Lat":12.0824056,"Lng":109.163949},{"TravelLokaId":3000020017012,"HotelName":"Diem Quynh Noi Bai Hotel","Country":"Vietnam","City":"Soc Son District","Address":"Vo Van Kiet","Lat":21.218349039,"Lng":105.782765682},{"TravelLokaId":3000020017023,"HotelName":"29 Do Doc B Hostel","Country":"Vietnam","City":"Da Lat","Address":"Lot 599, Alley 90 Pham Hong Thai","Lat":11.9422457,"Lng":108.4590025},{"TravelLokaId":3000020017025,"HotelName":"Hoa Bien Hotel","Country":"Vietnam","City":"Lang Son City","Address":"99A Le Dai Hanh","Lat":21.849828568,"Lng":106.771012306},{"TravelLokaId":3000020017077,"HotelName":"Lily Hotel Cam Ranh","Country":"Vietnam","City":"Cam Ranh City","Address":"234 Duong 22/8","Lat":11.918590329,"Lng":109.145786246},{"TravelLokaId":3000020017080,"HotelName":"Ruby Hotel A Chau","Country":"Vietnam","City":"Vung Tau City","Address":"I16 Bau Sen","Lat":10.336836896,"Lng":107.082283795},{"TravelLokaId":3000020017082,"HotelName":"Song Hien Hotel","Country":"Vietnam","City":"Cao Bang City","Address":"73A Phai Khat Na Ngan","Lat":22.669401356,"Lng":106.252881077},{"TravelLokaId":3000020017101,"HotelName":"Magnolia Hotel Cam Ranh","Country":"Vietnam","City":"Cam Ranh City","Address":"147 Hung Vuong Highway","Lat":11.99654,"Lng":109.1929244},{"TravelLokaId":3000020017105,"HotelName":"Aroma Hotel","Country":"Vietnam","City":"Ba Dinh District","Address":"1, Alley 2 Lang Ha","Lat":21.021406907,"Lng":105.81786305},{"TravelLokaId":3000020017136,"HotelName":"Solar Palace Dalat","Country":"Vietnam","City":"Da Lat","Address":"07 Da Tuong","Lat":11.9466296,"Lng":108.4258816},{"TravelLokaId":3000020017185,"HotelName":"Ha Lan Homestay","Country":"Vietnam","City":"Hoa Lu District","Address":"Khe Thuong","Lat":20.240144325,"Lng":105.93670267},{"TravelLokaId":3000020017211,"HotelName":"Connect Homestay","Country":"Vietnam","City":"Da Lat","Address":"14 Thi Sach","Lat":11.9466484,"Lng":108.432935},{"TravelLokaId":3000020017267,"HotelName":"My Ca Hotel Cam Ranh","Country":"Vietnam","City":"Cam Ranh City","Address":"246-248 Hung Vuong Highway","Lat":11.988821592,"Lng":109.191878736},{"TravelLokaId":3000020017274,"HotelName":"Diem Hen Ho Ban Mon Homestay","Country":"Vietnam","City":"Moc Chau District","Address":"Nga 3 Ban Mon, Moc Chau Town","Lat":20.8495418,"Lng":104.6306197},{"TravelLokaId":3000020017276,"HotelName":"Green Garden House Homestay","Country":"Vietnam","City":"Hoi An","Address":"H1/10 K561 Hai Ba Trung","Lat":15.882566237,"Lng":108.32528363},{"TravelLokaId":3000020017277,"HotelName":"Mia House Homestay Dalat","Country":"Vietnam","City":"Da Lat","Address":"B30 Mac Dinh Chi","Lat":11.940997219,"Lng":108.427231713},{"TravelLokaId":3000020017278,"HotelName":"Dong Dao Hotel","Country":"Vietnam","City":"Phu Vang District","Address":"375 Pham Van Dong","Lat":16.4907218,"Lng":107.6023433},{"TravelLokaId":3000020017284,"HotelName":"Seven Dong Du Apartment","Country":"Vietnam","City":"District 1","Address":"24/24A Dong Du","Lat":10.7770195,"Lng":106.7052819},{"TravelLokaId":3000020017313,"HotelName":"Dai Nam Hotel Nha Trang","Country":"Vietnam","City":"Nha Trang","Address":"1 Pham Van Dong","Lat":12.2764863,"Lng":109.2019774},{"TravelLokaId":3000020017337,"HotelName":"Sapa Tulip Hotel","Country":"Vietnam","City":"Sa Pa District","Address":"168 N2 Street - Cho Moi Bus Station","Lat":22.339355408,"Lng":103.851984652},{"TravelLokaId":3000020017347,"HotelName":"Saigon Villas Hill","Country":"Vietnam","City":"District 9","Address":"99 Le Van Viet","Lat":10.8449486,"Lng":106.7935402},{"TravelLokaId":3000020017363,"HotelName":"Nhat Anh Hotel Dalat","Country":"Vietnam","City":"Da Lat","Address":"H86 Nguyen Thi Nghia","Lat":11.9506687,"Lng":108.4397095},{"TravelLokaId":3000020017381,"HotelName":"The Sun Homestay Soc Son","Country":"Vietnam","City":"Soc Son District","Address":"Lam Truong","Lat":21.2573126,"Lng":105.8480203},{"TravelLokaId":3000020017385,"HotelName":"Taor Seaview Apartment","Country":"Vietnam","City":"Nha Trang","Address":"Muong Thanh Vien Trieu, 5 Pham Van Dong","Lat":12.274212821,"Lng":109.202344},{"TravelLokaId":3000020017393,"HotelName":"D'Villa Hotel","Country":"Vietnam","City":"Hoang Mai District","Address":"42 BT2 Bac Linh Dam","Lat":20.969785598,"Lng":105.826645636},{"TravelLokaId":3000020017399,"HotelName":"Tien Phat Villa","Country":"Vietnam","City":"Hoi An","Address":"59 Le Van Huu","Lat":15.8895379,"Lng":108.3232735},{"TravelLokaId":3000020017408,"HotelName":"Hoang Son Hotel Quy Nhon","Country":"Vietnam","City":"Quy Nhon City","Address":"3 Ngo May","Lat":13.761655914,"Lng":109.219637291},{"TravelLokaId":3000020017412,"HotelName":"Starfish Cam Ranh Bay","Country":"Vietnam","City":"Cam Ranh City","Address":"Binh Lap","Lat":11.856355101,"Lng":109.169656667},{"TravelLokaId":3000020017453,"HotelName":"Pho Khong Nang Homestay Dalat","Country":"Vietnam","City":"Da Lat","Address":"1/22 Tran Nhan Tong","Lat":11.953779,"Lng":108.447653},{"TravelLokaId":3000020017470,"HotelName":"Little Vietnam Bed and Breakfast Homestay","Country":"Vietnam","City":"Ha Long City","Address":"HA 11-1 & HA 4-6, Little Vietnam","Lat":20.955797662,"Lng":107.004202008},{"TravelLokaId":3000020017497,"HotelName":"Quynh Anh Homestay Quy Nhon","Country":"Vietnam","City":"Quy Nhon City","Address":"40 Xuan Dieu","Lat":13.7689505,"Lng":109.2322095},{"TravelLokaId":3000020017501,"HotelName":"Shi Brows Guest House","Country":"Vietnam","City":"District 3","Address":"287/45 Nguyen Dinh Chieu","Lat":10.7725658,"Lng":106.6857342},{"TravelLokaId":3000020017512,"HotelName":"Alaya Serviced Apartment 6","Country":"Vietnam","City":"Cau Giay District","Address":"27-28 Alley 100, Dich Vong Hau","Lat":21.0286267,"Lng":105.7855444},{"TravelLokaId":3000020017514,"HotelName":"Alaya Serviced Apartment 7","Country":"Vietnam","City":"Cau Giay District","Address":"A19D7 Alley 75 Tran Thai Tong","Lat":21.0327002,"Lng":105.7912431},{"TravelLokaId":3000020017535,"HotelName":"Tes Haus Apartment","Country":"Vietnam","City":"District 4","Address":"151- 155 Ben Van Don","Lat":10.7621804,"Lng":106.6991261},{"TravelLokaId":3000020017552,"HotelName":"Holo Homestay","Country":"Vietnam","City":"Da Lat","Address":"61B Nguyen Van Troi","Lat":11.9463643,"Lng":108.4358297},{"TravelLokaId":3000020017553,"HotelName":"Hapyson Hotel Dong Nai","Country":"Vietnam","City":"Long Khanh Town","Address":"50-52 Pham The Hien","Lat":10.9330411,"Lng":107.2567809},{"TravelLokaId":3000020017562,"HotelName":"Duc Thanh Motel 1","Country":"Vietnam","City":"Con Dao (Hon Son) District","Address":"Pham Van Dong Street","Lat":8.686287658,"Lng":106.608404517},{"TravelLokaId":3000020017589,"HotelName":"Johnny's Apartment","Country":"Vietnam","City":"Thanh Khe District","Address":"126 Ong Ich Khiem","Lat":16.075015,"Lng":108.21255},{"TravelLokaId":3000020017620,"HotelName":"ARL Cat Linh Hotel","Country":"Vietnam","City":"Dong Da District","Address":"63, Alley 35 Cat Linh","Lat":21.0293283,"Lng":105.8284795},{"TravelLokaId":3000020017662,"HotelName":"Alaya Serviced Apartment 8","Country":"Vietnam","City":"Nam Tu Liem District","Address":"Numer 3, Alley 35, Simco","Lat":21.019806055,"Lng":105.778647547},{"TravelLokaId":3000020017671,"HotelName":"Gia Thanh Dat Hotel","Country":"Vietnam","City":"Quang Ngai City","Address":"405 Hung Vuong","Lat":15.120950362,"Lng":108.786668794},{"TravelLokaId":3000020017691,"HotelName":"Trang Bong Hotel","Country":"Vietnam","City":"Da Lat","Address":"29 Thien Thanh","Lat":11.9389928,"Lng":108.4312361},{"TravelLokaId":3000020017692,"HotelName":"Rung Lan Hotel","Country":"Vietnam","City":"Da Lat","Address":"5 Bis Nam Ky Khoi Nghi","Lat":11.9413697,"Lng":108.4360473},{"TravelLokaId":3000020017711,"HotelName":"Royal Hotel Bac Lieu","Country":"Vietnam","City":"Bac Lieu City","Address":"8 Phan Dinh Phung","Lat":9.2875079,"Lng":105.7268182},{"TravelLokaId":3000020017726,"HotelName":"Happy Home Vung Tau","Country":"Vietnam","City":"Vung Tau City","Address":"34/3A Nguyen Truong To","Lat":10.3400157,"Lng":107.0785551},{"TravelLokaId":3000020017765,"HotelName":"Vietsovpetro Resort","Country":"Vietnam","City":"Xuyen Moc District, Vung Tau City","Address":"Ho Tram Hamlet, Phuoc Thuan Commune","Lat":10.4686612,"Lng":107.3736679},{"TravelLokaId":3000020017774,"HotelName":"Phong Nha Phu Quoc Hotel","Country":"Vietnam","City":"Phu Quoc","Address":"7 Chu Van An","Lat":10.225133812,"Lng":103.97132501},{"TravelLokaId":3000020017781,"HotelName":"Marina Hotel Bac Ninh","Country":"Vietnam","City":"Bac Ninh City","Address":"30 Le Thai To","Lat":21.171776752,"Lng":106.060616431},{"TravelLokaId":3000020017802,"HotelName":"Green Papaya Homestay","Country":"Vietnam","City":"Ninh Binh City","Address":"54 Alley 212 Hai Thuong Lan Ong","Lat":20.250949,"Lng":105.967751},{"TravelLokaId":3000020017918,"HotelName":"Yen Nhu Homestay","Country":"Vietnam","City":"Bac Ha District","Address":"Na Kin Hamlet, Ta Chai Village","Lat":22.547994754,"Lng":104.2986464},{"TravelLokaId":3000020017936,"HotelName":"Thang Long Hotel Hanoi","Country":"Vietnam","City":"Thanh Xuan District","Address":"713 Giai Phong","Lat":20.988085,"Lng":105.841151},{"TravelLokaId":3000020017953,"HotelName":"Vung Tau Freedom Hostel","Country":"Vietnam","City":"Vung Tau City","Address":"E4-1/17 Chi Linh Town","Lat":10.3764462,"Lng":107.1132177},{"TravelLokaId":3000020017967,"HotelName":"Binh An Hotel Dalat","Country":"Vietnam","City":"Da Lat","Address":"6 Nguyen Chi Thanh","Lat":11.9421264,"Lng":108.4360082},{"TravelLokaId":3000020017973,"HotelName":"Hotel Ojonq VN","Country":"Vietnam","City":"Ky Son District","Address":"Na Loi","Lat":19.550862,"Lng":104.215347},{"TravelLokaId":3000020017990,"HotelName":"Minimalist Apartment","Country":"Vietnam","City":"District 3","Address":"146/9 Vo Thi Sau","Lat":10.787252,"Lng":106.690872},{"TravelLokaId":3000020018004,"HotelName":"Moonrise Garden Dalat","Country":"Vietnam","City":"Da Lat","Address":"Dang Thai Than","Lat":11.926292,"Lng":108.4529374},{"TravelLokaId":3000020018020,"HotelName":"Hoang Bao Hotel Quy Nhon","Country":"Vietnam","City":"Quy Nhon City","Address":"2 Nguyen Khoai","Lat":13.752957021,"Lng":109.212194947},{"TravelLokaId":3000020018031,"HotelName":"Yen's House Sapa","Country":"Vietnam","City":"Sa Pa District","Address":"100A Dien Bien Phu","Lat":22.347287085,"Lng":103.856226995},{"TravelLokaId":3000020018044,"HotelName":"Thanh Lam Hotel","Country":"Vietnam","City":"Tuy Hoa City","Address":"73 - 75 Ly Tu Trong","Lat":13.100647015,"Lng":109.311707462}]