[{"TravelLokaId":3000010026173,"HotelName":"Trung Ha Hotel Dalat","Country":"Vietnam","City":"Da Lat","Address":"65 Phan Nhu Thach","Lat":11.941764,"Lng":108.434544},{"TravelLokaId":3000010026192,"HotelName":"Pho Lanh Hotel Da Lat","Country":"Vietnam","City":"Da Lat","Address":"59 Ha Huy Tap Street","Lat":11.932856,"Lng":108.440997},{"TravelLokaId":3000010026193,"HotelName":"Ba That Hotel","Country":"Vietnam","City":"La Gi Town","Address":"25 Thong Nhat,","Lat":10.659763,"Lng":107.774194},{"TravelLokaId":3000010026203,"HotelName":"Sea Mountain Hotel","Country":"Vietnam","City":"Vung Tau City","Address":"108/6 Tran Phu","Lat":10.363988,"Lng":107.061966},{"TravelLokaId":3000010026208,"HotelName":"Doi Duong Hotel","Country":"Vietnam","City":"Phan Thiet City","Address":"209 Le Loi Street, Phu Thuy Ward","Lat":10.92462,"Lng":108.114233},{"TravelLokaId":3000010026228,"HotelName":"Da Lan Hotel","Country":"Vietnam","City":"Da Lat","Address":"59 Nam Ky Khoi Nghia","Lat":11.940572,"Lng":108.435009},{"TravelLokaId":3000010026236,"HotelName":"Thanh Long Hotel Dalat","Country":"Vietnam","City":"Da Lat","Address":"56 Nguyen Chi Thanh Street","Lat":11.940123,"Lng":108.435915},{"TravelLokaId":3000010026240,"HotelName":"Xuan Hoa 2 Hotel","Country":"Vietnam","City":"Ninh Binh City","Address":"36 Vo Thi Sau, Nam Thanh Ward","Lat":20.260382,"Lng":105.978569},{"TravelLokaId":3000010026257,"HotelName":"Amis Hotel Vung Tau","Country":"Vietnam","City":"Vung Tau City","Address":"147 – 149 Hoang Hoa Tham","Lat":10.336103,"Lng":107.087193},{"TravelLokaId":3000010026263,"HotelName":"Lagi Farmstay","Country":"Vietnam","City":"La Gi Town","Address":"Nguyen Du Street, Tan Phuoc","Lat":10.646448,"Lng":107.720668},{"TravelLokaId":3000010026281,"HotelName":"Long Giang Hotel","Country":"Vietnam","City":"Dien Bien Phu City","Address":"518 Vo Nguyen Giap, Group 21, Him Lam","Lat":21.397799,"Lng":103.021461},{"TravelLokaId":3000010026286,"HotelName":"Nam Phuong Hai Hotel","Country":"Vietnam","City":"Phan Thiet City","Address":"549 - 551 - 553 Tran Hung Dao","Lat":10.940017,"Lng":108.104211},{"TravelLokaId":3000010026295,"HotelName":"Cabilagi Garden Resort","Country":"Vietnam","City":"La Gi Town","Address":"Nguyen Du, Tan Phuoc Ward","Lat":10.633712,"Lng":107.720147},{"TravelLokaId":3000010026296,"HotelName":"Thao Minh New Star Hotel","Country":"Vietnam","City":"Cat Hai District","Address":"197 1/4 Street","Lat":20.725338,"Lng":107.048933},{"TravelLokaId":3000010026304,"HotelName":"Misu Home","Country":"Vietnam","City":"District 1","Address":"258/109 Tran Hung Dao","Lat":10.760858947,"Lng":106.687497497},{"TravelLokaId":3000010026305,"HotelName":"Thang Long Backpacker Hostel","Country":"Vietnam","City":"Cat Hai District","Address":"313 Nui Ngoc","Lat":20.724106,"Lng":107.050284},{"TravelLokaId":3000010026352,"HotelName":"Villa Duy Thao 2","Country":"Vietnam","City":"Da Lat","Address":"9B Phan Nhu Thach","Lat":11.9416,"Lng":108.435251},{"TravelLokaId":3000010026357,"HotelName":"Non Nuoc Hotel","Country":"Vietnam","City":"Ninh Binh City","Address":"Zone 4, Dong Thanh","Lat":20.264067,"Lng":105.978538},{"TravelLokaId":3000010026362,"HotelName":"Hong Tam Hotel Dalat","Country":"Vietnam","City":"Da Lat","Address":"12D Nam Ky Khoi Nghia","Lat":11.940534,"Lng":108.435462},{"TravelLokaId":3000010026364,"HotelName":"An Phuc Hotel","Country":"Vietnam","City":"Vung Tau City","Address":"25/10 Tran Binh Trong","Lat":10.358157,"Lng":107.09866},{"TravelLokaId":3000010026365,"HotelName":"Duy Thao 3 Hotel","Country":"Vietnam","City":"Da Lat","Address":"43 Yersin, Ward 10","Lat":11.949703,"Lng":108.455843},{"TravelLokaId":3000010026375,"HotelName":"Tam Coc Bamboo Homestay","Country":"Vietnam","City":"Hoa Lu District","Address":"Civil group 1, Van Lam Hamlet","Lat":20.2200063,"Lng":105.9394055},{"TravelLokaId":3000010026382,"HotelName":"Milan Hotel","Country":"Vietnam","City":"Dong Da District","Address":"30/157 Chua Lang","Lat":21.023324,"Lng":105.802879},{"TravelLokaId":3000010026384,"HotelName":"Trang Anh Sea View Hotel","Country":"Vietnam","City":"Cat Hai District","Address":"175D Road 1/4, Cat Ba","Lat":20.725954,"Lng":107.046946},{"TravelLokaId":3000010026397,"HotelName":"La Pensee Hotel Dalat","Country":"Vietnam","City":"Da Lat","Address":"83 Bui Thi Xuan","Lat":11.945936,"Lng":108.439531},{"TravelLokaId":3000010026416,"HotelName":"Kim Ngan Hotel Vung Tau","Country":"Vietnam","City":"Vung Tau City","Address":"243 Le Hong Phong","Lat":10.356243,"Lng":107.082938},{"TravelLokaId":3000010026428,"HotelName":"Cat Ba Sunset Hotel","Country":"Vietnam","City":"Cat Hai District","Address":"180 1/4 Street, Cat Ba island","Lat":20.725604,"Lng":107.048019},{"TravelLokaId":3000010026431,"HotelName":"Truly Lo Lo Chai","Country":"Vietnam","City":"Dong Van District","Address":"Lo Lo Chai village, Lung Cu Flagpole","Lat":23.359068,"Lng":105.304571},{"TravelLokaId":3000010026455,"HotelName":"New Boutique Hotel","Country":"Vietnam","City":"District 1","Address":"14 Ho Huan Nghiep Street","Lat":10.774611,"Lng":106.705261},{"TravelLokaId":3000010026463,"HotelName":"Ngan Tuan Hotel","Country":"Vietnam","City":"District 1","Address":"55 Do Quang Dau","Lat":10.76727356,"Lng":106.690734981},{"TravelLokaId":3000010026504,"HotelName":"Kim Dung Hotel Saigon","Country":"Vietnam","City":"District 1","Address":"184 Tran Quang Khai","Lat":10.791747,"Lng":106.689688},{"TravelLokaId":3000010026509,"HotelName":"Bao An Hotel Ninh Binh","Country":"Vietnam","City":"Ninh Binh City","Address":"16 Ton Duc Thang","Lat":20.267179,"Lng":105.976876},{"TravelLokaId":3000010026510,"HotelName":"Van Hoa Hotel","Country":"Vietnam","City":"Ninh Binh City","Address":"171 Tran Phu","Lat":20.24285,"Lng":105.969153},{"TravelLokaId":3000010026517,"HotelName":"Sand Garden Resort","Country":"Vietnam","City":"Phan Thiet City","Address":"07-09 Nguyen Dinh Chieu Street","Lat":10.936966,"Lng":108.188135},{"TravelLokaId":3000010026523,"HotelName":"Nice House Hotel Danang","Country":"Vietnam","City":"Son Tra District","Address":"206 Chinh Huu, Phuoc My, Son Tra","Lat":16.063532,"Lng":108.2397132},{"TravelLokaId":3000010026545,"HotelName":"Hue Thuong Hotel","Country":"Vietnam","City":"Hue City","Address":"11 Chu Văn An","Lat":16.4694774,"Lng":107.5934392},{"TravelLokaId":3000010026559,"HotelName":"Vu Hoang Hotel Dalat","Country":"Vietnam","City":"Da Lat","Address":"15 Phan Nhu Thach","Lat":11.9411978,"Lng":108.4353628},{"TravelLokaId":3000010026560,"HotelName":"Thang Loi BTX Hotel Dalat","Country":"Vietnam","City":"Da Lat","Address":"101 Bui Thi Xuan","Lat":11.949596,"Lng":108.438735},{"TravelLokaId":3000010026581,"HotelName":"Thy Thu Hotel Dalat","Country":"Vietnam","City":"Da Lat","Address":"12C Nam Ky Khoi Nghia","Lat":11.94058,"Lng":108.434869},{"TravelLokaId":3000010026592,"HotelName":"99 Hotel","Country":"Vietnam","City":"Tan Binh District","Address":"99/143-145 Nguyen Thai Binh, Ward 4","Lat":10.801466,"Lng":106.652597},{"TravelLokaId":3000010026598,"HotelName":"Truly Dong Van No 24 Hotel","Country":"Vietnam","City":"Dong Van District","Address":"No 24, Area 4","Lat":23.266241,"Lng":105.364236},{"TravelLokaId":3000010026599,"HotelName":"Sapa Accommodation","Country":"Vietnam","City":"Sa Pa District","Address":"03 Hoang Dieu","Lat":22.3366309,"Lng":103.8414994},{"TravelLokaId":3000010026602,"HotelName":"Hoa Ban homestay","Country":"Vietnam","City":"Mai Chau District","Address":"Ban Lac 2","Lat":20.652534,"Lng":105.071365},{"TravelLokaId":3000010026626,"HotelName":"Green Dalat Hotel","Country":"Vietnam","City":"Da Lat","Address":"H49 Khu Quy Hoach Nguyen Thi Nghia","Lat":11.948365,"Lng":108.440179},{"TravelLokaId":3000010026636,"HotelName":"GK Home Apartment","Country":"Vietnam","City":"District 1","Address":"28 Nguyen Van Cu","Lat":10.755628,"Lng":106.686014},{"TravelLokaId":3000010026637,"HotelName":"Lam Kieu Hotel","Country":"Vietnam","City":"Phan Thiet City","Address":"255 Tran Hung Dao Street","Lat":10.934116,"Lng":108.104213},{"TravelLokaId":3000010026642,"HotelName":"Phuong Dong Hotel","Country":"Vietnam","City":"Phu Quoc","Address":"19 Tran Hung Dao St., Phu Quoc, Kien Giang","Lat":10.213983,"Lng":103.959087},{"TravelLokaId":3000010026649,"HotelName":"Maccaca Phuc Thinh Hotel","Country":"Vietnam","City":"Da Lat","Address":"67 Phan Nhu Thach","Lat":11.941811,"Lng":108.434523},{"TravelLokaId":3000010026657,"HotelName":"Phong Lan Hotel","Country":"Vietnam","City":"Cat Hai District","Address":"No 214, 1/4 Street, Cat Ba island","Lat":20.725081,"Lng":107.049088},{"TravelLokaId":3000010026665,"HotelName":"Cat Ba Hostel","Country":"Vietnam","City":"Cat Hai District","Address":"160 Nui Ngoc street, Cat Ba Island","Lat":20.72475,"Lng":107.05265},{"TravelLokaId":3000010026671,"HotelName":"Cat Ba Hotel","Country":"Vietnam","City":"Cat Hai District","Address":"No 228 1/4 Street, Cat Ba island","Lat":20.724872,"Lng":107.049343},{"TravelLokaId":3000010026688,"HotelName":"Lara Homestay Phan Thiet","Country":"Vietnam","City":"La Gi Town","Address":"Group 1, Temple Dunes area, Thanh Phong Hamlet","Lat":10.722724,"Lng":107.888127},{"TravelLokaId":3000010026689,"HotelName":"Phuong Vy 2 Hotel Dalat","Country":"Vietnam","City":"Da Lat","Address":"8/8 Dao Duy Tu","Lat":11.934909136,"Lng":108.433336613},{"TravelLokaId":3000010026706,"HotelName":"Muine Home Hotel","Country":"Vietnam","City":"Phan Thiet City","Address":"130D Nguyen Dinh Chieu Street, Ham Tien Ward","Lat":10.955005,"Lng":108.23193},{"TravelLokaId":3000010026713,"HotelName":"Queen Hotel","Country":"Vietnam","City":"Tan Binh District","Address":"93 Lam Son","Lat":10.812396,"Lng":106.667055},{"TravelLokaId":3000010026715,"HotelName":"Long An Hotel","Country":"Vietnam","City":"Da Lat","Address":"H27 -  Khu Quy Hoach Nguyen Thi Nghia","Lat":11.948365,"Lng":108.440179},{"TravelLokaId":3000010026724,"HotelName":"Bay Nghia Hotel","Country":"Vietnam","City":"Da Lat","Address":"50 Phan Nhu Thach","Lat":11.941025,"Lng":108.433403},{"TravelLokaId":3000010026727,"HotelName":"Malibu Resort Mui Ne","Country":"Vietnam","City":"Phan Thiet City","Address":"Area 5","Lat":10.942136,"Lng":108.299152},{"TravelLokaId":3000010026752,"HotelName":"Hai Uyen Hotel","Country":"Vietnam","City":"Da Lat","Address":"67 Nam Ky Khoi Nghia","Lat":11.940463,"Lng":108.434775},{"TravelLokaId":3000010026755,"HotelName":"Tan Khanh Tien Hotel","Country":"Vietnam","City":"Thanh Khe District","Address":"08 Ly Thai Tong, Thanh Khe Tay Ward","Lat":16.07552603,"Lng":108.176087849}]