[{"TravelLokaId":3000010027172,"HotelName":"Giang Son 1 Hotel","Country":"Vietnam","City":"District 1","Address":"283/14 Pham Ngu Lao","Lat":10.767243587,"Lng":106.690973639},{"TravelLokaId":3000010027173,"HotelName":"Anh Tu Hotel","Country":"Vietnam","City":"District 3","Address":"21 Ba Huyen Thanh Quan","Lat":10.775197,"Lng":106.689836},{"TravelLokaId":3000010027178,"HotelName":"A In Hotel Trung Son","Country":"Vietnam","City":"Binh Chanh District","Address":"No 34, 6C Street, Trung Son Residences, Binh Hung Ward","Lat":10.736666,"Lng":106.690373},{"TravelLokaId":3000010027179,"HotelName":"The Ky Moi Hotel","Country":"Vietnam","City":"Ha Long City","Address":"27 Vuon Dao","Lat":20.958291,"Lng":107.050569},{"TravelLokaId":3000010027181,"HotelName":"Duy Tan Hotel","Country":"Vietnam","City":"Da Lat","Address":"No.183, Ba Thang Hai Street","Lat":11.938707,"Lng":108.429612},{"TravelLokaId":3000010027184,"HotelName":"P&K Hotel","Country":"Vietnam","City":"Da Lat","Address":"No. 116, 3 Thang 2 Street","Lat":11.94139,"Lng":108.432326},{"TravelLokaId":3000010027190,"HotelName":"Orion Hotel Sapa","Country":"Vietnam","City":"Sa Pa District","Address":"161 Thach Son","Lat":22.33733938,"Lng":103.850058651},{"TravelLokaId":3000010027192,"HotelName":"Rou Hostel","Country":"Vietnam","City":"District 1","Address":"37B Co Bac","Lat":10.765153,"Lng":106.695393},{"TravelLokaId":3000010027193,"HotelName":"Pizza Tet Hostel","Country":"Vietnam","City":"Da Lat","Address":"A19 Tran Le","Lat":11.93757,"Lng":108.427992},{"TravelLokaId":3000010027206,"HotelName":"Peace Guesthouse (Nhà Nghỉ Hòa Bình)","Country":"Vietnam","City":"Da Lat","Address":"64 Truong Cong Dinh","Lat":11.944786,"Lng":108.434881},{"TravelLokaId":3000010027268,"HotelName":"Conico Hotel","Country":"Vietnam","City":"Da Lat","Address":"Group 79 Bui Thi Xuan","Lat":11.946031,"Lng":108.439683},{"TravelLokaId":3000010027276,"HotelName":"Xuan Cuong Hotel","Country":"Vietnam","City":"Da Lat","Address":"30 Nguyen Van Troi","Lat":11.946205,"Lng":108.435744},{"TravelLokaId":3000010027279,"HotelName":"Kim Village Resort Mui Ne","Country":"Vietnam","City":"Phan Thiet City","Address":"69/1 Nguyen Dinh Chieu, Mui Ne Ward","Lat":10.947357,"Lng":108.200316},{"TravelLokaId":3000010027292,"HotelName":"Hoang Gia 2 Hotel Lao Cai","Country":"Vietnam","City":"Lao Cai City","Address":"32 Tran Hung Dao Street","Lat":22.475188,"Lng":103.981041},{"TravelLokaId":3000010027293,"HotelName":"Hon Ngoc Mui Ne Resort (Muine Pearl Resort)","Country":"Vietnam","City":"Phan Thiet City","Address":"Nguyen Huu Tho, Ward 5","Lat":10.93898,"Lng":108.297392},{"TravelLokaId":3000010027304,"HotelName":"Tiny Homestay Dalat","Country":"Vietnam","City":"Da Lat","Address":"42/4 Ha Huy Tap","Lat":11.935174807,"Lng":108.440825068},{"TravelLokaId":3000010027307,"HotelName":"Time House Apartment","Country":"Vietnam","City":"Nha Trang","Address":"16A Ngo Thoi Nhiem, Tan Lap","Lat":12.239536,"Lng":109.191003},{"TravelLokaId":3000010027316,"HotelName":"Hoang Lam Resort Mui Ne","Country":"Vietnam","City":"Phan Thiet City","Address":"126A Nguyen Dinh Chieu, Mui Ne Ward","Lat":10.94824,"Lng":108.204139},{"TravelLokaId":3000010027319,"HotelName":"Banh Mi House","Country":"Vietnam","City":"District 1","Address":"275C Pham Ngu Lao, Pham Ngu Lao Ward","Lat":10.7678807,"Lng":106.691606},{"TravelLokaId":3000010027323,"HotelName":"Vu Thanh Hotel","Country":"Vietnam","City":"Da Lat","Address":"34A Hai Ba Trung","Lat":11.947021,"Lng":108.433709},{"TravelLokaId":3000010027327,"HotelName":"New Sun Hotel Sapa","Country":"Vietnam","City":"Sa Pa District","Address":"28 Thach Son Street","Lat":22.336347,"Lng":103.84684},{"TravelLokaId":3000010027335,"HotelName":"Sydney Hotel","Country":"Vietnam","City":"Phan Thiet City","Address":"13A Nguyen Dinh Chieu, Mui Ne Ward","Lat":10.94269,"Lng":108.193163},{"TravelLokaId":3000010027355,"HotelName":"Halong Party Hotel 2 ( Hai Yen)","Country":"Vietnam","City":"Ha Long City","Address":"56 Vuon Dao","Lat":20.954306,"Lng":107.043572},{"TravelLokaId":3000010027363,"HotelName":"Halong Party Hotel","Country":"Vietnam","City":"Ha Long City","Address":"21 Vuon Dao","Lat":20.96036,"Lng":107.049853},{"TravelLokaId":3000010027368,"HotelName":"Thuy Thuy Cottages","Country":"Vietnam","City":"Phan Thiet City","Address":"123 Nguyen Dinh Chieu Street, Mui Ne Ward","Lat":10.952095,"Lng":108.212295},{"TravelLokaId":3000010027373,"HotelName":"Celine Hotel","Country":"Vietnam","City":"Da Lat","Address":"38 Phan Boi Chau","Lat":11.944425,"Lng":108.438222},{"TravelLokaId":3000010027375,"HotelName":"Hoa Hong Hotel - Xa Dan","Country":"Vietnam","City":"Dong Da District","Address":"92 Xa Dan","Lat":21.009094,"Lng":105.839077},{"TravelLokaId":3000010027378,"HotelName":"Tiny Tigers Hostel","Country":"Vietnam","City":"Da Lat","Address":"77 Doan Thi Diem","Lat":11.938793,"Lng":108.43353},{"TravelLokaId":3000010027421,"HotelName":"Ta Phin Stone Garden Ecological","Country":"Vietnam","City":"Sa Pa District","Address":"Group 4, Sa Seng , Ta Phin Community","Lat":22.396071,"Lng":103.842301},{"TravelLokaId":3000010027439,"HotelName":"Hoa Thuy Vu - Arum Villa Dalat","Country":"Vietnam","City":"Da Lat","Address":"2C Tran Hung Dao","Lat":11.93496,"Lng":108.441512},{"TravelLokaId":3000010027442,"HotelName":"Song Hong View Hotel","Country":"Vietnam","City":"Lao Cai City","Address":"188A Duyen Hai street","Lat":22.504004,"Lng":103.96228},{"TravelLokaId":3000010027452,"HotelName":"CHILLAXROOM Apartment","Country":"Vietnam","City":"District 1","Address":"422 Vo Van Kiet","Lat":10.75954,"Lng":106.69338},{"TravelLokaId":3000010027455,"HotelName":"Tan Quyen Hotel","Country":"Vietnam","City":"Tan Binh District","Address":"79 Hoang Van Thu","Lat":10.80044,"Lng":106.662569},{"TravelLokaId":3000010027467,"HotelName":"Sapa Riverside Hotel","Country":"Vietnam","City":"Sa Pa District","Address":"18 Ngu Chi Son Street","Lat":22.337156,"Lng":103.846583},{"TravelLokaId":3000010027476,"HotelName":"Gold Stars Hotel Long Hai","Country":"Vietnam","City":"Vung Tau City","Address":"Road 44","Lat":10.38579,"Lng":107.239331},{"TravelLokaId":3000010027496,"HotelName":"Sun Smile Homestay","Country":"Vietnam","City":"Da Lat","Address":"Alley 1/3, Le Hong Phong","Lat":11.9338012,"Lng":108.4326974},{"TravelLokaId":3000010027514,"HotelName":"Mimiho Homestay","Country":"Vietnam","City":"Hoi An","Address":"22 Nguyen Duc Canh, Tan An","Lat":15.893689133,"Lng":108.316028757},{"TravelLokaId":3000010027521,"HotelName":"Skybird Homestay","Country":"Vietnam","City":"Hoi An","Address":"354 Cua Dai, Cam Chau","Lat":15.8854979,"Lng":108.3449364},{"TravelLokaId":3000010027551,"HotelName":"My Hoa 2 Hotel","Country":"Vietnam","City":"Hai Lang District","Address":"No 89, Thien Hien","Lat":16.739509,"Lng":107.239484},{"TravelLokaId":3000010027554,"HotelName":"Thanh Do Hotel","Country":"Vietnam","City":"Da Lat","Address":"50 Nguyen Chi Thanh","Lat":11.940165,"Lng":108.436203},{"TravelLokaId":3000010027555,"HotelName":"Hoan Vu 1 Hotel","Country":"Vietnam","City":"Binh Thanh District","Address":"21m-22m Mieu Noi Resident","Lat":10.796211,"Lng":106.692708},{"TravelLokaId":3000010027558,"HotelName":"Hoan Vu 2 Hotel","Country":"Vietnam","City":"Binh Thanh District","Address":"28M Mieu Noi Resident, Binh Thanh","Lat":10.7964,"Lng":106.692591},{"TravelLokaId":3000010027561,"HotelName":"Queen 2 Hotel","Country":"Vietnam","City":"Tan Binh District","Address":"83 Lam Son","Lat":10.812378,"Lng":106.667023},{"TravelLokaId":3000010027571,"HotelName":"Viethouse Lodge","Country":"Vietnam","City":"Ha Long City","Address":"Tuan Chau Island","Lat":20.92745,"Lng":106.986038},{"TravelLokaId":3000010027583,"HotelName":"Anh Son Guest House","Country":"Vietnam","City":"Da Lat","Address":"53 Bui Thi Xuan Street","Lat":11.945914,"Lng":108.439725},{"TravelLokaId":3000010027595,"HotelName":"Sapa Truc Lam Hotel","Country":"Vietnam","City":"Sa Pa District","Address":"468 Dien Bien Phu","Lat":22.34017,"Lng":103.835756},{"TravelLokaId":3000010027600,"HotelName":"Magic Dieu Linh Hotel","Country":"Vietnam","City":"Dong Hoi City","Address":"305 Ly Thuong Kiet","Lat":17.482542,"Lng":106.612428},{"TravelLokaId":3000010027604,"HotelName":"Bach Long Ha Long","Country":"Vietnam","City":"Ha Long City","Address":"35 Dao Anh","Lat":20.95933,"Lng":107.05242},{"TravelLokaId":3000010027616,"HotelName":"Gold Star Hotel","Country":"Vietnam","City":"Da Lat","Address":"136 Hai Ba Trung Street","Lat":11.954553,"Lng":108.430247},{"TravelLokaId":3000010027618,"HotelName":"Minh Gia 1 Hotel","Country":"Vietnam","City":"Ha Long City","Address":"43 Anh Dao, Bai Chay","Lat":20.953256,"Lng":107.044765},{"TravelLokaId":3000010027627,"HotelName":"Minh Gia 2 Hotel","Country":"Vietnam","City":"Cam Pha City","Address":"No 7, 95A Anh Dao","Lat":21.006382,"Lng":107.292514},{"TravelLokaId":3000010027637,"HotelName":"Ngoc Huong Hotel","Country":"Vietnam","City":"Quang Ngai City","Address":"112 Đinh Tiên Hoàng","Lat":15.1163814,"Lng":108.816349},{"TravelLokaId":3000010027639,"HotelName":"Toan Thang 2 Hotel","Country":"Vietnam","City":"Ha Long City","Address":"10A Anh Dao","Lat":20.953256,"Lng":107.044765},{"TravelLokaId":3000010027643,"HotelName":"Thanh Loan Hotel","Country":"Vietnam","City":"Da Lat","Address":"33/21 Ho Tung Mau Street","Lat":11.9389892,"Lng":108.4389257},{"TravelLokaId":3000010027649,"HotelName":"Anh Thu Hotel","Country":"Vietnam","City":"Da Lat","Address":"17 Ho Tung Mau","Lat":11.9379299,"Lng":108.4397007},{"TravelLokaId":3000010027653,"HotelName":"Hoa Hue Guest House Dalat","Country":"Vietnam","City":"Da Lat","Address":"97/4 Phan Boi Chau","Lat":11.943858696,"Lng":108.438664153},{"TravelLokaId":3000010027661,"HotelName":"Sapa Winter Hotel","Country":"Vietnam","City":"Sa Pa District","Address":"No 3 Kim Dong street","Lat":22.337395,"Lng":103.848613},{"TravelLokaId":3000010027670,"HotelName":"Phu Gia Hotel","Country":"Vietnam","City":"Ha Long City","Address":"No 350, Alley 35 Don Dien, Ha Khau Ward","Lat":20.953256,"Lng":107.044765},{"TravelLokaId":3000010027693,"HotelName":"Amely Hotel","Country":"Vietnam","City":"Cau Giay District","Address":"76 Duy Tan","Lat":21.031799,"Lng":105.783847},{"TravelLokaId":3000010027724,"HotelName":"Hoang Hoa Guesthouse","Country":"Vietnam","City":"Da Lat","Address":"48 Khe Sanh","Lat":11.938117,"Lng":108.459106}]