[{"TravelLokaId":3000010043245,"HotelName":"Rose's House","Country":"Vietnam","City":"District 1","Address":"391/146 Tran Hung Dao","Lat":10.759876075,"Lng":106.688866764},{"TravelLokaId":3000010043277,"HotelName":"Green Home Homestay","Country":"Vietnam","City":"Da Lat","Address":"B209 Mac Dinh Chi Street","Lat":11.940105,"Lng":108.4284548},{"TravelLokaId":3000010043284,"HotelName":"Ngoc Tung Mini Hotel","Country":"Vietnam","City":"Hue City","Address":"56/48 Ngo Quyen","Lat":16.461398,"Lng":107.588388},{"TravelLokaId":3000010043287,"HotelName":"SaiDa Hostel","Country":"Vietnam","City":"Hai Chau District","Address":"376. 2/9 Street, Hoa Cuong Bac","Lat":16.0420511,"Lng":108.2231851},{"TravelLokaId":3000010043288,"HotelName":"Yellow House Garden Villa","Country":"Vietnam","City":"Binh Thanh District","Address":"426/1 Binh Quoi, 28 Ward","Lat":10.8247738,"Lng":106.7352129},{"TravelLokaId":3000010043291,"HotelName":"Bach Diep Guesthouse","Country":"Vietnam","City":"Da Lat","Address":"25, 3/4 Road","Lat":11.928595604,"Lng":108.448165208},{"TravelLokaId":3000010043295,"HotelName":"Nice Private Room Near Airport","Country":"Vietnam","City":"Tan Binh District","Address":"373/236 Ly Thuong Kiet","Lat":10.783816,"Lng":106.65414},{"TravelLokaId":3000010043329,"HotelName":"Green Field Homestay Hue","Country":"Vietnam","City":"Huong Thuy Town","Address":"Minh Mang","Lat":16.418516836,"Lng":107.568744486},{"TravelLokaId":3000010043349,"HotelName":"Poonsa Hanoi Hotel","Country":"Vietnam","City":"Cau Giay District","Address":"36C Dich Vong","Lat":21.0362769,"Lng":105.7895537},{"TravelLokaId":3000010043400,"HotelName":"Tan Apartment - Icon 56","Country":"Vietnam","City":"District 4","Address":"56 Ben Van Don","Lat":10.7660826,"Lng":106.7029869},{"TravelLokaId":3000010043407,"HotelName":"Happy Suites Serviced Apartment","Country":"Vietnam","City":"District 7","Address":"444 Tan Phu , Nam Thong 3 Area - S14","Lat":10.722019696,"Lng":106.731949716},{"TravelLokaId":3000010043410,"HotelName":"Tan Apartment - Saigon Pearl","Country":"Vietnam","City":"Binh Thanh District","Address":"92 Nguyen Huu Canh","Lat":10.7907047,"Lng":106.7195245},{"TravelLokaId":3000010043423,"HotelName":"Hoda Hostel","Country":"Vietnam","City":"Ngu Hanh Son District","Address":"An Thuong 35","Lat":16.0523333,"Lng":108.2439354},{"TravelLokaId":3000010043424,"HotelName":"Monarchy A104","Country":"Vietnam","City":"Son Tra District","Address":"An Trung 3 ( near Tran Hung Dao Street )","Lat":16.0553788,"Lng":108.2328155},{"TravelLokaId":3000010043497,"HotelName":"The Green House Saigon","Country":"Vietnam","City":"District 5","Address":"112/8/10 An Binh, Ward 5","Lat":10.7519505,"Lng":106.672536},{"TravelLokaId":3000010043508,"HotelName":"Le Phan Guesthouse","Country":"Vietnam","City":"Da Lat","Address":"62 Doan Thi Diem","Lat":11.938795424,"Lng":108.433518601},{"TravelLokaId":3000010043511,"HotelName":"Trang An Hotel","Country":"Vietnam","City":"Bo Trach District","Address":"Ho Chi Minh Street, Cu Lac 1, Son Trach, Bo Trach","Lat":17.6133777,"Lng":106.3162637},{"TravelLokaId":3000010043517,"HotelName":"Phuong Dung Guest House","Country":"Vietnam","City":"Phu Quoc","Address":"142 Bach Dang St., Group 1","Lat":10.2156271,"Lng":103.9620513},{"TravelLokaId":3000010043588,"HotelName":"Morning Rooms Cach Mang Thang Tam","Country":"Vietnam","City":"District 10","Address":"Ken Hotel, 285/7 Cach Mang Thang 8","Lat":10.7756609,"Lng":106.6741909},{"TravelLokaId":3000010043593,"HotelName":"Cloudy House","Country":"Vietnam","City":"Hoan Kiem District","Address":"1A Le Phung Hieu","Lat":21.0263649,"Lng":105.85873},{"TravelLokaId":3000010043596,"HotelName":"Morning Rooms Hai Ba Trung","Country":"Vietnam","City":"District 3","Address":"Hong Vy 1 Hotel, 223 Hai Ba Trung","Lat":10.786739,"Lng":106.693102},{"TravelLokaId":3000010043612,"HotelName":"Thanh Thuy Hotel Dalat","Country":"Vietnam","City":"Da Lat","Address":"3 Trieu Viet Vuong, Ward 4","Lat":11.928866476,"Lng":108.4324114},{"TravelLokaId":3000010043679,"HotelName":"Nam Anh Hotel","Country":"Vietnam","City":"Vung Tau City","Address":"33 Pho Duc Chinh","Lat":10.3366852,"Lng":107.0902086},{"TravelLokaId":3000010043681,"HotelName":"Huong Sen Homestay","Country":"Vietnam","City":"Ninh Binh City","Address":"30, Hẻm 96, Trịnh Tú, Phường Ninh Khánh","Lat":20.2745909,"Lng":105.9660946},{"TravelLokaId":3000010043684,"HotelName":"Lancaster Building - Gem Penthouse","Country":"Vietnam","City":"District 1","Address":"22 Le Thanh Ton","Lat":10.780760765,"Lng":106.704652905},{"TravelLokaId":3000010043701,"HotelName":"Morning Rooms Nguyen Thi Minh Khai","Country":"Vietnam","City":"District 3","Address":"New Star Inn Hotel, 214 Nguyen Thi Minh Khai","Lat":10.774634,"Lng":106.690102},{"TravelLokaId":3000010043764,"HotelName":"Thien Thanh Hotel Vinh Long","Country":"Vietnam","City":"Vinh Long City","Address":"2 Hung Vuong","Lat":10.2532718,"Lng":105.9753384},{"TravelLokaId":3000010043767,"HotelName":"Gemma Phan Thiet Hotel","Country":"Vietnam","City":"Phan Thiet City","Address":"102B Thu Khoa Huan","Lat":10.9323824,"Lng":108.1069892},{"TravelLokaId":3000010043788,"HotelName":"Trang Nhung Hotel","Country":"Vietnam","City":"Nha Trang","Address":"381 Dien Bien Phu Street","Lat":12.2884247,"Lng":109.1980355},{"TravelLokaId":3000010043811,"HotelName":"ZORO Homestay","Country":"Vietnam","City":"Thanh Khe District","Address":"72 Ham Nghi Street","Lat":16.062547262,"Lng":108.210192919},{"TravelLokaId":3000020000024,"HotelName":"La Casa Apartment Ngoc Ha","Country":"Vietnam","City":"Ba Dinh District","Address":"104c Ngoc Ha","Lat":21.03724278,"Lng":105.831236299},{"TravelLokaId":3000020000035,"HotelName":"Saigon Poto","Country":"Vietnam","City":"District 1","Address":"147 Hoang Sa","Lat":10.794500631,"Lng":106.69311069},{"TravelLokaId":3000020000146,"HotelName":"Paradise Homestay","Country":"Vietnam","City":"Da Lat","Address":"245/17 Ngo Tat To","Lat":11.9745556,"Lng":108.4483471},{"TravelLokaId":3000020000149,"HotelName":"Hoa Khai Tan Quan","Country":"Vietnam","City":"Da Lat","Address":"11/2 Ba Thang Tu Street","Lat":11.931767695,"Lng":108.4464439},{"TravelLokaId":3000020000150,"HotelName":"Ho Xuan Huong Villa","Country":"Vietnam","City":"Da Lat","Address":"91 KQH Yersin","Lat":11.945521741,"Lng":108.455261453},{"TravelLokaId":3000020000160,"HotelName":"Q Hostel Dalat","Country":"Vietnam","City":"Da Lat","Address":"304 Bui Thi Xuan Street","Lat":11.954257895,"Lng":108.442132472},{"TravelLokaId":3000020000165,"HotelName":"Nha Da Lat","Country":"Vietnam","City":"Da Lat","Address":"44 Khu Quy Hoach Tran Le","Lat":11.937496124,"Lng":108.426346987},{"TravelLokaId":3000020000179,"HotelName":"Mui Ne Domaine Villa","Country":"Vietnam","City":"Phan Thiet City","Address":"Vo Nguyen Giap, Phu Hai Ward","Lat":10.943087874,"Lng":108.173325285},{"TravelLokaId":3000020000199,"HotelName":"Saigon Poto Apartment","Country":"Vietnam","City":"Binh Thanh District","Address":"23/49 Dinh Tien Hoang","Lat":10.794759237,"Lng":106.696014682},{"TravelLokaId":3000020000237,"HotelName":"Thai Nguyen Hotel Nha Trang","Country":"Vietnam","City":"Nha Trang","Address":"18C Yet Kieu Street","Lat":12.2506204,"Lng":109.1894726},{"TravelLokaId":3000020000240,"HotelName":"Muse Home","Country":"Vietnam","City":"Da Lat","Address":"64/5 Ngo Thi Nham","Lat":11.934307,"Lng":108.4228058},{"TravelLokaId":3000020000315,"HotelName":"White Hotel Can Tho","Country":"Vietnam","City":"Ninh Kieu District","Address":"65 Tran Binh Trong, An Phu Ward","Lat":10.0345589,"Lng":105.7770056},{"TravelLokaId":3000020000345,"HotelName":"Bac Huong Hotel","Country":"Vietnam","City":"Kon Tum city","Address":"196 Tran Hung Dao","Lat":14.349837,"Lng":108.006963},{"TravelLokaId":3000020000347,"HotelName":"Bien Nho Motel","Country":"Vietnam","City":"Vung Tau City","Address":"170/283 Binh Gia, Ward 8","Lat":10.366013265,"Lng":107.094264675},{"TravelLokaId":3000020000348,"HotelName":"Gio Bac 1 Guesthouse","Country":"Vietnam","City":"Vung Tau City","Address":"274/62 Phung Chi Kien","Lat":10.3661539,"Lng":107.0833674},{"TravelLokaId":3000020000363,"HotelName":"Bien Phong Hostel","Country":"Vietnam","City":"Cat Hai District","Address":"217 Street 1/4","Lat":20.7250169,"Lng":107.0491832},{"TravelLokaId":3000020000398,"HotelName":"Victory Hotel Trung Son","Country":"Vietnam","City":"Binh Chanh District","Address":"3 Street 6, Trung Son, Binh Hung","Lat":10.737365206,"Lng":106.691254216},{"TravelLokaId":3000020000414,"HotelName":"H&T Hotel Dak Lak","Country":"Vietnam","City":"Buon Ma Thuot City","Address":"325 Hung Vuong","Lat":12.684287,"Lng":108.05604},{"TravelLokaId":3000020000418,"HotelName":"Family Ha Long Apartment","Country":"Vietnam","City":"Ha Long City","Address":"No.02, San Ho 1 Str, Coral Bay Towers Ha Long","Lat":20.960878559,"Lng":107.004180551},{"TravelLokaId":3000020000447,"HotelName":"La Casa Apartment Hang Bo","Country":"Vietnam","City":"Hoan Kiem District","Address":"30 Hang Bo","Lat":21.0339509,"Lng":105.849658},{"TravelLokaId":3000020000448,"HotelName":"La Casa Apartment Le Phung Hieu","Country":"Vietnam","City":"Hoan Kiem District","Address":"Room 202, 1A Le Phung Hieu","Lat":21.026152162,"Lng":105.858137934},{"TravelLokaId":3000020000449,"HotelName":"Hannah's House","Country":"Vietnam","City":"District 3","Address":"290/58 Nam Ky Khoi Nghia","Lat":10.789776,"Lng":106.684132},{"TravelLokaId":3000020000463,"HotelName":"Nibika Hotel","Country":"Vietnam","City":"Vung Tau City","Address":"149b Thuy Van","Lat":10.338665419,"Lng":107.091693063},{"TravelLokaId":3000020000464,"HotelName":"La Casa Apartment Nam Ngu","Country":"Vietnam","City":"Hoan Kiem District","Address":"04 Nam Ngu","Lat":21.026534,"Lng":105.843327},{"TravelLokaId":3000020000468,"HotelName":"Chi Hieu Hotel","Country":"Vietnam","City":"Bac Lieu City","Address":"Tran Van Tat","Lat":9.2985248,"Lng":105.7273026},{"TravelLokaId":3000020000469,"HotelName":"Nha Trang - The Green House 3 Sea View","Country":"Vietnam","City":"Nha Trang","Address":"60 Tran Phu Street","Lat":12.2365855,"Lng":109.1964527},{"TravelLokaId":3000020000486,"HotelName":"Tara House","Country":"Vietnam","City":"Tan Binh District","Address":"88/3 Nguyen Van Troi","Lat":10.8230989,"Lng":106.6296638},{"TravelLokaId":3000020000489,"HotelName":"Nam Phuong Hotel Vung Tau","Country":"Vietnam","City":"Vung Tau City","Address":"32 Phan Van Tri","Lat":10.3380991,"Lng":107.0891323},{"TravelLokaId":3000020000557,"HotelName":"Da Nang Furama Ruby Villa","Country":"Vietnam","City":"Ngu Hanh Son District","Address":"105 Vo Nguyen Giap","Lat":16.039413755,"Lng":108.249896831},{"TravelLokaId":3000020000594,"HotelName":"DayHome Masteri Thao Dien","Country":"Vietnam","City":"District 2","Address":"159 Hanoi Express Highway","Lat":10.8020507,"Lng":106.7396158}]