[{"TravelLokaId":3000010034600,"HotelName":"Kim Minh Villa","Country":"Vietnam","City":"Vung Tau City","Address":"6/6 Tran Phu","Lat":10.3522215,"Lng":107.0668349},{"TravelLokaId":3000010034610,"HotelName":"Ngoc Hoi Hotel","Country":"Vietnam","City":"Buon Ma Thuot City","Address":"244 Le Thanh Tong","Lat":12.6928941,"Lng":108.0548153},{"TravelLokaId":3000010034626,"HotelName":"Fun Hotel","Country":"Vietnam","City":"District 7","Address":"5-7 10 St, Him Lam New Town","Lat":10.741593537,"Lng":106.699551344},{"TravelLokaId":3000010034639,"HotelName":"Gerbera Homes VII Villa","Country":"Vietnam","City":"Vung Tau City","Address":"03 A Chau Street","Lat":10.335470059,"Lng":107.085543601},{"TravelLokaId":3000010034640,"HotelName":"Mi Place Zen En-Suite","Country":"Vietnam","City":"District 1","Address":"77 Truong Dinh","Lat":10.7731594,"Lng":106.6946998},{"TravelLokaId":3000010034650,"HotelName":"Mi Place Dom","Country":"Vietnam","City":"District 1","Address":"77 Truong Dinh","Lat":10.7731594,"Lng":106.6946998},{"TravelLokaId":3000010034651,"HotelName":"Advisor Family Homestay","Country":"Vietnam","City":"Hoan Kiem District","Address":"9 Ngo Gach","Lat":21.036282,"Lng":105.850419},{"TravelLokaId":3000010034652,"HotelName":"Gerbera Homes IX Villa","Country":"Vietnam","City":"Vung Tau City","Address":"42/5A Tran Phu","Lat":10.3613951,"Lng":107.0613715},{"TravelLokaId":3000010034662,"HotelName":"Gerbera Homes XI Villa","Country":"Vietnam","City":"Vung Tau City","Address":"298/8 Phan Chu Trinh","Lat":10.3304347,"Lng":107.0842777},{"TravelLokaId":3000010034665,"HotelName":"Vong Canh Hotel Hue","Country":"Vietnam","City":"Hue City","Address":"11 Hung Vuong","Lat":16.4645554,"Lng":107.5941301},{"TravelLokaId":3000010034693,"HotelName":"Aspire Saigon","Country":"Vietnam","City":"District 1","Address":"7/31 Nguyen Trai","Lat":10.770690937,"Lng":106.692875927},{"TravelLokaId":3000010034699,"HotelName":"Sunny Fine Guesthouse","Country":"Vietnam","City":"Hue City","Address":"7/3 Chu Van An Street","Lat":16.4694774,"Lng":107.5956279},{"TravelLokaId":3000010034701,"HotelName":"Hoang Cuong Hotel","Country":"Vietnam","City":"Hoan Kiem District","Address":"15 Nguyen Thai Hoc","Lat":21.0284559,"Lng":105.842686},{"TravelLokaId":3000010034706,"HotelName":"Thien Phuc Hotel Nha Trang","Country":"Vietnam","City":"Nha Trang","Address":"17 - 19 Nguyen Chanh","Lat":12.2455452,"Lng":109.19326},{"TravelLokaId":3000010034724,"HotelName":"Gia Tuan Motel","Country":"Vietnam","City":"Ngu Hanh Son District","Address":"K227/2 Nguyen Van Thoai","Lat":16.0550563,"Lng":108.2421653},{"TravelLokaId":3000010034725,"HotelName":"Thinh Khang Hotel","Country":"Vietnam","City":"Vung Tau City","Address":"95 Nguyen Thi Minh Khai Street","Lat":10.354957964,"Lng":107.094589166},{"TravelLokaId":3000010034729,"HotelName":"Family Host Little Mansion","Country":"Vietnam","City":"Tan Binh District","Address":"22B/14 Lam Son","Lat":10.809345,"Lng":106.66721},{"TravelLokaId":3000010034739,"HotelName":"Dai Nam Sai Gon Hotel","Country":"Vietnam","City":"District 1","Address":"5/11 Nguyen Sieu","Lat":10.7784309,"Lng":106.7050726},{"TravelLokaId":3000010034740,"HotelName":"Anh Thien Hotel","Country":"Vietnam","City":"District 1","Address":"35E Nguyen Trung Truc","Lat":10.775110522,"Lng":106.697536327},{"TravelLokaId":3000010034757,"HotelName":"Huong Hotel","Country":"Vietnam","City":"Tan Binh District","Address":"586/4 Cong Hoa","Lat":10.803387,"Lng":106.638817},{"TravelLokaId":3000010034765,"HotelName":"GoGo Homestay","Country":"Vietnam","City":"Da Lat","Address":"15 Nha Chung","Lat":11.9347161,"Lng":108.43828},{"TravelLokaId":3000010034772,"HotelName":"Nguyet Anh Guesthouse","Country":"Vietnam","City":"Hue City","Address":"Thon Binh An, Loc Vinh","Lat":16.312306,"Lng":108.0056},{"TravelLokaId":3000010034775,"HotelName":"Vung Tau Luxury Hotel & Apartment","Country":"Vietnam","City":"Vung Tau City","Address":"206 Phan Chu Trinh","Lat":10.3304347,"Lng":107.0842777},{"TravelLokaId":3000010034792,"HotelName":"Huong Ly Hotel 1","Country":"Vietnam","City":"Ba Vi District","Address":"Quang Phuc Hamlet, Yen Bai, Ba Vi","Lat":21.054013,"Lng":105.4378238},{"TravelLokaId":3000010034800,"HotelName":"Sun and Wind Hotel Phu Quoc","Country":"Vietnam","City":"Phu Quoc","Address":"Group 4, Tran Hung Dao, Cua Lap","Lat":10.189305154,"Lng":103.972618924},{"TravelLokaId":3000010034813,"HotelName":"Gia Nguyen Motel","Country":"Vietnam","City":"Vung Tau City","Address":"Lot 8, Binh Minh Zone","Lat":10.4113797,"Lng":107.136224},{"TravelLokaId":3000010034822,"HotelName":"Pretty Backpackers House Dalat","Country":"Vietnam","City":"Da Lat","Address":"3/14 Hai Ba Trung, Ward 6","Lat":11.9430453,"Lng":108.4322225},{"TravelLokaId":3000010034828,"HotelName":"Phu Nam Hotel","Country":"Vietnam","City":"Cam Le District","Address":"32-34 Cach Mang Thang 8","Lat":16.021932092,"Lng":108.213708624},{"TravelLokaId":3000010034831,"HotelName":"Son Travel Home","Country":"Vietnam","City":"Binh Thanh District","Address":"66 Nguyen Ngoc Phuong","Lat":10.789096,"Lng":106.7083684},{"TravelLokaId":3000010034839,"HotelName":"Vina Sapa","Country":"Vietnam","City":"Sa Pa District","Address":"37 Thac Bac","Lat":22.3364532,"Lng":103.8393147},{"TravelLokaId":3000010034842,"HotelName":"Thanh Nien Guest House","Country":"Vietnam","City":"District 3","Address":"212-214 Nguyen Dinh Chieu, Ward Vo Thi Sau","Lat":10.7787621,"Lng":106.690053},{"TravelLokaId":3000010034846,"HotelName":"Thanh Loan Hotel","Country":"Vietnam","City":"Hue City","Address":"40 Ben Nghe","Lat":16.4651178,"Lng":107.5946492},{"TravelLokaId":3000010034851,"HotelName":"Tien Son Guesthouse","Country":"Vietnam","City":"Phu Quoc","Address":"Cach Mang Thang 8 St.,","Lat":10.2303741,"Lng":103.9668798},{"TravelLokaId":3000010034853,"HotelName":"Vien Duong Guest House","Country":"Vietnam","City":"Phu Quoc","Address":"Nguyen Van Cu, Group 4, An Thoi","Lat":10.0565335,"Lng":104.0178736},{"TravelLokaId":3000010034858,"HotelName":"Hai Tien Resort","Country":"Vietnam","City":"Hoang Hoa District","Address":"Hoang Tien Hamlet","Lat":19.8437427,"Lng":105.9360659},{"TravelLokaId":3000010034859,"HotelName":"Ha Noi Xanh Hotel","Country":"Vietnam","City":"Hoang Hoa District","Address":"Hai Tien Beach, Hoang Hoa","Lat":19.844282609,"Lng":105.936403858},{"TravelLokaId":3000010034883,"HotelName":"Nhat Tan Hotel","Country":"Vietnam","City":"Binh Chanh District","Address":"35-37 Street No 4, Trung Son Residences, Binh Hung Ward","Lat":10.739034736,"Lng":106.690517664},{"TravelLokaId":3000010034884,"HotelName":"Tammy Hotel","Country":"Vietnam","City":"Binh Chanh District","Address":"24 - 26 Street No 7, Trung Son Residences, Binh Hung Ward","Lat":10.738710602,"Lng":106.690887809},{"TravelLokaId":3000010034903,"HotelName":"Rosemary - Bed & Coffee House","Country":"Vietnam","City":"Da Lat","Address":"21/19 Bis Tran Phu","Lat":11.9358525,"Lng":108.4374123},{"TravelLokaId":3000010034910,"HotelName":"Yen Huynh Guesthouse","Country":"Vietnam","City":"Phu Quoc","Address":"187 Duong 30/4, Duong Dong, Phu Quoc Island, Vietnam","Lat":10.2156641,"Lng":103.9681224},{"TravelLokaId":3000010034929,"HotelName":"House No 2","Country":"Vietnam","City":"Binh Thanh District","Address":"19S Nguyen Huu Canh","Lat":10.7893481,"Lng":106.7103045},{"TravelLokaId":3000010034933,"HotelName":"Dak Lak Hotel","Country":"Vietnam","City":"Buon Ma Thuot City","Address":"15 Le Duan","Lat":12.6731559,"Lng":108.043125},{"TravelLokaId":3000010034944,"HotelName":"Hoang Vu Bien Ho Gia Lai Hotel","Country":"Vietnam","City":"Pleiku City","Address":"239 Vo Van Kiet, Yen The Ward","Lat":14.0303534,"Lng":107.9892107},{"TravelLokaId":3000010034960,"HotelName":"Da Loc Hotel","Country":"Vietnam","City":"Binh Thanh District","Address":"334/14/4 Chu Van An","Lat":10.8115898,"Lng":106.7091751},{"TravelLokaId":3000010034992,"HotelName":"4H Hotel Nha Trang","Country":"Vietnam","City":"Nha Trang","Address":"24/6 Hung Vuong","Lat":12.2374428,"Lng":109.1951068},{"TravelLokaId":3000010035003,"HotelName":"Dam San Hotel","Country":"Vietnam","City":"Buon Ma Thuot City","Address":"212 - 214 Nguyen Cong Tru","Lat":12.678530076,"Lng":108.049633994},{"TravelLokaId":3000010035005,"HotelName":"Diamond Sea Hotel Vung Tau","Country":"Vietnam","City":"Vung Tau City","Address":"21 La Van Cau","Lat":10.3380376,"Lng":107.090211},{"TravelLokaId":3000010035011,"HotelName":"Mon Ami Hotel","Country":"Vietnam","City":"Phu Quoc","Address":"150 Nguyen Trung Truc, Duong Dong","Lat":10.226705695,"Lng":103.977475818},{"TravelLokaId":3000010035039,"HotelName":"Sapa Wonder Hotel","Country":"Vietnam","City":"Sa Pa District","Address":"031 Thach Son Street","Lat":22.336311546,"Lng":103.846795444},{"TravelLokaId":3000010035044,"HotelName":"Backpack Hostel Nha Trang","Country":"Vietnam","City":"Nha Trang","Address":"92/12 Hung Vuong Street","Lat":12.237585,"Lng":109.19491},{"TravelLokaId":3000010035047,"HotelName":"Cinco Motel","Country":"Vietnam","City":"Vung Tau City","Address":"78 Xo Viet Nghe Tinh","Lat":10.344663,"Lng":107.0856025},{"TravelLokaId":3000010035048,"HotelName":"Hotel Star39","Country":"Vietnam","City":"Thu Duc District","Address":"39 Nguyen Van Ba","Lat":10.847509,"Lng":106.771894},{"TravelLokaId":3000010035050,"HotelName":"Viet Thang Guesthouse","Country":"Vietnam","City":"Buon Ma Thuot City","Address":"11B Truong Chinh","Lat":12.6892382,"Lng":108.0569657},{"TravelLokaId":3000010035051,"HotelName":"Kao Design Hotel","Country":"Vietnam","City":"District 1","Address":"385/14 Nguyen Trai","Lat":10.759101,"Lng":106.684787},{"TravelLokaId":3000010035056,"HotelName":"Thien Ma Hotel","Country":"Vietnam","City":"Buon Ma Thuot City","Address":"50-52-54 Hai Ba Trung","Lat":12.6845181,"Lng":108.044309},{"TravelLokaId":3000010035059,"HotelName":"Kim Lien Phu Quoc Guesthouse","Country":"Vietnam","City":"Phu Quoc","Address":"118 Tran Hung Dao St., Duong Dong Town, Duong To, Phu Quoc","Lat":10.194795324,"Lng":103.966864538},{"TravelLokaId":3000010035067,"HotelName":"Sunvilla Hotel","Country":"Vietnam","City":"Vung Tau City","Address":"9B Phan Chu Trinh","Lat":10.3376376,"Lng":107.0801349},{"TravelLokaId":3000010035069,"HotelName":"Merry Housing 1","Country":"Vietnam","City":"Cau Giay District","Address":"Lot C7D6, Tran Thai Tong","Lat":21.030992,"Lng":105.7882914},{"TravelLokaId":3000010035071,"HotelName":"Villa Phuong Tim Dalat","Country":"Vietnam","City":"Da Lat","Address":"14 Tran Khanh Du","Lat":11.96043817,"Lng":108.441443592},{"TravelLokaId":3000010035072,"HotelName":"Sao Mai Motel","Country":"Vietnam","City":"Vung Tau City","Address":"87 Nguyễn Thị Minh Khai, 8 ward","Lat":10.3545505,"Lng":107.0954102}]