[{"TravelLokaId":3000010030866,"HotelName":"Tu Quy Hotel","Country":"Vietnam","City":"Dong Hoi City","Address":"63 Truong Phap","Lat":17.481886624,"Lng":106.625326574},{"TravelLokaId":3000010030867,"HotelName":"Eden Park Saigon","Country":"Vietnam","City":"District 7","Address":"5-7 Phan Khiem Ich","Lat":10.7329236,"Lng":106.7100227},{"TravelLokaId":3000010030868,"HotelName":"Thuan Viet Guesthouse","Country":"Vietnam","City":"Da Lat","Address":"92 - 93 Dang Thai Than Street","Lat":11.9299426,"Lng":108.4488667},{"TravelLokaId":3000010030871,"HotelName":"Moon House Villa Dalat","Country":"Vietnam","City":"Da Lat","Address":"16 Hung Vuong Street, Ward 10","Lat":11.949128,"Lng":108.4740512},{"TravelLokaId":3000010030903,"HotelName":"Thuan Phat Phu Quoc","Country":"Vietnam","City":"Phu Quoc","Address":"82 Tran Hung Dao street","Lat":10.204830605,"Lng":103.962009698},{"TravelLokaId":3000010030905,"HotelName":"New Life Hotel","Country":"Vietnam","City":"District 3","Address":"383 Dien Bien Phu","Lat":10.7736345,"Lng":106.6804251},{"TravelLokaId":3000010030906,"HotelName":"Kim Hong Hotel","Country":"Vietnam","City":"Vung Tau City","Address":"12A Hai Dang Street","Lat":10.3366412,"Lng":107.076981},{"TravelLokaId":3000010030910,"HotelName":"Thu Ha Hotel","Country":"Vietnam","City":"Tan Binh District","Address":"38 Hau Giang","Lat":10.808112,"Lng":106.663011},{"TravelLokaId":3000010030911,"HotelName":"Queen Hostel","Country":"Vietnam","City":"Da Lat","Address":"14 Trieu Viet Vuong Street","Lat":11.9321133,"Lng":108.4270403},{"TravelLokaId":3000010030914,"HotelName":"New Sky Hotel Nha Trang","Country":"Vietnam","City":"Nha Trang","Address":"111/2 Hung Vuong","Lat":12.2423637,"Lng":109.1941648},{"TravelLokaId":3000010030919,"HotelName":"Hanoi Queen Hotel","Country":"Vietnam","City":"Hoan Kiem District","Address":"116 Hang Bac","Lat":21.034084,"Lng":105.851176},{"TravelLokaId":3000010030920,"HotelName":"Duc Trong Hotel","Country":"Vietnam","City":"Vung Tau City","Address":"81/26G Thuy Van Street","Lat":10.333266575,"Lng":107.088364482},{"TravelLokaId":3000010030921,"HotelName":"Tien Dung Guest House Dalat","Country":"Vietnam","City":"Da Lat","Address":"53 Phu Dong Thien Vuong","Lat":11.9556048,"Lng":108.4425374},{"TravelLokaId":3000010030922,"HotelName":"Phu Cam Hotel","Country":"Vietnam","City":"Thu Duc District","Address":"673/7 Quater 3,  Quoc Lo 13","Lat":10.8580974,"Lng":106.7233271},{"TravelLokaId":3000010030929,"HotelName":"Trang Hoang Hotel","Country":"Vietnam","City":"Vung Tau City","Address":"42B Nguyen Hien Street","Lat":10.331765,"Lng":107.0871653},{"TravelLokaId":3000010030930,"HotelName":"Minh Minh Villa","Country":"Vietnam","City":"Vung Tau City","Address":"85 Tran Phu Street","Lat":10.3642529,"Lng":107.0621854},{"TravelLokaId":3000010030932,"HotelName":"Seaside Apartment Nha Trang","Country":"Vietnam","City":"Nha Trang","Address":"60 Tran Phu","Lat":12.2365855,"Lng":109.1964527},{"TravelLokaId":3000010030947,"HotelName":"Song Huong Hotel","Country":"Vietnam","City":"Vung Tau City","Address":"09 Truong Vinh Ky Street","Lat":10.3497488,"Lng":107.0723255},{"TravelLokaId":3000010030962,"HotelName":"J.airily Serviced Apartment","Country":"Vietnam","City":"District 1","Address":"8A/1C2 Thai Van Lung","Lat":10.779507224,"Lng":106.70490101},{"TravelLokaId":3000010030968,"HotelName":"Hanh Tho Homestay","Country":"Vietnam","City":"Da Lat","Address":"22C Phan Nhu Thach Street","Lat":11.9417639,"Lng":108.4345439},{"TravelLokaId":3000010030971,"HotelName":"Forget Me Not Hotel Nha Trang","Country":"Vietnam","City":"Nha Trang","Address":"132/66 Hung vuong","Lat":12.2355351,"Lng":109.1954549},{"TravelLokaId":3000010030985,"HotelName":"Kelly Hotel Ha Noi","Country":"Vietnam","City":"Cau Giay District","Address":"15, Alley 143","Lat":21.035348,"Lng":105.8033438},{"TravelLokaId":3000010030993,"HotelName":"Hoa Xuan Hotel","Country":"Vietnam","City":"District 1","Address":"156 Cong Quynh Street","Lat":10.765986,"Lng":106.6897103},{"TravelLokaId":3000010031052,"HotelName":"Unit F4 - The Ocean Villa","Country":"Vietnam","City":"Ngu Hanh Son District","Address":"Truong Sa Street","Lat":15.974530023,"Lng":108.280154653},{"TravelLokaId":3000010031060,"HotelName":"La Apartment Saigon South","Country":"Vietnam","City":"District 7","Address":"Number 48, Street Number 3, Tran Trong Cung","Lat":10.741459141,"Lng":106.732073128},{"TravelLokaId":3000010031079,"HotelName":"Village Moon Villa","Country":"Vietnam","City":"Hoi An","Address":"393A Hai Ba Trung, Cam Chau","Lat":15.8918697,"Lng":108.3302198},{"TravelLokaId":3000010031081,"HotelName":"Hong Tuoi Hotel","Country":"Vietnam","City":"Go Vap District","Address":"491/24 Nguyen Van Cong","Lat":10.8182448,"Lng":106.6757943},{"TravelLokaId":3000010031087,"HotelName":"Hai Nguyen Guesthouse","Country":"Vietnam","City":"Da Lat","Address":"17A  Nguyen Luong Bang","Lat":11.9513825,"Lng":108.4357349},{"TravelLokaId":3000010031106,"HotelName":"Phuong Lan Hotel","Country":"Vietnam","City":"Dong Hoi City","Address":"175 Ly Thuong  Kiet street","Lat":17.481276925,"Lng":106.617660932},{"TravelLokaId":3000010031109,"HotelName":"Thuy Linh Motel","Country":"Vietnam","City":"Vung Tau City","Address":"H18 - H19 Phan Huy Chu Street","Lat":10.3368871,"Lng":107.0834774},{"TravelLokaId":3000010031111,"HotelName":"Truc Xanh Hotel","Country":"Vietnam","City":"Da Lat","Address":"H81 Nguyen Thi Nghia","Lat":11.9483654,"Lng":108.4401788},{"TravelLokaId":3000010031118,"HotelName":"Kim Truong Hotel","Country":"Vietnam","City":"District 1","Address":"120/6 Tran Dinh Xu","Lat":10.762369,"Lng":106.689195},{"TravelLokaId":3000010031124,"HotelName":"Kim Truong Guest House","Country":"Vietnam","City":"District 1","Address":"274 Bui Vien","Lat":10.76551268,"Lng":106.690311309},{"TravelLokaId":3000010031126,"HotelName":"Anh Khoa Hotel","Country":"Vietnam","City":"Da Lat","Address":"34 La Son Phu Tu Street","Lat":11.9543927,"Lng":108.4303648},{"TravelLokaId":3000010031129,"HotelName":"Greenland Homestay","Country":"Vietnam","City":"Bo Trach District","Address":"Son Trach, Bo Trach","Lat":17.608752284,"Lng":106.314107625},{"TravelLokaId":3000010031141,"HotelName":"Romeo Linh Nga Motel","Country":"Vietnam","City":"Vung Tau City","Address":"126-A17 Hoàng Hoa Thám","Lat":10.3374845,"Lng":107.0855969},{"TravelLokaId":3000010031154,"HotelName":"Anh Thy Guesthouse ( Coca Guest House)","Country":"Vietnam","City":"Da Lat","Address":"59 Phan Nhu Thach","Lat":11.9417639,"Lng":108.4345439},{"TravelLokaId":3000010031163,"HotelName":"Phuong Linh Motel","Country":"Vietnam","City":"Vung Tau City","Address":"H22 Phan Huy Chu, A Chau Area","Lat":10.3368871,"Lng":107.0834774},{"TravelLokaId":3000010031164,"HotelName":"Ngan Ha Hotel Quang Binh","Country":"Vietnam","City":"Dong Hoi City","Address":"159 Truong Phap street","Lat":17.48762741,"Lng":106.627174616},{"TravelLokaId":3000010031165,"HotelName":"JM House","Country":"Vietnam","City":"District 2","Address":"Duong so 3","Lat":10.7951741,"Lng":106.7349513},{"TravelLokaId":3000010031178,"HotelName":"Mai Villa Hotel 5 - Trung Hoa Nhan Chinh","Country":"Vietnam","City":"Cau Giay District","Address":"No 30 N7B, Trung Hoa Nhan Chinh","Lat":21.007520463,"Lng":105.801312993},{"TravelLokaId":3000010031181,"HotelName":"Laska Hotel Vung Tau","Country":"Vietnam","City":"Vung Tau City","Address":"81/6 Thuy Van, Ward 2","Lat":10.345220841,"Lng":107.095214994},{"TravelLokaId":3000010031185,"HotelName":"G15 Hotel - Mai Lam Hotel 1","Country":"Vietnam","City":"Cau Giay District","Address":"23 N7B Trung Hoa Nhan Chinh","Lat":21.0077907,"Lng":105.8011445},{"TravelLokaId":3000010031193,"HotelName":"Tai Loc Hotel Nha Trang","Country":"Vietnam","City":"Nha Trang","Address":"96A10 Tran Phu","Lat":12.2281802,"Lng":109.1994694},{"TravelLokaId":3000010031194,"HotelName":"Mai Villa - Mai Phuong Guest House 3","Country":"Vietnam","City":"Thanh Xuan District","Address":"No47A, Thuy San Residences, 60 Le Van Thiem Alley","Lat":21.002186,"Lng":105.8027947},{"TravelLokaId":3000010031197,"HotelName":"Tiki Hostel","Country":"Vietnam","City":"Dong Hoi City","Address":"Nhat Le 2 Beach, Truong Phap , Hai Thanh Ward","Lat":17.507974531,"Lng":106.615480185},{"TravelLokaId":3000010031205,"HotelName":"Mai Villa - Mai Ha Guest House 2","Country":"Vietnam","City":"Cau Giay District","Address":"No 23, Block 14A, No 11 Tung Yên, Trung Hoa Nhan Chinh","Lat":21.016293495,"Lng":105.798812401},{"TravelLokaId":3000010031206,"HotelName":"Hong Ha Hotel Saigon","Country":"Vietnam","City":"District 1","Address":"2A/9 Nguyen Thi Minh Khai","Lat":10.7896889,"Lng":106.703818},{"TravelLokaId":3000010031207,"HotelName":"Phuong Thanh Hotel","Country":"Vietnam","City":"District 10","Address":"2 Tran Thien Chanh","Lat":10.7710425,"Lng":106.6719929},{"TravelLokaId":3000010031214,"HotelName":"Phuong Anh Hotel","Country":"Vietnam","City":"Vung Tau City","Address":"H11 Phan Huy Chu, A Chau Area","Lat":10.3368871,"Lng":107.0834774},{"TravelLokaId":3000010031217,"HotelName":"Dollar Hotel Nha Trang","Country":"Vietnam","City":"Nha Trang","Address":"120/4 (former 84/10) Hung Vuong","Lat":12.2352423,"Lng":109.195261},{"TravelLokaId":3000010031230,"HotelName":"Kim Huong Motel","Country":"Vietnam","City":"Vung Tau City","Address":"126 Hoang Hoa Tham, Ward 2","Lat":10.3374845,"Lng":107.0855969},{"TravelLokaId":3000010031231,"HotelName":"Ruby Orient Hotel","Country":"Vietnam","City":"Tan Phu District","Address":"137 Duong CN11","Lat":10.8087523,"Lng":106.6097788},{"TravelLokaId":3000010031232,"HotelName":"Aloe Garden Homestay","Country":"Vietnam","City":"Hai Chau District","Address":"103 Xuan Dieu","Lat":16.0887609,"Lng":108.2196799},{"TravelLokaId":3000010031234,"HotelName":"Mai Villa - Mai Ha Guest House 3","Country":"Vietnam","City":"Cau Giay District","Address":"No 23, Block 14B, Street No 11, Trung Yen, Trung Hoa Nhan Chinh","Lat":21.015271877,"Lng":105.798124962},{"TravelLokaId":3000010031240,"HotelName":"Huong Giang Hotel - Quang Binh","Country":"Vietnam","City":"Bo Trach District","Address":"Ha Loi Town, Son Trach, Bo Trach","Lat":17.599804199,"Lng":106.294099537},{"TravelLokaId":3000010031241,"HotelName":"Canary Boutique Hoang Yen Apartment","Country":"Vietnam","City":"Nha Trang","Address":"88 Nguyen Thien Thuat","Lat":12.2339288,"Lng":109.1947085},{"TravelLokaId":3000010031247,"HotelName":"Hoa An Motel","Country":"Vietnam","City":"Vung Tau City","Address":"H13 Phan Huy Chu Street, A Chau Area","Lat":10.3368871,"Lng":107.0834774},{"TravelLokaId":3000010031256,"HotelName":"Phong Lan 2 Hotel","Country":"Vietnam","City":"District 9","Address":"24A Quang Trung, Ward Hiep Phu","Lat":10.8414992,"Lng":106.7725599},{"TravelLokaId":3000010031261,"HotelName":"Thanh Dat Resort","Country":"Vietnam","City":"Ninh Kieu District","Address":"95/4 Nguyen Van Cu Street,","Lat":10.038309677,"Lng":105.767666101}]