[{"TravelLokaId":3000010036970,"HotelName":"Hoang Nam Hotel","Country":"Vietnam","City":"District 5","Address":"111 Tran Hung Dao B, Ward 6","Lat":10.752738954,"Lng":106.66795224},{"TravelLokaId":3000010036972,"HotelName":"Loc Phat Hotel","Country":"Vietnam","City":"District 10","Address":"765 Le Hong Phong","Lat":10.772017516,"Lng":106.672328614},{"TravelLokaId":3000010036973,"HotelName":"Truc Ngoc Hotel","Country":"Vietnam","City":"District 10","Address":"A18-A19/K34 Tran Thien Chanh","Lat":10.7730393,"Lng":106.6716994},{"TravelLokaId":3000010036974,"HotelName":"Thao Linh Hotel Quy Nhon","Country":"Vietnam","City":"Quy Nhon City","Address":"256 Nguyen Thi Dinh","Lat":13.7542269,"Lng":109.2120181},{"TravelLokaId":3000010036975,"HotelName":"Anh Duong Hotel Saigon","Country":"Vietnam","City":"District 10","Address":"839/5 Le Hong Phong","Lat":10.773073439,"Lng":106.671156138},{"TravelLokaId":3000010036982,"HotelName":"Hoang Phung Hotel","Country":"Vietnam","City":"Tan Binh District","Address":"4 Ngo Be","Lat":10.803448,"Lng":106.6416548},{"TravelLokaId":3000010036996,"HotelName":"Thanh Trung Hotel Vung Tau","Country":"Vietnam","City":"Vung Tau City","Address":"154E Hoang Hoa Tham","Lat":10.3354854,"Lng":107.0865775},{"TravelLokaId":3000010036998,"HotelName":"Minh Hoang Hotel","Country":"Vietnam","City":"Tan Binh District","Address":"74 Binh Gia","Lat":10.800822,"Lng":106.644948},{"TravelLokaId":3000010037003,"HotelName":"Hanpro - Serviced Apartment Near Westlake - Anh Tri Building","Country":"Vietnam","City":"Tay Ho District","Address":"No 7, 236 Au Co","Lat":21.069954,"Lng":105.826233},{"TravelLokaId":3000010037013,"HotelName":"New Time Hotel","Country":"Vietnam","City":"Hue City","Address":"23 Doi Cung","Lat":16.468357085,"Lng":107.59393735},{"TravelLokaId":3000010037015,"HotelName":"Hanpro - Serviced Apartment in Park Hill","Country":"Vietnam","City":"Hai Ba Trung District","Address":"458 Minh Khai","Lat":20.9936697,"Lng":105.8694302},{"TravelLokaId":3000010037024,"HotelName":"La Caito - The May","Country":"Vietnam","City":"Hoan Kiem District","Address":"No 2 Da Tuong","Lat":21.024092,"Lng":105.846739},{"TravelLokaId":3000010037036,"HotelName":"Minh Huy Hotel","Country":"Vietnam","City":"Vung Tau City","Address":"D1, A Chau, Hoang Hoa Tham","Lat":10.3420553,"Lng":107.0771898},{"TravelLokaId":3000010037041,"HotelName":"Ban Mai Hotel Nha Trang","Country":"Vietnam","City":"Nha Trang","Address":"32/1 Hung Vuong, Loc Tho","Lat":12.2405871,"Lng":109.1946015},{"TravelLokaId":3000010037044,"HotelName":"La Caito - The Funkie","Country":"Vietnam","City":"Hoan Kiem District","Address":"2nd Floor, No 2, Da Tuong","Lat":21.0233997,"Lng":105.8465612},{"TravelLokaId":3000010037063,"HotelName":"Sata Homestay Nha Trang","Country":"Vietnam","City":"Nha Trang","Address":"10/28 Nguyen Thien Thuat","Lat":12.241187,"Lng":109.1928263},{"TravelLokaId":3000010037068,"HotelName":"Tai Nguyen Motel","Country":"Vietnam","City":"Vung Tau City","Address":"A40 Ba Thang Hai Street","Lat":10.3588226,"Lng":107.0975247},{"TravelLokaId":3000010037071,"HotelName":"Les Villas Du Roi","Country":"Vietnam","City":"Da Lat","Address":"9E Tran Quang Dieu","Lat":11.9411161,"Lng":108.4638549},{"TravelLokaId":3000010037075,"HotelName":"Hoi An Viva Homestay","Country":"Vietnam","City":"Hoi An","Address":"218 Ly Thai To, Cam Chau","Lat":15.8888774,"Lng":108.3292267},{"TravelLokaId":3000010037077,"HotelName":"Gia Huynh Hotel","Country":"Vietnam","City":"Thanh Khe District","Address":"335 Dien Bien Phu","Lat":16.0659743,"Lng":108.18914},{"TravelLokaId":3000010037078,"HotelName":"Nga Nguyen Hotel","Country":"Vietnam","City":"Vung Tau City","Address":"576 Nguyen An Ninh","Lat":10.3639851,"Lng":107.0925406},{"TravelLokaId":3000010037082,"HotelName":"Hotel 9999","Country":"Vietnam","City":"My Tho City","Address":"127/4 Le Thi Hong Gam","Lat":10.3559732,"Lng":106.3538642},{"TravelLokaId":3000010037086,"HotelName":"Hoi An Viva Villa","Country":"Vietnam","City":"Hoi An","Address":"220 Ly Thai To, Cam Chau","Lat":15.888885923,"Lng":108.329188815},{"TravelLokaId":3000010037089,"HotelName":"Bach Duong Vung Tau Hotel","Country":"Vietnam","City":"Vung Tau City","Address":"H54 Bau Sen 2, A Chau Area","Lat":10.33627006,"Lng":107.081659084},{"TravelLokaId":3000010037090,"HotelName":"Bao Ngan Hotel","Country":"Vietnam","City":"My Tho City","Address":"141 Le Van Pham","Lat":10.3584736,"Lng":106.3460689},{"TravelLokaId":3000010037091,"HotelName":"Hoan Kiem Hostel","Country":"Vietnam","City":"Hoan Kiem District","Address":"9-11A Hai Tuong Lane , Ta Hien street","Lat":21.034516517,"Lng":105.85206449},{"TravelLokaId":3000010037096,"HotelName":"Hotel 55 Bao Loc","Country":"Vietnam","City":"Bao Loc City","Address":"55 Ho Tung Mau Street","Lat":11.554169041,"Lng":107.814440122},{"TravelLokaId":3000010037098,"HotelName":"Mimosa Guest House","Country":"Vietnam","City":"Phu Quoc","Address":"41a Ly Thuong Kiet St., Duong Dong, Phu Quoc, Kien Giang","Lat":10.2244536,"Lng":103.9677175},{"TravelLokaId":3000010037099,"HotelName":"Trung Huynh Bungalow","Country":"Vietnam","City":"Phu Quoc","Address":"125 Tran Hung Dao St., Duong Dong, Phu Quoc, Kien Giang","Lat":10.1909424,"Lng":103.9669574},{"TravelLokaId":3000010037121,"HotelName":"Thuan Hoa Hotel","Country":"Vietnam","City":"Vung Tau City","Address":"126 Hoang Hoa Tham","Lat":10.3373422,"Lng":107.0854133},{"TravelLokaId":3000010037124,"HotelName":"Leo's Family Hostel","Country":"Vietnam","City":"Da Lat","Address":"D58 Hoang Van Thu","Lat":11.937250929,"Lng":108.429133585},{"TravelLokaId":3000010037134,"HotelName":"Khuong Loan Guest House","Country":"Vietnam","City":"Phu Quoc","Address":"373 Nguyen Trung Truc, Khu Pho 5, Duong Dong, Vietnam","Lat":10.2233002,"Lng":103.9652149},{"TravelLokaId":3000010037136,"HotelName":"Dat Phu Sa Hotel","Country":"Vietnam","City":"Binh Thanh District","Address":"353/ 7A Binh Quoi","Lat":10.8263405,"Lng":106.7355239},{"TravelLokaId":3000010037138,"HotelName":"Hoa Sen Vang Hotel Dalat","Country":"Vietnam","City":"Da Lat","Address":"4 Trieu Viet Vuong","Lat":11.9307538,"Lng":108.4311693},{"TravelLokaId":3000010037139,"HotelName":"Hong Duc Hotel Ninh Thuan","Country":"Vietnam","City":"Phan Rang - Thap Cham City","Address":"Yen Ninh Street","Lat":11.568752923,"Lng":109.022972025},{"TravelLokaId":3000010037142,"HotelName":"Loc An Resort","Country":"Vietnam","City":"Xuyen Moc District, Vung Tau City","Address":"Lot 11, An Hoa, Loa An Commune","Lat":10.4536292,"Lng":107.3293971},{"TravelLokaId":3000010037151,"HotelName":"Lalaa Hotel","Country":"Vietnam","City":"District 10","Address":"766/4 Su Van Hanh, Ward 12","Lat":10.7702107,"Lng":106.6704831},{"TravelLokaId":3000010037155,"HotelName":"Ngoc Khanh Apartment","Country":"Vietnam","City":"Ba Dinh District","Address":"172 Ngoc Khanh","Lat":21.0239665,"Lng":105.8187583},{"TravelLokaId":3000010037163,"HotelName":"Ground Hogs Hotel","Country":"Vietnam","City":"Hai Chau District","Address":"32 Dao Cam Moc","Lat":16.0434978,"Lng":108.2128604},{"TravelLokaId":3000010037164,"HotelName":"Cat Tuong Motel","Country":"Vietnam","City":"My Tho City","Address":"271 Nguyen Thi Thap","Lat":10.3633737,"Lng":106.3405678},{"TravelLokaId":3000010037165,"HotelName":"Hotel 37 Trung Son","Country":"Vietnam","City":"Binh Chanh District","Address":"37 Duong 5B, Binh Hung","Lat":10.736581113,"Lng":106.691390652},{"TravelLokaId":3000010037168,"HotelName":"Phuoc An Khang Motel","Country":"Vietnam","City":"My Tho City","Address":"779 Doan Thi Nghiep","Lat":10.3638192,"Lng":106.3393403},{"TravelLokaId":3000010037172,"HotelName":"Doan Gia An 1 Hotel Trung Son","Country":"Vietnam","City":"Binh Chanh District","Address":"44 Duong so 8, Binh Hung","Lat":10.736285964,"Lng":106.691991467},{"TravelLokaId":3000010037177,"HotelName":"Viet Uc Motel","Country":"Vietnam","City":"Vung Tau City","Address":"Lot H17, A Chau Area, Phan Huy Chu Street","Lat":10.3361146,"Lng":107.0818295},{"TravelLokaId":3000010037180,"HotelName":"Rose Hotel Trung Son","Country":"Vietnam","City":"Binh Chanh District","Address":"65 Duong so 9, Binh Hung","Lat":10.7368536,"Lng":106.6889609},{"TravelLokaId":3000010037183,"HotelName":"Viet Uc 2 Motel","Country":"Vietnam","City":"Vung Tau City","Address":"78 Vo Thi Sau","Lat":10.3374103,"Lng":107.0866377},{"TravelLokaId":3000010037188,"HotelName":"Ha Binh Hotel","Country":"Vietnam","City":"Hai Chau District","Address":"524, 2/9 Street","Lat":16.0420608,"Lng":108.2231839},{"TravelLokaId":3000010037191,"HotelName":"Bo Hostel","Country":"Vietnam","City":"Da Lat","Address":"143 Phu Dong Thien Vuong Street","Lat":11.96614891,"Lng":108.443642745},{"TravelLokaId":3000010037200,"HotelName":"Madam Hien Apartment - H2H","Country":"Vietnam","City":"Long Bien District","Address":"No 2 Long Bien 2","Lat":21.0458358,"Lng":105.8660512},{"TravelLokaId":3000010037204,"HotelName":"Thao Chi Hotel Bao Loc","Country":"Vietnam","City":"Bao Loc City","Address":"139/2 Pham Ngoc Thach","Lat":11.5509523,"Lng":107.8250143},{"TravelLokaId":3000010037205,"HotelName":"Aclass Legend Cruise","Country":"Vietnam","City":"Ha Long City","Address":"25 Tuan Chau Marina, Tuan Chau island","Lat":20.925238,"Lng":106.981588},{"TravelLokaId":3000010037210,"HotelName":"Violet Motel & Coffee Bao Loc","Country":"Vietnam","City":"Bao Loc City","Address":"286 Tran Phu","Lat":11.5338416,"Lng":107.819432},{"TravelLokaId":3000010037211,"HotelName":"Mai Ngoc Motel Bao Loc","Country":"Vietnam","City":"Bao Loc City","Address":"179/3 Ly Thai To Street","Lat":11.5839543,"Lng":107.7979068},{"TravelLokaId":3000010037215,"HotelName":"Thien Phu Motel","Country":"Vietnam","City":"My Tho City","Address":"197 Nguyen Thi Thap","Lat":10.3633737,"Lng":106.3405678},{"TravelLokaId":3000010037219,"HotelName":"Huong Tra Hotel Bao Loc","Country":"Vietnam","City":"Bao Loc City","Address":"70 Pham Ngoc Thach Street","Lat":11.5509523,"Lng":107.8250143},{"TravelLokaId":3000010037255,"HotelName":"Huong Tram 2 Hotel My Tho","Country":"Vietnam","City":"My Tho City","Address":"Le Thi Hong Gam","Lat":10.352448093,"Lng":106.348719705},{"TravelLokaId":3000010037257,"HotelName":"Homy Hostel Dalat","Country":"Vietnam","City":"Da Lat","Address":"2 Thong Thien Hoc","Lat":11.951835313,"Lng":108.438102901},{"TravelLokaId":3000010037261,"HotelName":"Yen Anh Motel","Country":"Vietnam","City":"Vung Tau City","Address":"145/7 Hoang Hoa Tham","Lat":10.3361872,"Lng":107.0864206},{"TravelLokaId":3000010037263,"HotelName":"Hoang Nhan Homestay","Country":"Vietnam","City":"Da Lat","Address":"72 Dong Tam","Lat":11.9374405,"Lng":108.425299},{"TravelLokaId":3000010037264,"HotelName":"Phu Quoc Peace Resort","Country":"Vietnam","City":"Phu Quoc","Address":"Tran Phu Street","Lat":10.2395925,"Lng":103.9535683}]