[{"TravelLokaId":3000010027736,"HotelName":"Blue Ocean Hotel Saigon","Country":"Vietnam","City":"District 7","Address":"11A-15-17 Hung Phuoc 2, Phu My Hung","Lat":10.731431,"Lng":106.707969},{"TravelLokaId":3000010027738,"HotelName":"Kim Thai Guest House","Country":"Vietnam","City":"Da Lat","Address":"No 7, Ha Huy Tap","Lat":11.936058,"Lng":108.441031},{"TravelLokaId":3000010027744,"HotelName":"Huong Ha Mini Hotel","Country":"Vietnam","City":"Da Lat","Address":"No 5, Ha Huy Tap","Lat":11.936058,"Lng":108.441031},{"TravelLokaId":3000010027746,"HotelName":"Huong Duong Hotel","Country":"Vietnam","City":"Da Lat","Address":"Lot A6-A7 Hai Thuong","Lat":11.941715,"Lng":108.431819},{"TravelLokaId":3000010027748,"HotelName":"Mely 2 Hotel","Country":"Vietnam","City":"Cau Giay District","Address":"B24/57 Nguyen Khanh Toan","Lat":21.036292,"Lng":105.802873},{"TravelLokaId":3000010027753,"HotelName":"My Trang Guest House","Country":"Vietnam","City":"Da Lat","Address":"300 Bui Thi Xuan","Lat":11.945989,"Lng":108.439833},{"TravelLokaId":3000010027755,"HotelName":"Thuy Ngu Hotel","Country":"Vietnam","City":"Cau Giay District","Address":"61 Tran Quoc Vuong, Xuan Thuy Ward","Lat":21.036497,"Lng":105.785625},{"TravelLokaId":3000010027765,"HotelName":"Thao Lien Hotel","Country":"Vietnam","City":"Da Lat","Address":"93 Bui Thi Xuan","Lat":11.949547,"Lng":108.438706},{"TravelLokaId":3000010027767,"HotelName":"Nhat Linh Hotel Sapa","Country":"Vietnam","City":"Sa Pa District","Address":"No 093 Thach Son Street","Lat":22.336749,"Lng":103.847352},{"TravelLokaId":3000010027774,"HotelName":"An Bang Garden House","Country":"Vietnam","City":"Hoi An","Address":"Nguyen Phan Vinh, Cam An","Lat":15.9144165,"Lng":108.3350766},{"TravelLokaId":3000010027777,"HotelName":"Sao Anh Mai Hotel","Country":"Vietnam","City":"Phu Nhuan District","Address":"50-52 Block C, Hoa Cuc","Lat":10.798693,"Lng":106.688835},{"TravelLokaId":3000010027778,"HotelName":"Tay Nguyen Hotel","Country":"Vietnam","City":"Buon Ma Thuot City","Address":"110 Ly Thuong Kiet","Lat":12.682864,"Lng":108.043554},{"TravelLokaId":3000010027784,"HotelName":"Lava Sapa Hotel","Country":"Vietnam","City":"Sa Pa District","Address":"396 Dien Bien Phu","Lat":22.34017,"Lng":103.835756},{"TravelLokaId":3000010027819,"HotelName":"Hoang Lan Hotel","Country":"Vietnam","City":"Ha Long City","Address":"15-17 Vuon Dao","Lat":20.958289,"Lng":107.050546},{"TravelLokaId":3000010027824,"HotelName":"Q Sapa Hotel","Country":"Vietnam","City":"Sa Pa District","Address":"04 Vo Thi Sau Street","Lat":22.336777,"Lng":103.846554},{"TravelLokaId":3000010027826,"HotelName":"Vanda Villa","Country":"Vietnam","City":"Da Lat","Address":"70 Hoang Dieu","Lat":11.942593201,"Lng":108.4253034},{"TravelLokaId":3000010027853,"HotelName":"Ngoc Diem Hotel","Country":"Vietnam","City":"District 1","Address":"84B Bui Vien","Lat":10.767212,"Lng":106.693287},{"TravelLokaId":3000010027859,"HotelName":"CoCo Riverside Homestay","Country":"Vietnam","City":"Hoi An","Address":"Group 1, Thanh Dong, Cam Thanh","Lat":15.881128,"Lng":108.3492893},{"TravelLokaId":3000010027862,"HotelName":"Hoang Long Hotel","Country":"Vietnam","City":"Phu Nhuan District","Address":"127 Phan Xich Long","Lat":10.803484,"Lng":106.681462},{"TravelLokaId":3000010027873,"HotelName":"Thuy Tien Hotel","Country":"Vietnam","City":"Thu Duc District","Address":"485 To Ngoc Van, Tam Phu Ward","Lat":10.8660332,"Lng":106.7403433},{"TravelLokaId":3000010027892,"HotelName":"Asean Hai Ngoc","Country":"Vietnam","City":"Ha Long City","Address":"No 4","Lat":20.959025,"Lng":107.049435},{"TravelLokaId":3000010027946,"HotelName":"Minh Huy Hotel","Country":"Vietnam","City":"District 3","Address":"704 Dien Bien Phu","Lat":10.770472,"Lng":106.676591},{"TravelLokaId":3000010027947,"HotelName":"Thanh Hoai Hotel","Country":"Vietnam","City":"Da Lat","Address":"29 Phan Boi Chau","Lat":11.944447,"Lng":108.438349},{"TravelLokaId":3000010027958,"HotelName":"Buu Dien Ha Long Hotel","Country":"Vietnam","City":"Ha Long City","Address":"No 1 Ha Long","Lat":20.960673,"Lng":107.061859},{"TravelLokaId":3000010027959,"HotelName":"Ha Long Eden Hotel","Country":"Vietnam","City":"Ha Long City","Address":"1 Ha Long","Lat":20.956009945,"Lng":107.049188},{"TravelLokaId":3000010027974,"HotelName":"Tom & Tony Hotel","Country":"Vietnam","City":"Phu Nhuan District","Address":"325 Phan Xich Long","Lat":10.803594,"Lng":106.681358},{"TravelLokaId":3000010027976,"HotelName":"Blue Diamond Hotel (Airport)","Country":"Vietnam","City":"Tan Binh District","Address":"B116 Bach Dang","Lat":10.814527,"Lng":106.669976},{"TravelLokaId":3000010027983,"HotelName":"Thang Lap Hotel","Country":"Vietnam","City":"Da Lat","Address":"33/15 Ho Tung Mau, Ward 3","Lat":11.938979,"Lng":108.439156},{"TravelLokaId":3000010027994,"HotelName":"Nhi Nhi Hotel","Country":"Vietnam","City":"Binh Chanh District","Address":"57 - 59 No 6 Street, Trung son hamlet","Lat":10.737519,"Lng":106.691128},{"TravelLokaId":3000010028008,"HotelName":"Van Long Hotel","Country":"Vietnam","City":"Da Lat","Address":"97 Bui Thi Xuan","Lat":11.949586,"Lng":108.438707},{"TravelLokaId":3000010028009,"HotelName":"Tuyet Mai Hotel Dalat","Country":"Vietnam","City":"Da Lat","Address":"4 Nguyen Van Troi","Lat":11.944861,"Lng":108.43583},{"TravelLokaId":3000010028010,"HotelName":"Phuong Thy Hotel","Country":"Vietnam","City":"Binh Thanh District","Address":"No. 3, Phan Boi Chau","Lat":10.802532,"Lng":106.700869},{"TravelLokaId":3000010028014,"HotelName":"Sai Gon Hotel","Country":"Vietnam","City":"District 1","Address":"51 Co Bac","Lat":10.764946,"Lng":106.695128},{"TravelLokaId":3000010028018,"HotelName":"Thinh Phat Hotel","Country":"Vietnam","City":"Da Lat","Address":"C4 Tran Le","Lat":11.937681,"Lng":108.428324},{"TravelLokaId":3000010028020,"HotelName":"Nam Nguyen Hotel","Country":"Vietnam","City":"Da Lat","Address":"9B4 Le Dai Hanh","Lat":11.938211,"Lng":108.43783},{"TravelLokaId":3000010028027,"HotelName":"Thai Thuong Hotel","Country":"Vietnam","City":"Ninh Binh City","Address":"Tam Coc, Bich Dong","Lat":20.251622,"Lng":105.972916},{"TravelLokaId":3000010028033,"HotelName":"Nam Bac Hotel","Country":"Vietnam","City":"Phu Nhuan District","Address":"206 Phan Dang Luu","Lat":10.80312,"Lng":106.684082},{"TravelLokaId":3000010028039,"HotelName":"Dien Luc Bai Chay Hotel","Country":"Vietnam","City":"Ha Long City","Address":"18 Bai Chay","Lat":20.960673,"Lng":107.061859},{"TravelLokaId":3000010028046,"HotelName":"Y Van Hotel","Country":"Vietnam","City":"Son Tra District","Address":"297 Tran Hung Dao Street","Lat":16.074614,"Lng":108.228967},{"TravelLokaId":3000010028070,"HotelName":"My Anh Hotel","Country":"Vietnam","City":"District 1","Address":"108 Le Lai","Lat":10.769645,"Lng":106.69239},{"TravelLokaId":3000010028078,"HotelName":"Square Hotel","Country":"Vietnam","City":"Ninh Binh City","Address":"Luu Co Street","Lat":20.273333,"Lng":105.964387},{"TravelLokaId":3000010028123,"HotelName":"New Day Hotel","Country":"Vietnam","City":"Sa Pa District","Address":"03 Le Van Tam","Lat":22.33769153,"Lng":103.847058239},{"TravelLokaId":3000010028129,"HotelName":"Villa 288 Dalat","Country":"Vietnam","City":"Da Lat","Address":"288 Nguyen Tu Luc","Lat":11.972852,"Lng":108.452406},{"TravelLokaId":3000010028138,"HotelName":"Song Hong Hotel Vung Tau","Country":"Vietnam","City":"Vung Tau City","Address":"3 Hoang Dieu","Lat":10.349761,"Lng":107.072351},{"TravelLokaId":3000010028154,"HotelName":"Thanh Tung 1 Hotel","Country":"Vietnam","City":"Vung Tau City","Address":"9 Tran Quy Cap Street, Tam Thang Ward","Lat":10.339211,"Lng":107.088965},{"TravelLokaId":3000010028157,"HotelName":"Khanh Lam Villa Dalat","Country":"Vietnam","City":"Da Lat","Address":"206 Nguyen Cong Tru, Ward 8","Lat":11.956491,"Lng":108.437618},{"TravelLokaId":3000010028160,"HotelName":"Villa Da Lat Hoang Kim","Country":"Vietnam","City":"Da Lat","Address":"15 Tran Binh Trong, Ward 5","Lat":11.94513,"Lng":108.429834},{"TravelLokaId":3000010028163,"HotelName":"Phuc Thinh Hotel","Country":"Vietnam","City":"Vung Tau City","Address":"20 La Van Cau","Lat":10.338226665,"Lng":107.090060796},{"TravelLokaId":3000010028167,"HotelName":"Hung Vuong Hotel","Country":"Vietnam","City":"Da Lat","Address":"46 Hung Vuong, Ward 9","Lat":11.949103,"Lng":108.467318},{"TravelLokaId":3000010028175,"HotelName":"Anh Tuan Hotel","Country":"Vietnam","City":"Vung Tau City","Address":"10 Tran Quy Cap","Lat":10.339211,"Lng":107.088965},{"TravelLokaId":3000010028210,"HotelName":"Duc Tuan Hotel","Country":"Vietnam","City":"Hoa Lu District","Address":"Van Lam Village, Ninh Hai","Lat":20.218291549,"Lng":105.90595473},{"TravelLokaId":3000010028211,"HotelName":"Ninh Binh Valley Homestay","Country":"Vietnam","City":"Hoa Lu District","Address":"Dong Cung, Khe Ha, Ninh Xuan, Hoa Lu","Lat":20.234912,"Lng":105.940246},{"TravelLokaId":3000010028228,"HotelName":"Long Anh Hotel","Country":"Vietnam","City":"Sa Pa District","Address":"242 Thach Son","Lat":22.337652017,"Lng":103.851623874},{"TravelLokaId":3000010028229,"HotelName":"Halong Dragon Cruise","Country":"Vietnam","City":"Ha Long City","Address":"Tuan Chau, Ha Long Bay","Lat":20.92033,"Lng":106.989709},{"TravelLokaId":3000010028231,"HotelName":"Hai Anh Hotel","Country":"Vietnam","City":"Vung Tau City","Address":"44B Pho Duc Chinh Street","Lat":10.336861,"Lng":107.090312},{"TravelLokaId":3000010028239,"HotelName":"Stop and Go Flower Villa Dalat","Country":"Vietnam","City":"Da Lat","Address":"49 Vo Truong Toan","Lat":11.959874,"Lng":108.448216},{"TravelLokaId":3000010028295,"HotelName":"Sapa 24h Hotel","Country":"Vietnam","City":"Sa Pa District","Address":"03, Lane 10, Ngu Chi Son Street","Lat":22.337645,"Lng":103.848568},{"TravelLokaId":3000010028320,"HotelName":"Daewoo Hotel Cua Lo","Country":"Vietnam","City":"Cua Lo Town","Address":"176 Nguyen Su Hoi, Thu Thuy Ward","Lat":18.8083766,"Lng":105.7217879},{"TravelLokaId":3000010028326,"HotelName":"Nhat Anh Hotel - District 11","Country":"Vietnam","City":"District 11","Address":"124 Lac Long Quan","Lat":10.758877389,"Lng":106.638942808},{"TravelLokaId":3000010028337,"HotelName":"Anh Tram Hotel","Country":"Vietnam","City":"District 10","Address":"37 Tran Thien Chanh","Lat":10.771186,"Lng":106.670856}]