[{"TravelLokaId":3000010033038,"HotelName":"Garden House For Family","Country":"Vietnam","City":"Hoi An","Address":"32 Le Hong Phong,","Lat":15.8931737,"Lng":108.3262961},{"TravelLokaId":3000010033044,"HotelName":"Sunrise Trung Son Hotel","Country":"Vietnam","City":"Binh Chanh District","Address":"63 Duong so 7, Binh Hung","Lat":10.7351078,"Lng":106.6901396},{"TravelLokaId":3000010033046,"HotelName":"Especen Hotel - 79 Phu Doan","Country":"Vietnam","City":"Hoan Kiem District","Address":"79 Phu Doan","Lat":21.0283445,"Lng":105.847774},{"TravelLokaId":3000010033051,"HotelName":"Tu Le Homestay","Country":"Vietnam","City":"Mai Chau District","Address":"National Road 15, Province Road 439, Village Hich, Mai Hich","Lat":20.613787034,"Lng":105.005833398},{"TravelLokaId":3000010033055,"HotelName":"Especen Hotel - 15B Ngo Huyen","Country":"Vietnam","City":"Hoan Kiem District","Address":"15B Ngo Huyen","Lat":21.0293542,"Lng":105.8481751},{"TravelLokaId":3000010033064,"HotelName":"Adamas Apartment - Le Van Sy","Country":"Vietnam","City":"Phu Nhuan District","Address":"176/2 Le Van Sy Street","Lat":10.7928979,"Lng":106.671313},{"TravelLokaId":3000010033065,"HotelName":"Phong Hao Homestay","Country":"Vietnam","City":"Mai Chau District","Address":"National Road 15, Province Road 439, Village Hich, Mai Hich","Lat":20.612357009,"Lng":105.005821496},{"TravelLokaId":3000010033067,"HotelName":"An Vinh Analog House - LE BONHEUR","Country":"Vietnam","City":"Phan Thiet City","Address":"Ham Tien Residential, Ham Tien Ward","Lat":10.95451,"Lng":108.21659},{"TravelLokaId":3000010033068,"HotelName":"Galaxy Hotel","Country":"Vietnam","City":"District 7","Address":"Hung Gia 2, Tan Phong, Dist. 7, Ho Chi Minh","Lat":10.732513911,"Lng":106.709983654},{"TravelLokaId":3000010033070,"HotelName":"Nguyen Hung Hotel","Country":"Vietnam","City":"Sa Pa District","Address":"52 Cau May","Lat":22.334795566,"Lng":103.841272377},{"TravelLokaId":3000010033071,"HotelName":"Hong Anh Hotel Phu Quoc","Country":"Vietnam","City":"Phu Quoc","Address":"19 Nguyen Trai St., Hamlet 2, Phu Quoc, Kien Giang","Lat":10.216983934,"Lng":103.960165685},{"TravelLokaId":3000010033076,"HotelName":"Villa Lam Phan","Country":"Vietnam","City":"Da Lat","Address":"11 Dang Thai Than Street, Ward 2","Lat":11.929928578,"Lng":108.448909467},{"TravelLokaId":3000010033077,"HotelName":"Phuong Nam Noi Bai Airport Hotel","Country":"Vietnam","City":"Soc Son District","Address":"Vo Van Kiet, Dien Xa, Soc Son","Lat":21.217903195,"Lng":105.784037036},{"TravelLokaId":3000010033082,"HotelName":"CCT Hotel Nha Trang","Country":"Vietnam","City":"Nha Trang","Address":"86A Tran Phu Street","Lat":12.23112923,"Lng":109.19789141},{"TravelLokaId":3000010033088,"HotelName":"An Homestay","Country":"Vietnam","City":"Da Lat","Address":"24C 3 Thang 4","Lat":11.9256743,"Lng":108.4495466},{"TravelLokaId":3000010033103,"HotelName":"Saigon Sky Hotel","Country":"Vietnam","City":"District 3","Address":"245 Hai Ba Trung","Lat":10.787318881,"Lng":106.692532003},{"TravelLokaId":3000010033131,"HotelName":"Sau My Homestay","Country":"Vietnam","City":"Hoi An","Address":"199 Ly Thuong Kiet, Cam Pho","Lat":15.8829577,"Lng":108.3293781},{"TravelLokaId":3000010033134,"HotelName":"Osaka Hotel","Country":"Vietnam","City":"Ha Long City","Address":"139 Le Chan (Behind Big C Market), Hon Gai Port","Lat":20.9396964,"Lng":107.1144093},{"TravelLokaId":3000010033137,"HotelName":"Ben Thanh Inn","Country":"Vietnam","City":"District 1","Address":"51 Huynh Thuc Khang, Ben Thanh Ward","Lat":10.772319,"Lng":106.702236},{"TravelLokaId":3000010033146,"HotelName":"Bao Vy Hotel","Country":"Vietnam","City":"Binh Thanh District","Address":"63 Ung Van Khiem","Lat":10.804879,"Lng":106.7206719},{"TravelLokaId":3000010033148,"HotelName":"Crystal Hotel Nha Trang","Country":"Vietnam","City":"Nha Trang","Address":"60-62 Phan Dinh Phung","Lat":12.2559516,"Lng":109.1937416},{"TravelLokaId":3000010033153,"HotelName":"Viet Tuan Hotel","Country":"Vietnam","City":"Sa Pa District","Address":"494 Dien Bien Phu street","Lat":22.33959687,"Lng":103.848009109},{"TravelLokaId":3000010033155,"HotelName":"Bao Bao Vy Hotel","Country":"Vietnam","City":"Binh Thanh District","Address":"67 Ung Van Khiem","Lat":10.804298,"Lng":106.721292},{"TravelLokaId":3000010033163,"HotelName":"Ngoc Ngoc Linh Hotel","Country":"Vietnam","City":"Binh Thanh District","Address":"193 D2 Street","Lat":10.8064993,"Lng":106.7160667},{"TravelLokaId":3000010033176,"HotelName":"South Gate Hotel","Country":"Vietnam","City":"Hoan Kiem District","Address":"13 Nguyen Thai Hoc","Lat":21.028436,"Lng":105.842744},{"TravelLokaId":3000010033177,"HotelName":"Thuan Moc Motel","Country":"Vietnam","City":"Vung Tau City","Address":"15A Hoang Hoa Tham Street","Lat":10.3412399,"Lng":107.0798447},{"TravelLokaId":3000010033188,"HotelName":"Loan Anh Motel","Country":"Vietnam","City":"Thanh Khe District","Address":"885 Nguyen Tat Thanh","Lat":16.072408,"Lng":108.192772},{"TravelLokaId":3000010033206,"HotelName":"Nam Thanh 1","Country":"Vietnam","City":"Cau Giay District","Address":"No 7, House E, X1 Town, 195 Trung Kinh, Yen Hoa,","Lat":21.018260774,"Lng":105.794061842},{"TravelLokaId":3000010033209,"HotelName":"The Peace Homestay","Country":"Vietnam","City":"District 1","Address":"20 Le Cong Kieu","Lat":10.770543,"Lng":106.700512},{"TravelLokaId":3000010033219,"HotelName":"Nha Minh Villa Homestay Dalat","Country":"Vietnam","City":"Da Lat","Address":"2/5 Suong Nguyet Anh","Lat":11.9496334,"Lng":108.4542507},{"TravelLokaId":3000010033220,"HotelName":"Nam Thanh 2","Country":"Vietnam","City":"Nam Tu Liem District","Address":"B26-BT5, KDT My Dinh 2","Lat":21.031644884,"Lng":105.769234204},{"TravelLokaId":3000010033225,"HotelName":"Nam Thanh 3","Country":"Vietnam","City":"Ha Dong District","Address":"A20-BT1 Van Quan Urban Area, Ha Dong","Lat":20.9796446,"Lng":105.7923394},{"TravelLokaId":3000010033228,"HotelName":"Phuong Loan Hotel","Country":"Vietnam","City":"Hue City","Address":"11 Nguyen Cong Tru, Phu Hoi","Lat":16.4720597,"Lng":107.595375},{"TravelLokaId":3000010033229,"HotelName":"Ho Bao Dai Villa","Country":"Vietnam","City":"Da Lat","Address":"32-33 Tran Thai Tong","Lat":11.942036224,"Lng":108.47100623},{"TravelLokaId":3000010033233,"HotelName":"Nam Thanh 4","Country":"Vietnam","City":"Ha Dong District","Address":"No 24, BT7 Urban Area Van Quan, Ha Dong","Lat":20.9796446,"Lng":105.7923394},{"TravelLokaId":3000010033234,"HotelName":"Hanoi Capital Apartment","Country":"Vietnam","City":"Ba Dinh District","Address":"34G Hoe Nhai","Lat":21.041061,"Lng":105.846219},{"TravelLokaId":3000010033238,"HotelName":"Song Long Villa","Country":"Vietnam","City":"Dong Da District","Address":"No 62 Alley 100 Nguyen Chi Thanh","Lat":21.0211563,"Lng":105.8085227},{"TravelLokaId":3000010033239,"HotelName":"OSC land - Apartment","Country":"Vietnam","City":"Vung Tau City","Address":"110 Vo Thi Sau Street, Thang Tam Ward","Lat":10.3343679,"Lng":107.0858692},{"TravelLokaId":3000010033246,"HotelName":"Salsa 3 Hotel Danang","Country":"Vietnam","City":"Son Tra District","Address":"6-8 Pham Thieu","Lat":16.0721712,"Lng":108.2424195},{"TravelLokaId":3000010033258,"HotelName":"Happy Homes Hotel","Country":"Vietnam","City":"District 1","Address":"28 Trinh Van Can Street","Lat":10.767536,"Lng":106.696443},{"TravelLokaId":3000010033262,"HotelName":"Huong Ly Hotel 2","Country":"Vietnam","City":"Ba Vi District","Address":"Quang Phuc Hamlet, Yen Bai, Ba Vi","Lat":21.0367437,"Lng":105.445817},{"TravelLokaId":3000010033271,"HotelName":"Thuan Moc Apartment","Country":"Vietnam","City":"Vung Tau City","Address":"15A Hoang Hoa Tham Street","Lat":10.3412399,"Lng":107.0798447},{"TravelLokaId":3000010033281,"HotelName":"Quang Xuong Homestay","Country":"Vietnam","City":"Hoi An","Address":"169 Tran Nhan Tong, Cam Chau,","Lat":15.8804991,"Lng":108.3438654},{"TravelLokaId":3000010033289,"HotelName":"Vu's Apartment","Country":"Vietnam","City":"Ngu Hanh Son District","Address":"22 An Thuong 3","Lat":16.0496588,"Lng":108.2466588},{"TravelLokaId":3000010033294,"HotelName":"Hoang Phu Guesthouse","Country":"Vietnam","City":"Phong Dien District","Address":"159-161 Phan Van Tri","Lat":9.998772024,"Lng":105.666098679},{"TravelLokaId":3000010033296,"HotelName":"Thanh Pho Hoa Villa","Country":"Vietnam","City":"Da Lat","Address":"28B Ba Thang Tu","Lat":11.9306977,"Lng":108.4463793},{"TravelLokaId":3000010033305,"HotelName":"Hai Anh Hotel","Country":"Vietnam","City":"Son Tra District","Address":"Lot 18-19/B2 Phuoc Truong 15, Phuong My Ward","Lat":16.0769026,"Lng":108.2419611},{"TravelLokaId":3000010033320,"HotelName":"Sigoong Hostel","Country":"Vietnam","City":"District 1","Address":"92 De Tham, Pham Ngu Lao Ward","Lat":10.7642225,"Lng":106.6953708},{"TravelLokaId":3000010033322,"HotelName":"Family Hostel","Country":"Vietnam","City":"District 1","Address":"25/40B Ton That Tung","Lat":10.769824,"Lng":106.687124},{"TravelLokaId":3000010033325,"HotelName":"Luna Fitness and Spa Hotel","Country":"Vietnam","City":"District 1","Address":"117 Bui Vien","Lat":10.7665055,"Lng":106.6920155},{"TravelLokaId":3000010033340,"HotelName":"Nam Thanh 5","Country":"Vietnam","City":"Ha Dong District","Address":"No 6, BT4 KƒêT Van Quan, Ha Dong","Lat":20.9796446,"Lng":105.7923394},{"TravelLokaId":3000010033344,"HotelName":"Nam Thanh Hotel 1","Country":"Vietnam","City":"Cau Giay District","Address":"Mac Thai Tong, Nam Trung Yen Ward","Lat":21.011138,"Lng":105.7912464},{"TravelLokaId":3000010033345,"HotelName":"Minh Phu Hotel","Country":"Vietnam","City":"Binh Tan District","Address":"430 Kinh Duong Vuong, An Lac Ward","Lat":10.7415556,"Lng":106.6187083},{"TravelLokaId":3000010033346,"HotelName":"Khoa Phu Guesthouse","Country":"Vietnam","City":"Ninh Kieu District","Address":"2A3, 3T2 LANE, 30/4 Street, Xuan Khanh Ward","Lat":10.02667244,"Lng":105.775685905},{"TravelLokaId":3000010033350,"HotelName":"Vietnam Apple Travel Homestay","Country":"Vietnam","City":"Hoan Kiem District","Address":"17 Hang Be","Lat":21.033288,"Lng":105.853848},{"TravelLokaId":3000010033351,"HotelName":"Nam Thanh Hotel 2","Country":"Vietnam","City":"Tay Ho District","Address":"19 Ve Ho, Xuan La","Lat":21.0633294,"Lng":105.8100704},{"TravelLokaId":3000010033354,"HotelName":"Linh Dan Apartment","Country":"Vietnam","City":"Phu Nhuan District","Address":"12/3 Cu Lao","Lat":10.7960368,"Lng":106.6895577},{"TravelLokaId":3000010033356,"HotelName":"Archer Hotel Danang","Country":"Vietnam","City":"Son Tra District","Address":"8 Phuoc Truong 8, My An Ward","Lat":16.0765343,"Lng":108.2443413},{"TravelLokaId":3000010033361,"HotelName":"Huynh Thon Guesthouse","Country":"Vietnam","City":"Phong Dien District","Address":"176 Phan Van Tri,","Lat":9.997641473,"Lng":105.667412962},{"TravelLokaId":3000010033382,"HotelName":"Magnolia Hotel Nha Trang","Country":"Vietnam","City":"Nha Trang","Address":"14 Phan Boi Chau Street","Lat":12.2554516,"Lng":109.1942299}]