[{"TravelLokaId":3000010032714,"HotelName":"Rich Hotel Can Tho","Country":"Vietnam","City":"Ninh Kieu District","Address":"56-58 Tran Dai Nghia","Lat":10.0440458,"Lng":105.7865684},{"TravelLokaId":3000010032724,"HotelName":"Equinox Apartment","Country":"Vietnam","City":"District 3","Address":"2/3A Cao Thang","Lat":10.7688411,"Lng":106.6840133},{"TravelLokaId":3000010032726,"HotelName":"Nu Cuoi Xinh Hostel","Country":"Vietnam","City":"Da Lat","Address":"71 Thu Khoa Huan Street","Lat":11.9413915,"Lng":108.4337129},{"TravelLokaId":3000010032728,"HotelName":"Ngoc Mai 1 Guesthouse","Country":"Vietnam","City":"Ninh Kieu District","Address":"50B2 Ly Hong Thanh,","Lat":10.0447194,"Lng":105.7846175},{"TravelLokaId":3000010032731,"HotelName":"Ton Motel","Country":"Vietnam","City":"Ngu Hanh Son District","Address":"25 An Thuongng 2","Lat":16.0497978,"Lng":108.2471518},{"TravelLokaId":3000010032740,"HotelName":"Villa Homestay 106","Country":"Vietnam","City":"Hai Chau District","Address":"106 Thang Long","Lat":16.029318,"Lng":108.2271672},{"TravelLokaId":3000010032742,"HotelName":"Ngoc Mai 2 Guesthouse","Country":"Vietnam","City":"Ninh Kieu District","Address":"9B2 Ly Hong Thanh,","Lat":10.0447194,"Lng":105.7846175},{"TravelLokaId":3000010032744,"HotelName":"Oanh Nguyen Hotel","Country":"Vietnam","City":"Xuyen Moc District, Vung Tau City","Address":"Binh Chau Commune","Lat":10.5572794,"Lng":107.5460924},{"TravelLokaId":3000010032754,"HotelName":"Duc Hieu Hotel","Country":"Vietnam","City":"Soc Son District","Address":"Dien Xa, Quang Tien, Soc Son ( Vo Van Kiet)","Lat":21.219762796,"Lng":105.783191704},{"TravelLokaId":3000010032762,"HotelName":"Violet Hotel Danang","Country":"Vietnam","City":"Son Tra District","Address":"37 Nguyen Xuan Khoat","Lat":16.0697542,"Lng":108.2370944},{"TravelLokaId":3000010032763,"HotelName":"Happy Hotel Can Tho","Country":"Vietnam","City":"Ninh Kieu District","Address":"77A Pham Ngoc Thach Street,","Lat":10.0431499,"Lng":105.7866091},{"TravelLokaId":3000010032766,"HotelName":"Duc Hieu 2 Hotel","Country":"Vietnam","City":"Soc Son District","Address":"Dien Xa, Quang Tien, Soc Son ( Vo Van Kiet, Noi Bai Airport)","Lat":21.2199835,"Lng":105.783168},{"TravelLokaId":3000010032767,"HotelName":"Bird House Villa","Country":"Vietnam","City":"Ngu Hanh Son District","Address":"87 Hoang Ke Viem","Lat":16.0492672,"Lng":108.2453737},{"TravelLokaId":3000010032768,"HotelName":"A.M Memory Hotel","Country":"Vietnam","City":"Da Lat","Address":"174 Bui Thi Xuan Street","Lat":11.9485685,"Lng":108.4393216},{"TravelLokaId":3000010032775,"HotelName":"Ha Anh Hotel Hanoi","Country":"Vietnam","City":"Soc Son District","Address":"Dien Xa, Quang Tien, Soc Son, Noi Bai Airport","Lat":21.2199835,"Lng":105.783168},{"TravelLokaId":3000010032778,"HotelName":"Tam Dao Star Hotel","Country":"Vietnam","City":"Tam Dao District","Address":"Zone 1, Tam Dao Town","Lat":21.45675664,"Lng":105.648933574},{"TravelLokaId":3000010032789,"HotelName":"Thanh Sang Hotel Nha Trang","Country":"Vietnam","City":"Nha Trang","Address":"17 Tue Tinh","Lat":12.2312151,"Lng":109.1957425},{"TravelLokaId":3000010032792,"HotelName":"Nhat Hung Guesthouse","Country":"Vietnam","City":"Da Lat","Address":"38 Tran Phu","Lat":11.9368845,"Lng":108.4396023},{"TravelLokaId":3000010032794,"HotelName":"16 Studio Thi Nghe","Country":"Vietnam","City":"Binh Thanh District","Address":"51/20 Phan Van Han","Lat":10.792306537,"Lng":106.70861721},{"TravelLokaId":3000010032797,"HotelName":"Hung Dong Hotel","Country":"Vietnam","City":"Quy Nhon City","Address":"11 Tay Son Street","Lat":13.7649797,"Lng":109.2002714},{"TravelLokaId":3000010032801,"HotelName":"Loyalty Hostel","Country":"Vietnam","City":"Hoan Kiem District","Address":"24 Tho Xuong","Lat":21.0286217,"Lng":105.8480914},{"TravelLokaId":3000010032802,"HotelName":"Nhat Hung Homestay","Country":"Vietnam","City":"Da Lat","Address":"86 Bui Thi Xuan","Lat":11.9469968,"Lng":108.4405852},{"TravelLokaId":3000010032805,"HotelName":"Nha Nghi Truong Phat","Country":"Vietnam","City":"Vung Tau City","Address":"42 Nguyen Hien","Lat":10.332580091,"Lng":107.087206373},{"TravelLokaId":3000010032808,"HotelName":"Nhat Hung Hotel","Country":"Vietnam","City":"Da Lat","Address":"88 Bui Thi Xuan","Lat":11.9469968,"Lng":108.4405852},{"TravelLokaId":3000010032812,"HotelName":"The Moon Hotel","Country":"Vietnam","City":"Nha Trang","Address":"2 Ton Dan","Lat":12.2380731,"Lng":109.1962015},{"TravelLokaId":3000010032824,"HotelName":"Van Phat Hotel","Country":"Vietnam","City":"District 1","Address":"61 Pham Viet Chanh","Lat":10.765788,"Lng":106.682669},{"TravelLokaId":3000010032830,"HotelName":"Dong Hung Hotel","Country":"Vietnam","City":"Nha Trang","Address":"90 Nguyen Thi Minh Khai","Lat":12.2373797,"Lng":109.189269},{"TravelLokaId":3000010032831,"HotelName":"Modern City House","Country":"Vietnam","City":"Ninh Kieu District","Address":"28, Road 16, Nguyen Van Cu","Lat":10.039633481,"Lng":105.754037936},{"TravelLokaId":3000010032843,"HotelName":"Bird Cage","Country":"Vietnam","City":"Ninh Kieu District","Address":"25, Road 16, Nguyen Van Cu","Lat":10.039599146,"Lng":105.754118402},{"TravelLokaId":3000010032845,"HotelName":"Syrena Cruise 2","Country":"Vietnam","City":"Ha Long City","Address":"No 8, Halong Road, Bai Chay Ward","Lat":20.916508497,"Lng":106.989333853},{"TravelLokaId":3000010032865,"HotelName":"Little Home Hotel","Country":"Vietnam","City":"Thanh Khe District","Address":"74 Ly Thai To","Lat":16.066351,"Lng":108.20854},{"TravelLokaId":3000010032879,"HotelName":"Dong Tien Hotel","Country":"Vietnam","City":"Nghia Dan District","Address":"Trung Binh Lam Street,  Nghia Hoi Hamlet","Lat":19.33525424,"Lng":105.497767533},{"TravelLokaId":3000010032882,"HotelName":"Gia Long Motel","Country":"Vietnam","City":"Vung Tau City","Address":"Road 44, Hai Tan","Lat":10.385126235,"Lng":107.239019601},{"TravelLokaId":3000010032883,"HotelName":"Condotel Starcity Nha Trang","Country":"Vietnam","City":"Nha Trang","Address":"72 Tran Phu","Lat":12.2340743,"Lng":109.1979585},{"TravelLokaId":3000010032891,"HotelName":"Do Gia Hotel","Country":"Vietnam","City":"Da Lat","Address":"21/2A Tran Phu","Lat":11.9355,"Lng":108.4355709},{"TravelLokaId":3000010032892,"HotelName":"Van Kim Hung Hotel Can Tho","Country":"Vietnam","City":"Ninh Kieu District","Address":"6-7-8-9, Block AC02, Tu Xuong , Hong Phat  Residential Zone","Lat":10.026033387,"Lng":105.748120006},{"TravelLokaId":3000010032899,"HotelName":"An Bang Sunrise Beach Bungalow","Country":"Vietnam","City":"Hoi An","Address":"Block 7 An Bang Beach, Cam An,","Lat":15.914146906,"Lng":108.336011823},{"TravelLokaId":3000010032908,"HotelName":"Minh Nguyen Hotel","Country":"Vietnam","City":"District 1","Address":"48 Nguyen Thai Binh","Lat":10.769668,"Lng":106.699979},{"TravelLokaId":3000010032913,"HotelName":"Vung Tau Seaview Apartment- Unit 1109 Thuy Tien Building","Country":"Vietnam","City":"Vung Tau City","Address":"84 Tran Phu Street","Lat":10.364286,"Lng":107.0622218},{"TravelLokaId":3000010032927,"HotelName":"Hoang Tung Hotel","Country":"Vietnam","City":"Nha Trang","Address":"27 Tue Tinh","Lat":12.2312151,"Lng":109.1957425},{"TravelLokaId":3000010032932,"HotelName":"Ha Phuong Trang Hotel","Country":"Vietnam","City":"District 1","Address":"106 Bis Nguyen Van Cu","Lat":10.758151,"Lng":106.684949},{"TravelLokaId":3000010032937,"HotelName":"Ninh Chu Bay Beach Club & Bar","Country":"Vietnam","City":"Ninh Hai District","Address":"DT 702, Tri Hai Ward","Lat":11.585908958,"Lng":109.056242108},{"TravelLokaId":3000010032940,"HotelName":"Nguyen Ho Homestay","Country":"Vietnam","City":"Da Lat","Address":"16B Le Van Tam","Lat":11.9381656,"Lng":108.4556228},{"TravelLokaId":3000010032952,"HotelName":"Thap Nhat Phong Hotel 2","Country":"Vietnam","City":"District 7","Address":"51-53 Phan Khiem Ich, Tan Phong, Dist. 7, Ho Chi Minh","Lat":10.7327401,"Lng":106.7082799},{"TravelLokaId":3000010032957,"HotelName":"Azure Hotel","Country":"Vietnam","City":"Nha Trang","Address":"19 Bac Son Street","Lat":12.2784019,"Lng":109.1987031},{"TravelLokaId":3000010032967,"HotelName":"Dobby House","Country":"Vietnam","City":"Da Lat","Address":"28A Pasteur","Lat":11.9363162,"Lng":108.4289503},{"TravelLokaId":3000010032979,"HotelName":"Xuan Huy Hotel","Country":"Vietnam","City":"Da Lat","Address":"Block H2, Nguyen Thi Nghia","Lat":11.9483654,"Lng":108.4401788},{"TravelLokaId":3000010032989,"HotelName":"Vu Quy Hotel","Country":"Vietnam","City":"Nha Trang","Address":"38A Nguyen Thi Dinh Street, Phuoc Long Ward","Lat":12.2203162,"Lng":109.1933799},{"TravelLokaId":3000010033000,"HotelName":"A Loc 1 Hotel","Country":"Vietnam","City":"District 2","Address":"8 Tran Nao","Lat":10.786001,"Lng":106.729837},{"TravelLokaId":3000010033002,"HotelName":"Bao Long Hotel","Country":"Vietnam","City":"Soc Son District","Address":"Highway 2, Dien Xa area, Noi Bai Aiport,","Lat":21.215286622,"Lng":105.7802962},{"TravelLokaId":3000010033003,"HotelName":"Wooden House Holiday Rental","Country":"Vietnam","City":"Hoi An","Address":"67 Le Hong Phong, Tan An","Lat":15.892239,"Lng":108.325687},{"TravelLokaId":3000010033008,"HotelName":"Happy Sapa Hotel","Country":"Vietnam","City":"Sa Pa District","Address":"9 Xuan Vien Street","Lat":22.336058439,"Lng":103.841709271},{"TravelLokaId":3000010033014,"HotelName":"A Loc 2 Hotel","Country":"Vietnam","City":"District 2","Address":"63/10 , 19 Road Tran Nao","Lat":10.795781,"Lng":106.730354},{"TravelLokaId":3000010033015,"HotelName":"Wooden House 2 Holiday Rental","Country":"Vietnam","City":"Hoi An","Address":"Lot 145 Ton Duc Thang, Tan An","Lat":15.8908902,"Lng":108.323462},{"TravelLokaId":3000010033017,"HotelName":"Wooden House 3 Vacation Rental","Country":"Vietnam","City":"Hoi An","Address":"9 Le Hong Phong, Tan An","Lat":15.893862,"Lng":108.327401},{"TravelLokaId":3000010033021,"HotelName":"Binh An Backpacker Guesthouse","Country":"Vietnam","City":"Xuyen Moc District, Vung Tau City","Address":"Group 3, Highway 55, Bung Rieng","Lat":10.567991194,"Lng":107.449962853},{"TravelLokaId":3000010033025,"HotelName":"Ha Quynh Hotel","Country":"Vietnam","City":"Nha Trang","Address":"55 Hoang Dieu Street","Lat":12.219972643,"Lng":109.199057661},{"TravelLokaId":3000010033029,"HotelName":"Wooden House 4 Vacation Rental","Country":"Vietnam","City":"Hoi An","Address":"9B Le Hong Phong","Lat":15.8915349,"Lng":108.3208809},{"TravelLokaId":3000010033032,"HotelName":"Binh Anh Hotel","Country":"Vietnam","City":"Hoa Binh City","Address":"321 Cu Chinh Lan","Lat":20.823035928,"Lng":105.346474126},{"TravelLokaId":3000010033033,"HotelName":"Phuong Thao Hotel","Country":"Vietnam","City":"District 11","Address":"137A Doi Cung","Lat":10.7644179,"Lng":106.647215}]