[{"TravelLokaId":9000000963097,"HotelName":"Aspaces Serviced Apartment","Country":"Vietnam","City":"Nam Tu Liem District","Address":"Vinhomes West Point, Pham Hung Road","Lat":21.0116898,"Lng":105.7864005},{"TravelLokaId":9000000963113,"HotelName":"Hoi An Merrily De Art Hotel","Country":"Vietnam","City":"Hoi An","Address":"154 Ly Thai To","Lat":15.8871578,"Lng":108.3327483},{"TravelLokaId":9000000963115,"HotelName":"Hoi An Heart Lodge","Country":"Vietnam","City":"Hoi An","Address":"621/7 Hai Ba Trung","Lat":15.8807455,"Lng":108.3266822},{"TravelLokaId":9000000963124,"HotelName":"Lumos Home","Country":"Vietnam","City":"Dong Da District","Address":"39 Phan Phu Tien, Cat Linh, Dong Da","Lat":21.0286715,"Lng":105.8338803},{"TravelLokaId":9000000963168,"HotelName":"Coca Hotel & Apartment","Country":"Vietnam","City":"Vung Tau City","Address":"65 Phan Chu Trinh","Lat":10.334672585,"Lng":107.081863029},{"TravelLokaId":9000000963319,"HotelName":"Cityhouse - City Oasis","Country":"Vietnam","City":"District 1","Address":"42/4 Ho Hao Hon","Lat":10.7617665,"Lng":106.6924185},{"TravelLokaId":9000000963321,"HotelName":"Diem My Hotel Binh Dinh","Country":"Vietnam","City":"An Nhơn Town","Address":"Quoc Lo 19B, Go Dang","Lat":13.948093234,"Lng":109.068548083},{"TravelLokaId":9000000963395,"HotelName":"Cu Lao Cham Cong Man Homestay","Country":"Vietnam","City":"Hoi An","Address":"To 2, Thon Bai Huong, Xa Tan Hiep","Lat":15.9333296,"Lng":108.5277651},{"TravelLokaId":9000000963404,"HotelName":"Sunflower Hotel & Spa","Country":"Vietnam","City":"District 10","Address":"821-823-825 Le Hong Phong Street","Lat":10.7731916,"Lng":106.6716719},{"TravelLokaId":9000000963698,"HotelName":"Thanh Anh 2 Hotel","Country":"Vietnam","City":"Da Lat","Address":"5C Nam Ky Khoi Nghia","Lat":11.9411236,"Lng":108.4360467},{"TravelLokaId":9000000963703,"HotelName":"Sang Villa Dalat","Country":"Vietnam","City":"Da Lat","Address":"185 Nguyen Trung Truc","Lat":11.9305781,"Lng":108.4349272},{"TravelLokaId":9000000963713,"HotelName":"Thanh Anh 1 Hotel","Country":"Vietnam","City":"Da Lat","Address":"21 Le Quy Don","Lat":11.9411648,"Lng":108.4308713},{"TravelLokaId":9000000963797,"HotelName":"Sea Tower Apartment Quy Nhon - Hung Dong Tourist","Country":"Vietnam","City":"Quy Nhon City","Address":"FLC Sea Tower Quy Nhon, Nguyen Trung Tin, Nguyen Van Cu","Lat":13.7551373,"Lng":109.2148245},{"TravelLokaId":9000000963798,"HotelName":"Bach Thao Hotel Da Lat","Country":"Vietnam","City":"Da Lat","Address":"221/11 Hai Ba Trung","Lat":11.9486997,"Lng":108.4330568},{"TravelLokaId":9000000963811,"HotelName":"May May Apartments Da Lat","Country":"Vietnam","City":"Da Lat","Address":"355-356 Ba Trieu","Lat":11.9373326,"Lng":108.4341873},{"TravelLokaId":9000000963825,"HotelName":"VM House - Your homestay in Hue","Country":"Vietnam","City":"Hue City","Address":"2/5 Doi Cung","Lat":16.469068573,"Lng":107.593650051},{"TravelLokaId":9000000963859,"HotelName":"Mekong 69 Hostel","Country":"Vietnam","City":"Ninh Kieu District","Address":"6 Ngo Huu Hanh","Lat":10.037312,"Lng":105.7865019},{"TravelLokaId":9000000964013,"HotelName":"Homestay Tit's Con Dao","Country":"Vietnam","City":"Con Dao (Hon Son) District","Address":"Residential area No. 8, Con Dao district, Ba Ria Vung Tau province","Lat":8.686327466,"Lng":106.609938425},{"TravelLokaId":9000000964014,"HotelName":"The View Homestay Hoi An","Country":"Vietnam","City":"Hoi An","Address":"28/6 Tran Hung Dao","Lat":15.8799456,"Lng":108.3282833},{"TravelLokaId":9000000964116,"HotelName":"Van Long Apartment - FLC Seaview Quy Nhon","Country":"Vietnam","City":"Quy Nhon City","Address":"03 Vo Thi Yen","Lat":13.755752,"Lng":109.2148036},{"TravelLokaId":9000000964349,"HotelName":"Ngaunhien's house","Country":"Vietnam","City":"Phan Rang - Thap Cham City","Address":"248 Yên Ninh","Lat":11.586870643,"Lng":109.030479491},{"TravelLokaId":9000000964461,"HotelName":"SaiGon Garden Hotel","Country":"Vietnam","City":"District 10","Address":"781/D1 - 16D/20 Le Hong Phong","Lat":10.7723204,"Lng":106.6719097},{"TravelLokaId":9000000964466,"HotelName":"MiMin House","Country":"Vietnam","City":"Binh Thuy District","Address":"18-20 6th Street, Can Tho University, Nguyen Van Linh","Lat":10.068295883,"Lng":105.728237629},{"TravelLokaId":9000000964469,"HotelName":"Le Dalat Garden Hotel","Country":"Vietnam","City":"Da Lat","Address":"28 Khoi Nghia Bac Son","Lat":11.9374766,"Lng":108.4527446},{"TravelLokaId":9000000964481,"HotelName":"Truc Nguyen Homestay - Vinh Hy","Country":"Vietnam","City":"Ninh Hai District","Address":"Vinh Hy, Vinh Hai","Lat":11.723358053,"Lng":109.195448756},{"TravelLokaId":9000000964482,"HotelName":"Chu Troc Homestay - Phan Rang Home and Camp","Country":"Vietnam","City":"Phan Rang - Thap Cham City","Address":"19, Le Loi","Lat":11.5625177,"Lng":108.9910166},{"TravelLokaId":9000000964630,"HotelName":"Pu Nhi Farm","Country":"Vietnam","City":"Bac Yen District","Address":"Bản Pu Nhi, xã Phiêng Ban, huyện Bắc Yên, tỉnh Sơn La","Lat":21.2321537,"Lng":104.4636886},{"TravelLokaId":9000000964719,"HotelName":"Chill House 5 Dalat","Country":"Vietnam","City":"Da Lat","Address":"17 Bis Dang Thai Than","Lat":11.9298316,"Lng":108.4487271},{"TravelLokaId":9000000964728,"HotelName":"Chill House 2 Dalat","Country":"Vietnam","City":"Da Lat","Address":"140 To Hien Thanh","Lat":11.9282168,"Lng":108.4448612},{"TravelLokaId":9000000964731,"HotelName":"Chill House 3 Dalat","Country":"Vietnam","City":"Da Lat","Address":"2/5 Quang Trung","Lat":11.9455907,"Lng":108.4574539},{"TravelLokaId":9000000964892,"HotelName":"Minh Truong Hotel Danang","Country":"Vietnam","City":"Thanh Khe District","Address":"743 Nguyen Tat Thanh","Lat":16.0722635,"Lng":108.1975064},{"TravelLokaId":9000000964901,"HotelName":"Pho Hai Riverside Inn","Country":"Vietnam","City":"Phan Thiet City","Address":"91B Nguyễn Thông","Lat":10.940758924,"Lng":108.139966455},{"TravelLokaId":9000000964923,"HotelName":"12A03 Mermaid Seaview Apartment Vung Tau","Country":"Vietnam","City":"Vung Tau City","Address":"3 Lê Hồng Phong, phường Thắng Tam","Lat":10.347711,"Lng":107.0947101},{"TravelLokaId":9000000964994,"HotelName":"Cat's Home","Country":"Vietnam","City":"Hoi An","Address":"15 Le Quy Don","Lat":15.8819013,"Lng":108.3217034},{"TravelLokaId":9000000965102,"HotelName":"170 Station Hotel & Apartment","Country":"Vietnam","City":"Hai Chau District","Address":"170 Phan Chau Trinh","Lat":16.0621875,"Lng":108.2194723},{"TravelLokaId":9000000965224,"HotelName":"Cozi 8 Hotel & Apartment","Country":"Vietnam","City":"District 7","Address":"R3-84, Hưng Phước 2, Phú Mỹ Hưng, Phường Tân Phong, Quận 7, Hồ Chí Minh","Lat":10.7313885,"Lng":106.707465},{"TravelLokaId":9000000965418,"HotelName":"TMS Ali Apartment Quy Nhon","Country":"Vietnam","City":"Quy Nhon City","Address":"28 Nguyễn Huệ, Quy Nhơn, Bình Định","Lat":13.7700633,"Lng":109.2328921},{"TravelLokaId":9000000965436,"HotelName":"Phuc Loc An Hotel","Country":"Vietnam","City":"Con Dao (Hon Son) District","Address":"27 Lê Duẩn, huyện Côn Đảo","Lat":8.6872015,"Lng":106.6068506},{"TravelLokaId":9000000965653,"HotelName":"Hotel986","Country":"Vietnam","City":"Tay Ninh City","Address":"Mai Anh urban area","Lat":11.322133677,"Lng":106.109173},{"TravelLokaId":9000000965654,"HotelName":"Bang Bang Hostel","Country":"Vietnam","City":"Da Lat","Address":"Thua 1464 TBD 21 Nguyen Cong Tru","Lat":11.9529754,"Lng":108.4389926},{"TravelLokaId":9000000965737,"HotelName":"Tuan Ninh Hotel 2","Country":"Vietnam","City":"Con Dao (Hon Son) District","Address":"Zone 7, Ho Thanh Tong","Lat":8.6873356,"Lng":106.6085955},{"TravelLokaId":9000000965769,"HotelName":"Suoi May Garden Resort & Spa","Country":"Vietnam","City":"Phu Quoc","Address":"Thửa đất số 568, tờ bản đồ số 17, tổ 5,","Lat":10.17863478,"Lng":103.977584836},{"TravelLokaId":9000000965999,"HotelName":"Tan Phuong Nam Hotel & Apartment","Country":"Vietnam","City":"Hai Chau District","Address":"494A duong 2/9","Lat":16.0351814,"Lng":108.2238057},{"TravelLokaId":9000000966009,"HotelName":"Tasmania Hotel Danang","Country":"Vietnam","City":"Son Tra District","Address":"26 Ha Chuong","Lat":16.0652891,"Lng":108.2438065},{"TravelLokaId":9000000966043,"HotelName":"AiDuy's Hotel","Country":"Vietnam","City":"District 3","Address":"117 Ly Chinh Thang","Lat":10.7873516,"Lng":106.6851766},{"TravelLokaId":9000000966099,"HotelName":"Horizon Village Dalat","Country":"Vietnam","City":"Da Lat","Address":"Thua 628 TBD 21  Hem 3/4","Lat":11.9306984,"Lng":108.4445872},{"TravelLokaId":9000000966183,"HotelName":"Hon Ngu Hotel Cua Lo","Country":"Vietnam","City":"Cua Lo Town","Address":"228 Binh Minh, Phuong Nghi Thu","Lat":18.8055456,"Lng":105.7242485},{"TravelLokaId":9000000966223,"HotelName":"Sun Hill Hotel","Country":"Vietnam","City":"Vung Tau City","Address":"H60 Phan Chu Trinh street, 2 Ward, Vung Tau City","Lat":10.3359076,"Lng":107.0815737},{"TravelLokaId":9000000966264,"HotelName":"Loka Hotel Nha Trang","Country":"Vietnam","City":"Nha Trang","Address":"316/11 Da Tuong","Lat":12.2193209,"Lng":109.2034093},{"TravelLokaId":9000000966275,"HotelName":"Khanh Ngoc Hotel Dalat","Country":"Vietnam","City":"Da Lat","Address":"215 Nguyen Cong Tru, Phuong 2","Lat":11.9562332,"Lng":108.434813},{"TravelLokaId":9000000966278,"HotelName":"Chin Luc Hotel Phu Tho","Country":"Vietnam","City":"Thanh Thuy District","Address":"17 Zone, Dong Trung Commune","Lat":21.1141818,"Lng":105.2807163},{"TravelLokaId":9000000966279,"HotelName":"La Cle Eden Villa","Country":"Vietnam","City":"Da Lat","Address":"2 Khoi Nghia Bac Son","Lat":11.934373212,"Lng":108.44858662},{"TravelLokaId":9000000966291,"HotelName":"NYNA House Old Quarter Hanoi","Country":"Vietnam","City":"Hoan Kiem District","Address":"No. 25  Ngo Trung Yen, Hang Bac Ward","Lat":21.033427518,"Lng":105.852039623},{"TravelLokaId":9000000966292,"HotelName":"NYNA House City View Hanoi","Country":"Vietnam","City":"Hoan Kiem District","Address":"No. 20 Le Văn Linh street, Hang Ma Ward, Hoan Kiem district, Hanoi","Lat":21.0375968,"Lng":105.8457544},{"TravelLokaId":9000000966294,"HotelName":"SStay - Saigon Royal Apartment","Country":"Vietnam","City":"District 4","Address":"Saigon Royal, 34-35 Ben Van Don","Lat":10.7670895,"Lng":106.7036913},{"TravelLokaId":9000000966298,"HotelName":"Ambassador Cruise Halong","Country":"Vietnam","City":"Ha Long City","Address":"Halong International Cruise Port, Ha Long, Bai Chay","Lat":20.9530907,"Lng":107.0560575},{"TravelLokaId":9000000966313,"HotelName":"Nguyen Gia Hotel","Country":"Vietnam","City":"Son Tra District","Address":"TT113 Hoang Sa","Lat":16.0951018,"Lng":108.2519128},{"TravelLokaId":9000000966320,"HotelName":"Hoa Trang An Hotel","Country":"Vietnam","City":"Tan Binh District","Address":"17 Street C18","Lat":10.7998409,"Lng":106.6509752},{"TravelLokaId":9000000966324,"HotelName":"Golden Boutique Hotel Mang Den","Country":"Vietnam","City":"Kon Plong District","Address":"Đường Nguyễn Du","Lat":14.5791864,"Lng":108.2784042},{"TravelLokaId":9000000966339,"HotelName":"Dawn Villa Hoi An","Country":"Vietnam","City":"Hoi An","Address":"20 LÊ QUÝ ĐÔN","Lat":15.8816048,"Lng":108.3217393}]