[{"TravelLokaId":3000010037265,"HotelName":"Truong Nguyen Guesthouse","Country":"Vietnam","City":"Vung Tau City","Address":"24 Pho Duc Chinh","Lat":10.3369523,"Lng":107.0901518},{"TravelLokaId":3000010037273,"HotelName":"Minh Phu Hotel","Country":"Vietnam","City":"Vung Tau City","Address":"L32 Bau Sen 2, A Chau Area","Lat":10.33667207,"Lng":107.081976011},{"TravelLokaId":3000010037274,"HotelName":"Villa Tuan Vu Dalat","Country":"Vietnam","City":"Da Lat","Address":"14E Trinh Hoai Duc","Lat":11.9473403,"Lng":108.4831387},{"TravelLokaId":3000010037275,"HotelName":"Le Dai Phat Hotel","Country":"Vietnam","City":"District 6","Address":"496-498 An Duong Vuong","Lat":10.7415383,"Lng":106.6235813},{"TravelLokaId":3000010037276,"HotelName":"Nha Trang Seaview Penthouse Apartment","Country":"Vietnam","City":"Nha Trang","Address":"60 Tran Phu Street","Lat":12.236637925,"Lng":109.196903311},{"TravelLokaId":3000010037278,"HotelName":"Hanpro - Luxury Serviced Apartment in Royal City","Country":"Vietnam","City":"Thanh Xuan District","Address":"Royal City Apartment, 72 Nguyen Trai","Lat":21.0032288,"Lng":105.8151978},{"TravelLokaId":3000010037286,"HotelName":"Hoang Tung Hostel","Country":"Vietnam","City":"Ngu Hanh Son District","Address":"24 An Thuong 1, My An Ward","Lat":16.0493792,"Lng":108.2483247},{"TravelLokaId":3000010037289,"HotelName":"Khai Hoan Hotel Saigon","Country":"Vietnam","City":"District 10","Address":"No 206, 3-2 Street","Lat":10.774305965,"Lng":106.678184182},{"TravelLokaId":3000010037290,"HotelName":"Van Thanh Motel","Country":"Vietnam","City":"Vung Tau City","Address":"67/1 Hoang Hoa Tham, Ward 2","Lat":10.3403656,"Lng":107.0803598},{"TravelLokaId":3000010037293,"HotelName":"Hong Thuy Motel Bao Loc","Country":"Vietnam","City":"Bao Loc City","Address":"133 Ly Thai To Street","Lat":11.5839543,"Lng":107.7979068},{"TravelLokaId":3000010037296,"HotelName":"07 Galaxy Hotel & Apartment Nha Trang","Country":"Vietnam","City":"Nha Trang","Address":"3/27 Tran Quang Khai","Lat":12.2329835,"Lng":109.1951507},{"TravelLokaId":3000010037304,"HotelName":"The Village Homestay","Country":"Vietnam","City":"Hoi An","Address":"98 Ngo Quyen, Minh An","Lat":15.8745931,"Lng":108.3256416},{"TravelLokaId":3000010037313,"HotelName":"Trong Nhan Hotel","Country":"Vietnam","City":"Vung Tau City","Address":"L23, A Chau Area, Hoang Hoa Tham","Lat":10.335408533,"Lng":107.086683724},{"TravelLokaId":3000010037314,"HotelName":"Minh Chau Hotel","Country":"Vietnam","City":"My Tho City","Address":"119 Nam Ky Khoi Nghia, Ward 4","Lat":10.3572121,"Lng":106.361696},{"TravelLokaId":3000010037316,"HotelName":"Hoang Yen Guesthouse Bao Loc","Country":"Vietnam","City":"Bao Loc City","Address":"473B Tran Phu Street, Loc Son","Lat":11.5358658,"Lng":107.8169291},{"TravelLokaId":3000010037317,"HotelName":"Front Beach Hotel","Country":"Vietnam","City":"Vung Tau City","Address":"136 Ha Long Street","Lat":10.3368796,"Lng":107.071498},{"TravelLokaId":3000010037318,"HotelName":"Authentic of real life in Saigon","Country":"Vietnam","City":"District 8","Address":"216/25 Duong Ba Trac St","Lat":10.746117,"Lng":106.688221},{"TravelLokaId":3000010037319,"HotelName":"Phuc Thinh Hotel","Country":"Vietnam","City":"My Tho City","Address":"199B Nguyen Thi Thap","Lat":10.3633737,"Lng":106.3405678},{"TravelLokaId":3000010037321,"HotelName":"Diem Quynh Hotel","Country":"Vietnam","City":"Da Lat","Address":"5C Nam Ky Khoi Nghia Street","Lat":11.941877,"Lng":108.435863},{"TravelLokaId":3000010037324,"HotelName":"Authentic French Colonia Villa in Saigon","Country":"Vietnam","City":"District 3","Address":"61A Tran Quoc Thao St","Lat":10.785621,"Lng":106.683141},{"TravelLokaId":3000010037325,"HotelName":"Sao Mai F5 Hotel","Country":"Vietnam","City":"My Tho City","Address":"11A2 Ly Thuong Kiet","Lat":10.355071937,"Lng":106.35889726},{"TravelLokaId":3000010037329,"HotelName":"Tre Hotel","Country":"Vietnam","City":"My Tho City","Address":"241 Le Van Pham","Lat":10.3584736,"Lng":106.3460689},{"TravelLokaId":3000010037330,"HotelName":"Nghe House","Country":"Vietnam","City":"Hoi An","Address":"Nguyen Phan Vinh Street","Lat":15.9089892,"Lng":108.3468991},{"TravelLokaId":3000010037331,"HotelName":"Gerbera Homes Long Phung","Country":"Vietnam","City":"Vung Tau City","Address":"6/6 Tran Phu","Lat":10.3554835,"Lng":107.061393},{"TravelLokaId":3000010037332,"HotelName":"Authentic Life In Saigon Central","Country":"Vietnam","City":"District 1","Address":"Floor 5, 77-79, Ly Tu Trong","Lat":10.774547682,"Lng":106.69808954},{"TravelLokaId":3000010037339,"HotelName":"Bai Say Hotel","Country":"Vietnam","City":"District 6","Address":"254 Bai Say","Lat":10.7473092,"Lng":106.6455413},{"TravelLokaId":3000010037351,"HotelName":"Nguyen Phan Hotel","Country":"Vietnam","City":"Phu Quoc","Address":"76 Nguyen Trung Truc, Duong Dong, Phu Quoc Kien Giang","Lat":10.2256583,"Lng":103.9766124},{"TravelLokaId":3000010037360,"HotelName":"Ba Tu Guesthouse","Country":"Vietnam","City":"Nha Trang","Address":"34G1 Nguyen Thien Thuat","Lat":12.2363914,"Lng":109.1939842},{"TravelLokaId":3000010037361,"HotelName":"Hung Phong Hotel - Near Dalat Night Market","Country":"Vietnam","City":"Da Lat","Address":"46 Ha Huy Tap","Lat":11.9328727,"Lng":108.4410538},{"TravelLokaId":3000010037366,"HotelName":"Anh Duong Hotel Bao Loc","Country":"Vietnam","City":"Bao Loc City","Address":"286/23 Tran Phu Street","Lat":11.5319901,"Lng":107.7777754},{"TravelLokaId":3000010037367,"HotelName":"Hotel Anh Vu Phu Quoc","Country":"Vietnam","City":"Phu Quoc","Address":"77 Nguyen Trung Truc, Duong Dong, Phu Quoc","Lat":10.2233002,"Lng":103.9652149},{"TravelLokaId":3000010037369,"HotelName":"Annia's House","Country":"Vietnam","City":"Da Lat","Address":"48 Thanh Tam","Lat":11.935967,"Lng":108.4202752},{"TravelLokaId":3000010037370,"HotelName":"Viva Hotel Binh Duong","Country":"Vietnam","City":"Thu Dau Mot City","Address":"401/11 Le Hong Phong, Phu Hoa Ward","Lat":10.9639176,"Lng":106.6796277},{"TravelLokaId":3000010037372,"HotelName":"Dong Quan Villa","Country":"Vietnam","City":"Da Lat","Address":"12A/12 Trieu Viet Vuong","Lat":11.9288606,"Lng":108.4322008},{"TravelLokaId":3000010037376,"HotelName":"Dieu Chi Hotel","Country":"Vietnam","City":"Bao Loc City","Address":"243/9 Ha Giang Street","Lat":11.541404688,"Lng":107.819815683},{"TravelLokaId":3000010037377,"HotelName":"Villa 52 To Hien Thanh","Country":"Vietnam","City":"Da Lat","Address":"52 To Hien Thanh","Lat":11.9276917,"Lng":108.4442536},{"TravelLokaId":3000010037386,"HotelName":"Hoang Cung Hotel","Country":"Vietnam","City":"Thu Dau Mot City","Address":"45A Tran Binh Trong","Lat":10.9663874,"Lng":106.6748094},{"TravelLokaId":3000010037388,"HotelName":"Truc Quynh Hotel","Country":"Vietnam","City":"My Tho City","Address":"196 Hung Vuong","Lat":10.3666774,"Lng":106.3648318},{"TravelLokaId":3000010037392,"HotelName":"Truc Quynh 2 Hotel","Country":"Vietnam","City":"My Tho City","Address":"199 Hung Vuong","Lat":10.3666774,"Lng":106.3648318},{"TravelLokaId":3000010037404,"HotelName":"Gia Van Hotel","Country":"Vietnam","City":"Vung Tau City","Address":"02 Pho Duc Chinh","Lat":10.337015,"Lng":107.0901169},{"TravelLokaId":3000010037405,"HotelName":"Bao Khanh Motel Bao Loc","Country":"Vietnam","City":"Bao Loc City","Address":"194 Nguyen Thai Hoc\tStreet","Lat":11.5589474,"Lng":107.8032692},{"TravelLokaId":3000010037407,"HotelName":"Hoa An Hotel Nha Trang","Country":"Vietnam","City":"Nha Trang","Address":"75B Nguyen Thi Minh Khai","Lat":12.2377403,"Lng":109.1907591},{"TravelLokaId":3000010037408,"HotelName":"Thanh Long Hotel Tuy Hoa","Country":"Vietnam","City":"Tuy Hoa City","Address":"314 Hung Vuong","Lat":13.097978646,"Lng":109.311085508},{"TravelLokaId":3000010037411,"HotelName":"Vu Vu Tuan 2 Hotel","Country":"Vietnam","City":"Thu Dau Mot City","Address":"33/51 Cach mang thang 8, Phu Tho Ward","Lat":10.9658564,"Lng":106.6670001},{"TravelLokaId":3000010037412,"HotelName":"Huong Tra Guesthouse 1","Country":"Vietnam","City":"Ha Giang City","Address":"525 Nguyen Trai","Lat":22.830508788,"Lng":104.983186182},{"TravelLokaId":3000010037413,"HotelName":"Huong Tra Guesthouse 2","Country":"Vietnam","City":"Ha Giang City","Address":"41, Group 5, Nguyen Trai","Lat":22.830652168,"Lng":104.982551336},{"TravelLokaId":3000010037422,"HotelName":"Ha Giang 2 Hotel Bao Loc","Country":"Vietnam","City":"Bao Loc City","Address":"250/11 Tran Phu Street","Lat":11.533870668,"Lng":107.819830023},{"TravelLokaId":3000010037426,"HotelName":"Heron House Hoi An","Country":"Vietnam","City":"Hoi An","Address":"An My, Cam Chau","Lat":15.893516,"Lng":108.354945},{"TravelLokaId":3000010037427,"HotelName":"An Hotel Bao Loc","Country":"Vietnam","City":"Bao Loc City","Address":"177 Ha Giang","Lat":11.54124701,"Lng":107.82052915},{"TravelLokaId":3000010037433,"HotelName":"Phuong Loan Hotel","Country":"Vietnam","City":"District 6","Address":"656 Hau Giang","Lat":10.74797,"Lng":106.633843},{"TravelLokaId":3000010037434,"HotelName":"Tai Hoa Hotel","Country":"Vietnam","City":"District 10","Address":"740/9 Su Van Hanh, Ward 12","Lat":10.7700451,"Lng":106.6686472},{"TravelLokaId":3000010037440,"HotelName":"Lavu Residence 2 Apartment Nha Trang","Country":"Vietnam","City":"Nha Trang","Address":"3/25 Tran Quang Khai","Lat":12.2320834,"Lng":109.1943276},{"TravelLokaId":3000010037442,"HotelName":"Camemis Villa","Country":"Vietnam","City":"Ngu Hanh Son District","Address":"Lot 50 Hoang Ke Viem","Lat":16.0491664,"Lng":108.244929},{"TravelLokaId":3000010037451,"HotelName":"Phuong Linh Hotel","Country":"Vietnam","City":"District 5","Address":"61 Pham Dinh Ho","Lat":10.750373,"Lng":106.64963},{"TravelLokaId":3000010037463,"HotelName":"Bay Hotel Nha Trang","Country":"Vietnam","City":"Nha Trang","Address":"59 Nguyen Thi Minh Khai","Lat":12.2380679,"Lng":109.1917145},{"TravelLokaId":3000010037478,"HotelName":"Song Truong Giang Hotel","Country":"Vietnam","City":"Thu Dau Mot City","Address":"243 Huynh Van Luy","Lat":10.990732176,"Lng":106.673917438},{"TravelLokaId":3000010037481,"HotelName":"Madam Mai Home - H2H","Country":"Vietnam","City":"Hoan Kiem District","Address":"14- 16 Le Phung Hieu","Lat":21.0259831,"Lng":105.8571395},{"TravelLokaId":3000010037486,"HotelName":"Hotel 179","Country":"Vietnam","City":"Thu Dau Mot City","Address":"453/10/13/13 Le Hong Phong, Phu Hoa Ward","Lat":10.964399118,"Lng":106.67942573},{"TravelLokaId":3000010037494,"HotelName":"Hotel 179B Binh Duong","Country":"Vietnam","City":"Ben Cat Town","Address":"KP1","Lat":11.0600602,"Lng":106.635025},{"TravelLokaId":3000010037495,"HotelName":"Thanh Thanh Hotel Da Nang","Country":"Vietnam","City":"Hai Chau District","Address":"52 - 54 Phan Chau Trinh","Lat":16.0622839,"Lng":108.2197079}]