[{"TravelLokaId":3000010041677,"HotelName":"Big Apartment With Garden Balcony In West Lake","Country":"Vietnam","City":"Tay Ho District","Address":"Quang An Ward, West Lake","Lat":21.063591,"Lng":105.8260436},{"TravelLokaId":3000010041678,"HotelName":"Phong Lan Hotel","Country":"Vietnam","City":"Nha Trang","Address":"76/1 Duong Hien Quyen","Lat":12.2865997,"Lng":109.2034806},{"TravelLokaId":3000010041683,"HotelName":"Moka Hotel","Country":"Vietnam","City":"Nha Trang","Address":"76/1 Duong Hien Quyen","Lat":12.2865997,"Lng":109.2034806},{"TravelLokaId":3000010041686,"HotelName":"Nhat Hoa Hotel Nha Trang","Country":"Vietnam","City":"Nha Trang","Address":"63 Ly Thai To","Lat":12.297879,"Lng":109.2120279},{"TravelLokaId":3000010041688,"HotelName":"Tam Tri Hostel","Country":"Vietnam","City":"Son Tra District","Address":"K65/95 To Hien Thanh","Lat":16.060145021,"Lng":108.244248088},{"TravelLokaId":3000010041691,"HotelName":"Beautiful West Lake Apartment","Country":"Vietnam","City":"Tay Ho District","Address":"Quang An Ward","Lat":21.064045758,"Lng":105.821547047},{"TravelLokaId":3000010041692,"HotelName":"Studio With Gorgeous Balcony In West Lake","Country":"Vietnam","City":"Tay Ho District","Address":"Quang An Ward","Lat":21.063591,"Lng":105.8260436},{"TravelLokaId":3000010041707,"HotelName":"Nam Cat Island Resort","Country":"Vietnam","City":"Cat Hai District","Address":"Cat Ba Island, Cat Hai","Lat":20.79969746,"Lng":106.996869582},{"TravelLokaId":3000010041713,"HotelName":"Po Homestay","Country":"Vietnam","City":"Sa Pa District","Address":"Ta Van","Lat":22.3014213,"Lng":103.8915341},{"TravelLokaId":3000010041726,"HotelName":"Cao Nguyen Hotel Pleiku","Country":"Vietnam","City":"Pleiku City","Address":"16 Hoang Van Thu","Lat":13.97404,"Lng":107.99855},{"TravelLokaId":3000010041727,"HotelName":"Hotel Tam An","Country":"Vietnam","City":"District 3","Address":"339/73 Le Van Sy","Lat":10.7880205,"Lng":106.6773366},{"TravelLokaId":3000010041732,"HotelName":"Ninh Hue Hotel","Country":"Vietnam","City":"District 7","Address":"100 Tran Trong Cung","Lat":10.7434806,"Lng":106.7337736},{"TravelLokaId":3000010041744,"HotelName":"Orion Homestay Dalat","Country":"Vietnam","City":"Da Lat","Address":"281C Phan Dinh Phung","Lat":11.9497762,"Lng":108.4346184},{"TravelLokaId":3000010041769,"HotelName":"Hang Ha Guesthouse","Country":"Vietnam","City":"Phu Quoc","Address":"44 Street 30/4","Lat":10.2160535,"Lng":103.9598326},{"TravelLokaId":3000010041770,"HotelName":"Anh Hang Hotel Nha Trang","Country":"Vietnam","City":"Nha Trang","Address":"5 Pham Van Dong Street","Lat":12.2948939,"Lng":109.2281911},{"TravelLokaId":3000010041771,"HotelName":"Thanh Chuong Guesthouse Phu Quoc","Country":"Vietnam","City":"Phu Quoc","Address":"29 Street 30/4","Lat":10.2160535,"Lng":103.9598326},{"TravelLokaId":3000010041774,"HotelName":"Thanh Binh Hotel Pleiku","Country":"Vietnam","City":"Pleiku City","Address":"93 Hai Ba Trung","Lat":13.9806735,"Lng":108.0003865},{"TravelLokaId":3000010041806,"HotelName":"Po's House Dalat - Picture your happiness!","Country":"Vietnam","City":"Da Lat","Address":"11A Tran Binh Trong","Lat":11.944711103,"Lng":108.430075874},{"TravelLokaId":3000010041830,"HotelName":"Song Anh Hotel & Spa Phu Quoc","Country":"Vietnam","City":"Phu Quoc","Address":"118/6 Tran Hung Dao, Ward 7, Duong Dong Township","Lat":10.1964749,"Lng":103.9683002},{"TravelLokaId":3000010041878,"HotelName":"Hana House Dalat - Dao Duy Tu","Country":"Vietnam","City":"Da Lat","Address":"10/61 Dao Duy Tu Street","Lat":11.9349696,"Lng":108.4338128},{"TravelLokaId":3000010041879,"HotelName":"Hana House Dalat - An Son","Country":"Vietnam","City":"Da Lat","Address":"1 An Son Street","Lat":11.9240775,"Lng":108.4233144},{"TravelLokaId":3000010041880,"HotelName":"Hana House Dalat - Hoang Anh","Country":"Vietnam","City":"Da Lat","Address":"H100 Nguyen Thi Nghia","Lat":11.947919303,"Lng":108.440597225},{"TravelLokaId":3000010041881,"HotelName":"Pi's House Dalat - Home of travelers","Country":"Vietnam","City":"Da Lat","Address":"42/1 Hai Ba Trung (opposite Luxury Karaoke)","Lat":11.9470912,"Lng":108.4337448},{"TravelLokaId":3000010041888,"HotelName":"Thanh Tai Hotel","Country":"Vietnam","City":"Tan Binh District","Address":"17 Tran Thai Tong","Lat":10.8198416,"Lng":106.6316012},{"TravelLokaId":3000010041891,"HotelName":"Muong Thanh Motel","Country":"Vietnam","City":"Lien Chieu District","Address":"82 Thanh Tinh","Lat":16.0609513,"Lng":108.1722151},{"TravelLokaId":3000010041903,"HotelName":"Little Ocean Apartment Saigon - Masteri Thao Dien","Country":"Vietnam","City":"District 2","Address":"159 Xa Lo Ha Noi, Thao Dien Ward","Lat":10.802008,"Lng":106.746213},{"TravelLokaId":3000010041904,"HotelName":"Ngoc Trai Villa 26 - FLC Sam Son","Country":"Vietnam","City":"Sam Son Town","Address":"FLC Luxury Golf and Resort Sam Son","Lat":19.7714639,"Lng":105.9226692},{"TravelLokaId":3000010041932,"HotelName":"Phuong Nam Resort Can Gio","Country":"Vietnam","City":"Can Gio District","Address":"1227/65 Duyen Hai, Long Hoa","Lat":10.3775127,"Lng":106.8911253},{"TravelLokaId":3000010041973,"HotelName":"Tue An Hostel Dalat","Country":"Vietnam","City":"Da Lat","Address":"31A Dao Duy Tu Street","Lat":11.934340112,"Lng":108.434044719},{"TravelLokaId":3000010041976,"HotelName":"Thoang Sai Gon Hotel","Country":"Vietnam","City":"Lien Chieu District","Address":"03 - 05 Pham Dinh Ho Street","Lat":16.0800681,"Lng":108.1677437},{"TravelLokaId":3000010041978,"HotelName":"Thao Nguyen Guesthouse Dalat","Country":"Vietnam","City":"Da Lat","Address":"B17 Mac Dinh Chi","Lat":11.9401404,"Lng":108.4292571},{"TravelLokaId":3000010041982,"HotelName":"Nguoi va Ta Homestay Dalat","Country":"Vietnam","City":"Da Lat","Address":"90/14 Ly Nam De","Lat":11.96138539,"Lng":108.438414972},{"TravelLokaId":3000010041985,"HotelName":"Anh va Em Homestay","Country":"Vietnam","City":"Lien Chieu District","Address":"443 Kinh Duong Vuong","Lat":16.075064,"Lng":108.1690345},{"TravelLokaId":3000010041989,"HotelName":"Hnam Chang Ngeh Hospitality Training Center & Guesthouse","Country":"Vietnam","City":"Kon Tum city","Address":"16A Nguyen Trai","Lat":14.3467417,"Lng":108.0074179},{"TravelLokaId":3000010042015,"HotelName":"Phuong Nam Motel Bien Hoa","Country":"Vietnam","City":"Bien Hoa City","Address":"KP6, Tran Cong An","Lat":10.9574847,"Lng":106.8226315},{"TravelLokaId":3000010042020,"HotelName":"Tam Son Hai Hotel Bien Hoa","Country":"Vietnam","City":"Bien Hoa City","Address":"Block 1F4, Tran Cong An","Lat":10.957423954,"Lng":106.821913719},{"TravelLokaId":3000010042023,"HotelName":"Tam Giac Mach Hotel Ha Giang","Country":"Vietnam","City":"Ha Giang City","Address":"228 Ly Tu Trong Street","Lat":22.82833057,"Lng":104.989886339},{"TravelLokaId":3000010042036,"HotelName":"Imperia An Phu Apartment","Country":"Vietnam","City":"District 2","Address":"Imperia An Phu","Lat":10.800563839,"Lng":106.752216219},{"TravelLokaId":3000010042066,"HotelName":"Cat Tuong Hotel Kon Tum","Country":"Vietnam","City":"Kon Tum city","Address":"384 Phan Dinh Phung","Lat":14.3719777,"Lng":107.9899349},{"TravelLokaId":3000010042067,"HotelName":"My Hotel Kon Tum","Country":"Vietnam","City":"Kon Tum city","Address":"48 Hoang Van Thu","Lat":14.3504568,"Lng":108.0035759},{"TravelLokaId":3000010042073,"HotelName":"Anh Duong Hotel Phu Quoc","Country":"Vietnam","City":"Phu Quoc","Address":"58 Tran Hung Dao St.","Lat":10.2073155,"Lng":103.962441},{"TravelLokaId":3000010042076,"HotelName":"Lotus Apartment Phu Quoc","Country":"Vietnam","City":"Phu Quoc","Address":"Group 3, Cua Lap","Lat":10.1878851,"Lng":103.9709634},{"TravelLokaId":3000010042091,"HotelName":"Gia Hung Hotel","Country":"Vietnam","City":"Thanh Khe District","Address":"1397 Nguyen Tat Thanh","Lat":16.073554,"Lng":108.1851772},{"TravelLokaId":3000010042110,"HotelName":"Phong Lan Hotel Tam Dao (Hong Minh Hotel Tam Dao)","Country":"Vietnam","City":"Tam Dao District","Address":"Block 1","Lat":21.4571798,"Lng":105.6452784},{"TravelLokaId":3000010042114,"HotelName":"Suoi Mo Hotel","Country":"Vietnam","City":"Tam Dao District","Address":"Block 1","Lat":21.4545721,"Lng":105.6444753},{"TravelLokaId":3000010042118,"HotelName":"Orient Hotel Tam Dao","Country":"Vietnam","City":"Tam Dao District","Address":"Block 1","Lat":21.454903492,"Lng":105.645620257},{"TravelLokaId":3000010042135,"HotelName":"Phuong Trinh Guesthouse","Country":"Vietnam","City":"Phu Quoc","Address":"45  Tran Hung Dao St.","Lat":10.2076374,"Lng":103.9622536},{"TravelLokaId":3000010042136,"HotelName":"Song Ngoc Guesthouse","Country":"Vietnam","City":"Phu Quoc","Address":"118/3 Tran Hung Dao St.","Lat":10.196485459,"Lng":103.968229121},{"TravelLokaId":3000010042138,"HotelName":"Canary House","Country":"Vietnam","City":"Ngu Hanh Son District","Address":"27 My An 1","Lat":16.039167,"Lng":108.242247},{"TravelLokaId":3000010042145,"HotelName":"Truc Hoang Ha Hotel Kon Tum","Country":"Vietnam","City":"Kon Tum city","Address":"116 Ngo Quyen","Lat":14.347955,"Lng":108.0100882},{"TravelLokaId":3000010042146,"HotelName":"Bamboo Garden Hotel","Country":"Vietnam","City":"Phu Quoc","Address":"Group 3, Cua Lap, Duong To","Lat":10.1878851,"Lng":103.9709634},{"TravelLokaId":3000010042147,"HotelName":"Tay Nguyen Hotel Kon Tum","Country":"Vietnam","City":"Kon Tum city","Address":"225 Tran Hung Dao","Lat":14.3498272,"Lng":108.0068743},{"TravelLokaId":3000010042158,"HotelName":"45 Calmette Hostel","Country":"Vietnam","City":"Da Lat","Address":"45 Pham Ngoc Thach, Ward 5","Lat":11.947608103,"Lng":108.431275739},{"TravelLokaId":3000010042179,"HotelName":"Dong Ho Guest House","Country":"Vietnam","City":"Dai Tu District","Address":"To Huu, Tan Thai Ward, Dai Tu Commune","Lat":21.585026325,"Lng":105.701694153},{"TravelLokaId":3000010042201,"HotelName":"Lexington Residence","Country":"Vietnam","City":"District 2","Address":"67 Mai Chi Tho","Lat":10.7979865,"Lng":106.7511866},{"TravelLokaId":3000010042235,"HotelName":"Nice And New Apartment Near Westlake","Country":"Vietnam","City":"Tay Ho District","Address":"52/22 To Ngoc Van","Lat":21.0694051,"Lng":105.8242171},{"TravelLokaId":3000010042259,"HotelName":"Vang Anh Hotel","Country":"Vietnam","City":"Phu Nhuan District","Address":"207 Phan Xich Long","Lat":10.7973999,"Lng":106.6915699},{"TravelLokaId":3000010042262,"HotelName":"Thanh Truc Guest House","Country":"Vietnam","City":"Phu Quoc","Address":"18A Ly Thuong Kiet, Duong Dong","Lat":10.2244334,"Lng":103.9666074},{"TravelLokaId":3000010042267,"HotelName":"Dang Minh Hotel Kon Tum","Country":"Vietnam","City":"Kon Tum city","Address":"287 Phan Dinh Phung","Lat":14.3657875,"Lng":107.9968249},{"TravelLokaId":3000010042271,"HotelName":"Thanh Binh Hotel Mang Den","Country":"Vietnam","City":"Kon Plong District","Address":"National Road 24, Dak Long, Kon Plong, Mang Den","Lat":14.652609559,"Lng":108.438214132}]