[{"TravelLokaId":3000010039659,"HotelName":"Cozy Apartment Saigon Centre","Country":"Vietnam","City":"District 1","Address":"Floor 01, 142 Le Thi Hong Gam","Lat":10.7685026,"Lng":106.696937},{"TravelLokaId":3000010039660,"HotelName":"Comfy Apartment Saigon Centre","Country":"Vietnam","City":"District 1","Address":"Floor 01,142 Le Thi Hong Gam","Lat":10.7685026,"Lng":106.696937},{"TravelLokaId":3000010039661,"HotelName":"Charming Vietnamese Townhouse","Country":"Vietnam","City":"District 1","Address":"46/9 Huynh Thuc Khang, Ben Nghe Ward","Lat":10.7719229,"Lng":106.7001787},{"TravelLokaId":3000010039759,"HotelName":"The Plum House","Country":"Vietnam","City":"Binh Thanh District","Address":"30/3 Nguyen Huu Canh Street","Lat":10.788927429,"Lng":106.715475849},{"TravelLokaId":3000010039761,"HotelName":"Hanoi Dreamy House","Country":"Vietnam","City":"Hoan Kiem District","Address":"33 Luong Ngoc Quyen Street","Lat":21.034679,"Lng":105.852578},{"TravelLokaId":3000010039766,"HotelName":"Windy Station Hostel","Country":"Vietnam","City":"Tan Binh District","Address":"124/15 Cong Hoa","Lat":10.800858869,"Lng":106.660926979},{"TravelLokaId":3000010039768,"HotelName":"Authentic Vietnamese Townhouse","Country":"Vietnam","City":"Hoan Kiem District","Address":"2nd Floor, 39 Hang Dieu","Lat":21.032748,"Lng":105.846982},{"TravelLokaId":3000010039774,"HotelName":"Hong Hac Hotel Tuy Hoa","Country":"Vietnam","City":"Tuy Hoa City","Address":"PG2-01 Vincom Shophouse, Hung Vuong","Lat":13.101896,"Lng":109.308834},{"TravelLokaId":3000010039779,"HotelName":"Leo Leo Coffee Homestay","Country":"Vietnam","City":"Hoi An","Address":"585 Hai Ba Trung Street","Lat":15.8816215,"Lng":108.3258755},{"TravelLokaId":3000010039788,"HotelName":"Blue Sapphire Sea View Apartment - Unit A1012","Country":"Vietnam","City":"Vung Tau City","Address":"Unit A1012, Blue Sapphire Resort Zone, 79 D5 Street","Lat":10.3764125,"Lng":107.125532},{"TravelLokaId":3000010039794,"HotelName":"Thuy Tien Sea View Apartment- Unit 1011","Country":"Vietnam","City":"Vung Tau City","Address":"Unit 1011, Thuy Tien Building, 84 Tran Phu","Lat":10.364286,"Lng":107.0622218},{"TravelLokaId":3000010039795,"HotelName":"Thuy Tien Sea View Apartment","Country":"Vietnam","City":"Vung Tau City","Address":"Thuy Tien Building, 84 Tran Phu","Lat":10.364286,"Lng":107.0622218},{"TravelLokaId":3000010039800,"HotelName":"Hieu Dang Hotel","Country":"Vietnam","City":"Sa Pa District","Address":"484 Dien Bien Phu Street","Lat":22.341341856,"Lng":103.85548596},{"TravelLokaId":3000010039801,"HotelName":"Hoang Phuong 1 Hotel","Country":"Vietnam","City":"Hoang Hoa District","Address":"Hai Tien Beach, Hoang Tien","Lat":19.8467357,"Lng":105.9380427},{"TravelLokaId":3000010039805,"HotelName":"TVT Hotel","Country":"Vietnam","City":"Da Lat","Address":"50 Ba Trieu","Lat":11.9365508,"Lng":108.4335937},{"TravelLokaId":3000010039807,"HotelName":"Phuong Linh 2 Hotel Samson","Country":"Vietnam","City":"Sam Son Town","Address":"55 Hồ Xuân Hương, P. Bắc Sơn","Lat":19.7405899,"Lng":105.9038254},{"TravelLokaId":3000010039813,"HotelName":"Sea Light Villa","Country":"Vietnam","City":"Vung Tau City","Address":"2 Alley 23, Hai Dang","Lat":10.337696669,"Lng":107.072989873},{"TravelLokaId":3000010039814,"HotelName":"Thanh Van 1 Hotel Tuy Hoa","Country":"Vietnam","City":"Tuy Hoa City","Address":"210 Nguyen Hue,","Lat":13.0947466,"Lng":109.3141976},{"TravelLokaId":3000010039815,"HotelName":"Thanh Van 3 Hotel Tuy Hoa","Country":"Vietnam","City":"Tuy Hoa City","Address":"266 Nguyen Hue","Lat":13.0947544,"Lng":109.3142188},{"TravelLokaId":3000010039816,"HotelName":"Tran Minh Apartment - EHome","Country":"Vietnam","City":"District 7","Address":"Unit A1506, Ehome 5 161 Tran Trong Cung","Lat":10.7432824,"Lng":106.7351845},{"TravelLokaId":3000010039817,"HotelName":"Vung Tau Sea View Apartment- Unit B1504 Vung Tau Plaza","Country":"Vietnam","City":"Vung Tau City","Address":"Unit B1504, Vung Tau Plaza, 207 Le Hong Phong","Lat":10.3518994,"Lng":107.0891908},{"TravelLokaId":3000010039819,"HotelName":"Gam Troi Valley","Country":"Vietnam","City":"Luong Son District","Address":"Lam Son, Luong Son","Lat":20.9137839,"Lng":105.488828},{"TravelLokaId":3000010039865,"HotelName":"Vagibi Motel","Country":"Vietnam","City":"Dong Hoi City","Address":"66 Tran Nhan Tong","Lat":17.4724745,"Lng":106.6201291},{"TravelLokaId":3000010039869,"HotelName":"Vietnam Pallet Apartments","Country":"Vietnam","City":"District 4","Address":"12.12 Apartment H1, Ward 19","Lat":10.762063,"Lng":106.701489},{"TravelLokaId":3000010039870,"HotelName":"Anh Nhung Guesthouse","Country":"Vietnam","City":"Hoi An","Address":"Group 3, Thanh Nam Dong","Lat":15.8683703,"Lng":108.3492859},{"TravelLokaId":3000010039882,"HotelName":"Big Group Apartments","Country":"Vietnam","City":"Phu Nhuan District","Address":"30/28 Phung Van Cung","Lat":10.8005274,"Lng":106.6856359},{"TravelLokaId":3000010039888,"HotelName":"Vung Tau Villa","Country":"Vietnam","City":"Vung Tau City","Address":"5 Tang Area","Lat":10.357663269,"Lng":107.081842655},{"TravelLokaId":3000010039890,"HotelName":"Ha Noi 1 Hotel","Country":"Vietnam","City":"Sam Son Town","Address":"Beach C, Ho Xuan Huong, Trung Son Ward","Lat":19.742659966,"Lng":105.905071125},{"TravelLokaId":3000010039898,"HotelName":"Holiday Park Hotel","Country":"Vietnam","City":"Hoang Mai District","Address":"89A Den Lu","Lat":20.985987606,"Lng":105.857071708},{"TravelLokaId":3000010039900,"HotelName":"Hanoi 2 Hotel (Thanh Hoa)","Country":"Vietnam","City":"Sam Son Town","Address":"Ho Xuan Huong","Lat":19.747736,"Lng":105.907952},{"TravelLokaId":3000010039912,"HotelName":"White Palace 2 Villa","Country":"Vietnam","City":"Vung Tau City","Address":"90 Tran Phu","Lat":10.3642529,"Lng":107.0621854},{"TravelLokaId":3000010039913,"HotelName":"White Palace Villa","Country":"Vietnam","City":"Vung Tau City","Address":"24 Ha Long","Lat":10.3386651,"Lng":107.0717131},{"TravelLokaId":3000010039947,"HotelName":"Bich Khang House","Country":"Vietnam","City":"Da Lat","Address":"Lot BL53, Khu Quy Hoach Yersin","Lat":11.9454599,"Lng":108.455169837},{"TravelLokaId":3000010039949,"HotelName":"Riverfront GreenHouse","Country":"Vietnam","City":"District 2","Address":"188/1 Nguyen Van Huong","Lat":10.81717244,"Lng":106.729956865},{"TravelLokaId":3000010039956,"HotelName":"Hanatel Hotel","Country":"Vietnam","City":"Nha Trang","Address":"17KA Pham Van Dong Street","Lat":12.2653909,"Lng":109.2004885},{"TravelLokaId":3000010039957,"HotelName":"Le Vieux Saigon","Country":"Vietnam","City":"District 1","Address":"Floor 4, 138 Bui Vien","Lat":10.766879,"Lng":106.692519},{"TravelLokaId":3000010039968,"HotelName":"Thanh Nam Guesthouse","Country":"Vietnam","City":"Phu Quoc","Address":"193 St. 30/4","Lat":10.2136378,"Lng":103.9640532},{"TravelLokaId":3000010039972,"HotelName":"Minh Tung Hotel","Country":"Vietnam","City":"Da Lat","Address":"54 Phan Dinh Phung","Lat":11.943994583,"Lng":108.434006948},{"TravelLokaId":3000010039979,"HotelName":"Aroma Hotel Hanoi","Country":"Vietnam","City":"Ba Dinh District","Address":"14 Lane 81, Lang Ha","Lat":21.0179585,"Lng":105.8166417},{"TravelLokaId":3000010039980,"HotelName":"Sinh Hien Hotel Tuy Hoa","Country":"Vietnam","City":"Tuy Hoa City","Address":"461-463 Hung Vuong","Lat":13.1140043,"Lng":109.2987674},{"TravelLokaId":3000010039981,"HotelName":"Van Phuong Homestay","Country":"Vietnam","City":"Da Lat","Address":"52A Phan Nhu Thach","Lat":11.941767836,"Lng":108.434547923},{"TravelLokaId":3000010039985,"HotelName":"Ben Thanh Sky View Apartment","Country":"Vietnam","City":"District 1","Address":"138 Le Thi Hong Gam","Lat":10.7684513,"Lng":106.697038},{"TravelLokaId":3000010039988,"HotelName":"Si Kim Hotel Tuy Hoa","Country":"Vietnam","City":"Tuy Hoa City","Address":"103-105 Hung VUong","Lat":13.0892432,"Lng":109.3142468},{"TravelLokaId":3000010039992,"HotelName":"Phu Hong Hotel Samson","Country":"Vietnam","City":"Sam Son Town","Address":"Beach C, Ho Xuan Huong","Lat":19.744073286,"Lng":105.905989694},{"TravelLokaId":3000010039993,"HotelName":"Hai Tien Xanh Hotel","Country":"Vietnam","City":"Hoang Hoa District","Address":"Hoang Tien","Lat":19.846728994,"Lng":105.937666726},{"TravelLokaId":3000010039997,"HotelName":"Tran Phu Apartment 1","Country":"Vietnam","City":"Vung Tau City","Address":"84 Tran Phu","Lat":10.364286,"Lng":107.0622218},{"TravelLokaId":3000010039998,"HotelName":"Tran Phu Apartment 2","Country":"Vietnam","City":"Vung Tau City","Address":"84 Tran Phu","Lat":10.364286,"Lng":107.0622218},{"TravelLokaId":3000010039999,"HotelName":"Sentosa Hotel Nha Trang","Country":"Vietnam","City":"Nha Trang","Address":"28/2 Hoang Hoa Tham Street","Lat":12.2448798,"Lng":109.1938361},{"TravelLokaId":3000010040008,"HotelName":"Lam Tra 2 Hotel","Country":"Vietnam","City":"Tuy Hoa City","Address":"A3-A4 Tran Phu","Lat":13.1001422,"Lng":109.3076291},{"TravelLokaId":3000010040009,"HotelName":"JM House 9","Country":"Vietnam","City":"District 2","Address":"C20-08 Hoang Anh Gia Lai Apartment, Nguyen Van Huong, Tan Dinh Ward","Lat":10.808839345,"Lng":106.734874328},{"TravelLokaId":3000010040010,"HotelName":"Hoang Vy Hotel Tuy Hoa","Country":"Vietnam","City":"Tuy Hoa City","Address":"250 Hung Vuong","Lat":13.0939596,"Lng":109.3130008},{"TravelLokaId":3000010040011,"HotelName":"JM House 10","Country":"Vietnam","City":"District 2","Address":"A2-06 Hoang Anh Gia Lai Apartment, 37 Nguyen Van Huong","Lat":10.8038646,"Lng":106.7272071},{"TravelLokaId":3000010040012,"HotelName":"Dong Hai Hotel Nha Trang","Country":"Vietnam","City":"Nha Trang","Address":"55/5 Nguyen Thien Thuat Street","Lat":12.2333983,"Lng":109.1967979},{"TravelLokaId":3000010040032,"HotelName":"CSLTDL 48 Phu Dong","Country":"Vietnam","City":"Da Lat","Address":"48 Phu Dong Thien Vuong","Lat":11.9555959,"Lng":108.4425608},{"TravelLokaId":3000010040039,"HotelName":"Minh Chau Hotel Hue","Country":"Vietnam","City":"Hue City","Address":"40/48 Ngo Quyen","Lat":16.4608629,"Lng":107.5880867},{"TravelLokaId":3000010040046,"HotelName":"Sika Hotel Nha Trang","Country":"Vietnam","City":"Nha Trang","Address":"112/6 Hoang Hoa Tham","Lat":12.244879415,"Lng":109.19362701},{"TravelLokaId":3000010040048,"HotelName":"Trung Nam Hotel","Country":"Vietnam","City":"District 8","Address":"61 Duong Ba Trac","Lat":10.749127,"Lng":106.688514},{"TravelLokaId":3000010040052,"HotelName":"Victory Hotel Sam Son","Country":"Vietnam","City":"Sam Son Town","Address":"23 Le Thanh Tong","Lat":19.742928777,"Lng":105.903842058},{"TravelLokaId":3000010040061,"HotelName":"Lan Phuc House Dalat","Country":"Vietnam","City":"Da Lat","Address":"83 Yersin","Lat":11.942881,"Lng":108.4520742},{"TravelLokaId":3000010040092,"HotelName":"Country Villa Homestay","Country":"Vietnam","City":"Da Lat","Address":"86 Dong Tinh","Lat":11.955615251,"Lng":108.442528776}]