[{"TravelLokaId":3000010029535,"HotelName":"Cat Phuong Hotel","Country":"Vietnam","City":"Ninh Kieu District","Address":"50 Luong Dinh Cua,","Lat":10.048171,"Lng":105.786247},{"TravelLokaId":3000010029545,"HotelName":"Dragon Sea Homestay","Country":"Vietnam","City":"Hoi An","Address":"To 5, khoi An Tan, An Bang Beach, Cam An","Lat":15.9138476,"Lng":108.3384617},{"TravelLokaId":3000010029553,"HotelName":"Nhat Quynh Hotel Dalat","Country":"Vietnam","City":"Da Lat","Address":"18/1A Phu Dong Thien Vuong Streer","Lat":11.957673,"Lng":108.442573},{"TravelLokaId":3000010029557,"HotelName":"Thai Binh Duong Hotel Cua Lo","Country":"Vietnam","City":"Cua Lo Town","Address":"226 Binh Minh street","Lat":18.808648,"Lng":105.722846},{"TravelLokaId":3000010029561,"HotelName":"Suki Hostel","Country":"Vietnam","City":"Hoan Kiem District","Address":"31A Ngo Tram","Lat":21.030506,"Lng":105.845254},{"TravelLokaId":3000010029571,"HotelName":"Dam Linh Hotel","Country":"Vietnam","City":"Son Tra District","Address":"44 Ha Bong","Lat":16.066913,"Lng":108.244417},{"TravelLokaId":3000010029580,"HotelName":"Thinh Van Hotel","Country":"Vietnam","City":"Tan Binh District","Address":"487 Cong Hoa, Ward 15","Lat":10.805209,"Lng":106.637074},{"TravelLokaId":3000010029592,"HotelName":"Hoang Phuc Hotel","Country":"Vietnam","City":"Vung Tau City","Address":"L13 Phan Huy Chu Street","Lat":10.336887,"Lng":107.083477},{"TravelLokaId":3000010029601,"HotelName":"Hop Hung Hotel Halong","Country":"Vietnam","City":"Ha Long City","Address":"346 Ha Long","Lat":20.953256,"Lng":107.044765},{"TravelLokaId":3000010029606,"HotelName":"Dong Do Hotel","Country":"Vietnam","City":"Tan Binh District","Address":"329-331 Nguyen Thai Binh","Lat":10.796674,"Lng":106.652676},{"TravelLokaId":3000010029612,"HotelName":"Bio Villa Homestay","Country":"Vietnam","City":"Son Tra District","Address":"18 Duong Dinh Nghe","Lat":16.081073442,"Lng":108.251109347},{"TravelLokaId":3000010029615,"HotelName":"Riverside Apartment","Country":"Vietnam","City":"Son Tra District","Address":"339 Tran Hung Dao, 13-02 Apartment","Lat":16.0625369,"Lng":108.2305341},{"TravelLokaId":3000010029621,"HotelName":"Kim Lien Hotel","Country":"Vietnam","City":"Vung Tau City","Address":"1 Tran Quy Cap Street","Lat":10.339211,"Lng":107.088965},{"TravelLokaId":3000010029625,"HotelName":"Van Chung Hotel","Country":"Vietnam","City":"Son Tra District","Address":"38 Ha Bong","Lat":16.066913,"Lng":108.244417},{"TravelLokaId":3000010029628,"HotelName":"Nhat Thong Hotel","Country":"Vietnam","City":"Thuan An Town","Address":"126 Nguyen Chi Thanh","Lat":10.930661,"Lng":106.697002},{"TravelLokaId":3000010029635,"HotelName":"Happy Villa","Country":"Vietnam","City":"Hoi An","Address":"107 Hung Vuong","Lat":15.879872,"Lng":108.319142},{"TravelLokaId":3000010029637,"HotelName":"Phu Dong Hotel","Country":"Vietnam","City":"Thanh Hoa City","Address":"68 Duong Dinh Nghe street","Lat":19.813436544,"Lng":105.768319338},{"TravelLokaId":3000010029639,"HotelName":"Hon Dau Resort","Country":"Vietnam","City":"Do Son District","Address":"Zone 3","Lat":20.680128667,"Lng":106.803861111},{"TravelLokaId":3000010029713,"HotelName":"Bin Bo Guesthouse","Country":"Vietnam","City":"Da Lat","Address":"52 Phu Dong Thien Vuong","Lat":11.9556048,"Lng":108.4425374},{"TravelLokaId":3000010029724,"HotelName":"Hong Tam Hotel","Country":"Vietnam","City":"Binh Tan District","Address":"52-54 Duong so 14, Binh Tri Dong Ward","Lat":10.7473616,"Lng":106.6164696},{"TravelLokaId":3000010029760,"HotelName":"Hong Hanh Guesthouse Dalat","Country":"Vietnam","City":"Da Lat","Address":"85 Phu Dong Thien Vuong Street","Lat":11.9556048,"Lng":108.4425374},{"TravelLokaId":3000010029761,"HotelName":"NYG My Dinh Homestay","Country":"Vietnam","City":"Nam Tu Liem District","Address":"Unit 702, CT1-1 Apartment, Me Tri Ha New Urban","Lat":21.015247808,"Lng":105.773925035},{"TravelLokaId":3000010029781,"HotelName":"Viet Thanh Hotel","Country":"Vietnam","City":"Ha Long City","Address":"No. 7, Alley 2, Block 31, Nha Hat Street, Hon Gai Port","Lat":20.950697626,"Lng":107.079367828},{"TravelLokaId":3000010029819,"HotelName":"Sunshine Bungalow","Country":"Vietnam","City":"Phu Quoc","Address":"Group 8, Quarter 7, Tran Hung Dao Street","Lat":10.196408,"Lng":103.9682989},{"TravelLokaId":3000010029840,"HotelName":"Phong Luu Hotel","Country":"Vietnam","City":"Nha Trang","Address":"151 Hoang Hoa Tham Street","Lat":12.2471224,"Lng":109.1939924},{"TravelLokaId":3000010029850,"HotelName":"Apollo Hotel","Country":"Vietnam","City":"Tan Binh District","Address":"94 Yen The","Lat":10.812765,"Lng":106.668647},{"TravelLokaId":3000010029860,"HotelName":"Le Hoang Villa","Country":"Vietnam","City":"Da Lat","Address":"4C Yersin","Lat":11.9411509,"Lng":108.4524031},{"TravelLokaId":3000010029866,"HotelName":"Cicilia Boutique Aparthotel Saigon","Country":"Vietnam","City":"District 1","Address":"54 Dang Dung, District 1","Lat":10.79239,"Lng":106.68849},{"TravelLokaId":3000010029869,"HotelName":"Aura Hotel Can Tho","Country":"Vietnam","City":"Ninh Kieu District","Address":"73B Pham Ngoc Thach","Lat":10.04361,"Lng":105.78692},{"TravelLokaId":3000010029871,"HotelName":"Nova Hotel","Country":"Vietnam","City":"Hue City","Address":"19 Doi Cung, Phu Hoi","Lat":16.4690425,"Lng":107.5933789},{"TravelLokaId":3000010029879,"HotelName":"Sao Hai Tien Hotel","Country":"Vietnam","City":"Hoang Hoa District","Address":"Zone 1&2, Hai Tien Beach","Lat":19.841931179,"Lng":105.934467316},{"TravelLokaId":3000010029889,"HotelName":"Saigon Sun 2 Hotel - Xa Dan","Country":"Vietnam","City":"Dong Da District","Address":"Lane 241 Xa Dan, Dong Da Ward","Lat":21.015628816,"Lng":105.832910659},{"TravelLokaId":3000010029895,"HotelName":"Odessa Hotel Nha Trang","Country":"Vietnam","City":"Nha Trang","Address":"12/8 Ly Tu Trong","Lat":12.2476477,"Lng":109.1931242},{"TravelLokaId":3000010029896,"HotelName":"Saigon Sun 3 Hotel - Pham Hung","Country":"Vietnam","City":"Nam Tu Liem District","Address":"20 Lane 1 Đình Thôn","Lat":21.021002108,"Lng":105.778537116},{"TravelLokaId":3000010029910,"HotelName":"Vy Vy Airport Hotel","Country":"Vietnam","City":"Tan Binh District","Address":"283 Hoang Van Thu","Lat":10.800462,"Lng":106.662511},{"TravelLokaId":3000010029911,"HotelName":"Hien Luong Hotel Nha Trang","Country":"Vietnam","City":"Nha Trang","Address":"17/15b Nguyen Thi Minh Khai","Lat":12.2378381,"Lng":109.1945955},{"TravelLokaId":3000010029923,"HotelName":"Villa 28 Dalat","Country":"Vietnam","City":"Da Lat","Address":"28 Tran Hung Dao","Lat":11.9380697,"Lng":108.4523541},{"TravelLokaId":3000010029928,"HotelName":"Sao Bien Hotel","Country":"Vietnam","City":"Hoang Hoa District","Address":"Hoang Tien Hamlet, Hoang Hoa Dist","Lat":19.841683927,"Lng":105.935025215},{"TravelLokaId":3000010029933,"HotelName":"Nhu Hue Guesthouse","Country":"Vietnam","City":"Da Lat","Address":"73/3 Ba Thang Hai Street, Ward 4","Lat":11.9414069,"Lng":108.4323083},{"TravelLokaId":3000010029934,"HotelName":"Dona Hotel Can Tho","Country":"Vietnam","City":"Ninh Kieu District","Address":"Lot B, Cai Khe Commercial Center, Tran Phu","Lat":10.046296,"Lng":105.781815},{"TravelLokaId":3000010029941,"HotelName":"Nha San So 1","Country":"Vietnam","City":"Mai Chau District","Address":"Bac Lac Village","Lat":20.6529366,"Lng":105.0721811},{"TravelLokaId":3000010029953,"HotelName":"The Sun Homestay","Country":"Vietnam","City":"Hoi An","Address":"46 Tran Cao Van, Cam Pho,","Lat":15.8815987,"Lng":108.3279828},{"TravelLokaId":3000010029965,"HotelName":"Tan Loc Hotel 2","Country":"Vietnam","City":"My Tho City","Address":"25 - 27 30/4 Street, Ward 1","Lat":10.378424,"Lng":106.3421758},{"TravelLokaId":3000010029980,"HotelName":"DOS Villa Dalat","Country":"Vietnam","City":"Da Lat","Address":"178 Tran Dai Nghia Street","Lat":11.9726159,"Lng":108.4516626},{"TravelLokaId":3000010029981,"HotelName":"T.P.Q Hotel","Country":"Vietnam","City":"Thanh Khe District","Address":"219 Nguyen Van Linh (Old address is 103)","Lat":16.059987976,"Lng":108.213184222},{"TravelLokaId":3000010029997,"HotelName":"Dolphin Villa","Country":"Vietnam","City":"Da Lat","Address":"36 Ly Nam De Street","Lat":11.9635929,"Lng":108.4416593},{"TravelLokaId":3000010030003,"HotelName":"Sapphire ApartHotel Nha Trang","Country":"Vietnam","City":"Nha Trang","Address":"92/50 Hung Vuong","Lat":12.2335752,"Lng":109.196082},{"TravelLokaId":3000010030011,"HotelName":"Pho Co Hotel","Country":"Vietnam","City":"Binh Thanh District","Address":"625/1 Xo Viet Nghe Tinh,  Ward 26","Lat":10.8112099,"Lng":106.7139535},{"TravelLokaId":3000010030019,"HotelName":"Quynh An Hotel","Country":"Vietnam","City":"Da Lat","Address":"20 Le Quy Don, Ward 5","Lat":11.9293892,"Lng":108.445339},{"TravelLokaId":3000010030025,"HotelName":"Thanh Quang Guesthouse Phan Thiet","Country":"Vietnam","City":"Phan Thiet City","Address":"13 Nguyen Dinh Chieu, Ham Tien Ward","Lat":10.9426844,"Lng":108.1928841},{"TravelLokaId":3000010030035,"HotelName":"Cay Da Hotel","Country":"Vietnam","City":"Thanh Hoa City","Address":"22-26 Hung Vuong Boulevard","Lat":19.803834762,"Lng":105.802077167},{"TravelLokaId":3000010030037,"HotelName":"Truc Tien Guesthouse","Country":"Vietnam","City":"Da Lat","Address":"11 Le Qui Don Street, Ward 5","Lat":11.9293892,"Lng":108.445339},{"TravelLokaId":3000010030045,"HotelName":"Mai Hung Homestay","Country":"Vietnam","City":"Hoi An","Address":"148-B Tran Nhan Tong, Cam Chau","Lat":15.8743509,"Lng":108.3581634},{"TravelLokaId":3000010030047,"HotelName":"Hung Nguyen Guesthouse","Country":"Vietnam","City":"Phan Thiet City","Address":"52A Huynh Thuc Khang Street, Ham Tien Ward","Lat":10.9524578,"Lng":108.2541754},{"TravelLokaId":3000010030054,"HotelName":"Hoang Linh Hotel","Country":"Vietnam","City":"District 1","Address":"256 De Tham","Lat":10.7681922,"Lng":106.6935754},{"TravelLokaId":3000010030074,"HotelName":"Phong Dan Hotel","Country":"Vietnam","City":"District 1","Address":"151 - 153 De Tham","Lat":10.765643,"Lng":106.694545},{"TravelLokaId":3000010030088,"HotelName":"Saigon Charming Hostel","Country":"Vietnam","City":"District 1","Address":"28/11 A Ton That Tung","Lat":10.7693089,"Lng":106.6898369},{"TravelLokaId":3000010030096,"HotelName":"Homestay Ba An Dalat","Country":"Vietnam","City":"Da Lat","Address":"10A Ly Nam De Street","Lat":11.9635929,"Lng":108.4416593},{"TravelLokaId":3000010030098,"HotelName":"Do Khoa Resort","Country":"Vietnam","City":"Phan Thiet City","Address":"126B Nguyen Dinh Chieu Street, Ham Tien Ward","Lat":10.9482883,"Lng":108.203692},{"TravelLokaId":3000010030110,"HotelName":"Sunny Hotel Binh Quoi","Country":"Vietnam","City":"Binh Thanh District","Address":"455-455A Binh Quoi, Ward 28","Lat":10.819285297,"Lng":106.72424448}]