[{"TravelLokaId":9000000350580,"HotelName":"Ngoc Cuong Hotel","Country":"Vietnam","City":"Bac Lieu City","Address":"474 Tran Phu, Ward 7","Lat":9.3023089,"Lng":105.7211988},{"TravelLokaId":9000000350611,"HotelName":"Savanna Hotel","Country":"Vietnam","City":"District 1","Address":"116 Nguyen Cu Trinh","Lat":10.763904163,"Lng":106.690001278},{"TravelLokaId":9000000350723,"HotelName":"An Khang Apartment","Country":"Vietnam","City":"Phu Nhuan District","Address":"182/28B Le Van Sy","Lat":10.793866,"Lng":106.6709599},{"TravelLokaId":9000000350743,"HotelName":"Universe Apartment","Country":"Vietnam","City":"Phu Nhuan District","Address":"744/2 Nguyen Kiem","Lat":10.809605931,"Lng":106.67869241},{"TravelLokaId":9000000354196,"HotelName":"ZO Hotel Nguyen Truong To","Country":"Vietnam","City":"Ba Dinh District","Address":"44 Nguyen Truong To","Lat":21.0428849,"Lng":105.844023},{"TravelLokaId":9000000354208,"HotelName":"Lily - Cau Giay Hotel","Country":"Vietnam","City":"Cau Giay District","Address":"110 Cau Giay","Lat":21.0322115,"Lng":105.7996944},{"TravelLokaId":9000000354219,"HotelName":"Amour Cruise","Country":"Vietnam","City":"Ha Long City","Address":"Zone 17 Tuan Chau","Lat":20.9348504,"Lng":106.9863247},{"TravelLokaId":9000000354237,"HotelName":"Magnolia's Can Tho","Country":"Vietnam","City":"Ninh Kieu District","Address":"79 Chau Van Liem, An Lac","Lat":10.03096,"Lng":105.785119},{"TravelLokaId":9000000354244,"HotelName":"Dragon Legend Hotel","Country":"Vietnam","City":"Ha Long City","Address":"Grp 9, Zone 9, Bai Chay ward, Ha Long City, Quang Ninh province, Vietnam, Ha Long City,","Lat":20.9584579,"Lng":107.0201001},{"TravelLokaId":9000000354262,"HotelName":"Saigon Fairy Land","Country":"Vietnam","City":"District 4","Address":"132 Ben Van Don","Lat":10.7637443,"Lng":106.6999369},{"TravelLokaId":9000000354263,"HotelName":"Trang Long Hotel","Country":"Vietnam","City":"Nha Trang","Address":"139 Da Tuong","Lat":12.2156379,"Lng":109.1964261},{"TravelLokaId":9000000354273,"HotelName":"Victory Halong Hotel","Country":"Vietnam","City":"Ha Long City","Address":"LV1: 24-25, Sun Premier","Lat":20.946692557,"Lng":107.033330147},{"TravelLokaId":9000000354274,"HotelName":"Palm Apartment Da Nang","Country":"Vietnam","City":"Ngu Hanh Son District","Address":"16/20 My Da Dong 12 Street","Lat":16.0457199,"Lng":108.2468929},{"TravelLokaId":9000000354283,"HotelName":"Mai Hotel - Airport","Country":"Vietnam","City":"Tan Binh District","Address":"54/53 Bach Dang Street","Lat":10.814044,"Lng":106.672452},{"TravelLokaId":9000000354297,"HotelName":"Anh Tu Hotel Vung Tau","Country":"Vietnam","City":"Vung Tau City","Address":"27B Thuy Van, Ward 2","Lat":10.3303264,"Lng":107.0883489},{"TravelLokaId":9000000354320,"HotelName":"Monalisa Apartment","Country":"Vietnam","City":"Ngu Hanh Son District","Address":"18-20-22-24 Phan Ton","Lat":16.0526882,"Lng":108.24582},{"TravelLokaId":9000000354330,"HotelName":"Star Glory Rivergate Center","Country":"Vietnam","City":"District 4","Address":"151 Ben Van Don","Lat":10.7628846,"Lng":106.6987292},{"TravelLokaId":9000000354334,"HotelName":"Jack Apartment 95","Country":"Vietnam","City":"District 7","Address":"95 Phan Khiem Ich","Lat":10.7327545,"Lng":106.7069009},{"TravelLokaId":9000000354336,"HotelName":"Lyna's House - Hoi An","Country":"Vietnam","City":"Hoi An","Address":"10/5 Cao Hong Lanh","Lat":15.877681227,"Lng":108.322518088},{"TravelLokaId":9000000354340,"HotelName":"Brother Villa Hoi An","Country":"Vietnam","City":"Hoi An","Address":"110 Dao Duy Tu","Lat":15.8770761,"Lng":108.31941},{"TravelLokaId":9000000354349,"HotelName":"Sepia Hotel Dalat","Country":"Vietnam","City":"Da Lat","Address":"5A Yen The","Lat":11.9395228,"Lng":108.4624552},{"TravelLokaId":9000000354392,"HotelName":"Kiwi Hotel & Apartment","Country":"Vietnam","City":"Ngu Hanh Son District","Address":"50A Phan Ton","Lat":16.0523157,"Lng":108.2445239},{"TravelLokaId":9000000354451,"HotelName":"Mi Nhon Hotel Muine","Country":"Vietnam","City":"Phan Thiet City","Address":"210/5 Nguyen Dinh Chieu","Lat":10.9545266,"Lng":108.2440134},{"TravelLokaId":9000000354457,"HotelName":"Gold Stone Homestay Hoi An","Country":"Vietnam","City":"Hoi An","Address":"95 Nguyen Phuc Tan","Lat":15.8750335,"Lng":108.3242645},{"TravelLokaId":9000000354465,"HotelName":"Draha Halong Hotel","Country":"Vietnam","City":"Ha Long City","Address":"21 Phu Gia 4 Vinhomes Dragon Bay, Hong Gai","Lat":20.9497444,"Lng":107.0724404},{"TravelLokaId":9000000354473,"HotelName":"Haradise Suite Villa Ha Long","Country":"Vietnam","City":"Ha Long City","Address":"HA801, Little Vietnam, Hung Thang Ward, phường Hùng Thắng, Thành phố Hạ Long, Tỉnh Quảng Ninh, Việt Nam,","Lat":20.955017415,"Lng":107.003445625},{"TravelLokaId":9000000354481,"HotelName":"Minh Hung Apartment Da Nang","Country":"Vietnam","City":"Hai Chau District","Address":"56 Nai Nam","Lat":16.034671955,"Lng":108.229189997},{"TravelLokaId":9000000354488,"HotelName":"Dream Luxury Home Saigon Center","Country":"Vietnam","City":"District 1","Address":"176/10 Ly Tu Trong","Lat":10.7732411,"Lng":106.6954358},{"TravelLokaId":9000000354489,"HotelName":"Hoang Minh Hotel","Country":"Vietnam","City":"Binh Tan District","Address":"97 Le Van Quoi","Lat":10.7740417,"Lng":106.6201439},{"TravelLokaId":9000000354506,"HotelName":"Orchid Garden Homestay Can Tho","Country":"Vietnam","City":"Binh Thuy District","Address":"144A Cach Mang Thang Tam, Bui Huu Nghia Ward","Lat":10.0569847,"Lng":105.7684655},{"TravelLokaId":9000000354507,"HotelName":"The Art - Summertime Homestay","Country":"Vietnam","City":"District 1","Address":"212B/21E Nguyễn Trãi, phường Nguyễn Cư Trinh, Quận 1, TPHCM","Lat":10.765991,"Lng":106.687259},{"TravelLokaId":9000000354508,"HotelName":"Downtown Homestay Saigon","Country":"Vietnam","City":"District 1","Address":"121 Cong Quynh","Lat":10.765549,"Lng":106.689781},{"TravelLokaId":9000000354542,"HotelName":"Hanoi Lullaby Hotel & Travel","Country":"Vietnam","City":"Hoan Kiem District","Address":"16 Ngo Tram","Lat":21.0307075,"Lng":105.8455214},{"TravelLokaId":9000000354600,"HotelName":"A25 Hotel - 88 Nguyen Khuyen","Country":"Vietnam","City":"Dong Da District","Address":"88 Phố Nguyễn Khuyến, Văn Miếu, Đống Đa, Hà Nội","Lat":21.028243,"Lng":105.839273},{"TravelLokaId":9000000354625,"HotelName":"AirAnC 605 - Free Airport Shuttle","Country":"Vietnam","City":"Tan Binh District","Address":"90/12 Yen The Street","Lat":10.810183,"Lng":106.6683083},{"TravelLokaId":9000000354751,"HotelName":"Paris Hotel Quy Nhon","Country":"Vietnam","City":"Quy Nhon City","Address":"21 Nguyen Hue","Lat":13.7721087,"Lng":109.2418077},{"TravelLokaId":9000000354910,"HotelName":"Ngoc Anh Hotel","Country":"Vietnam","City":"Phu Nhuan District","Address":"45 Hoa Hong","Lat":10.7964408,"Lng":106.690226},{"TravelLokaId":9000000354920,"HotelName":"Dream Home Homestay","Country":"Vietnam","City":"Da Lat","Address":"5/2  3/4 street","Lat":11.9325118,"Lng":108.4454019},{"TravelLokaId":9000000355105,"HotelName":"Royal Tourist Villas","Country":"Vietnam","City":"Hoi An","Address":"Lot C1 - 31, Cam An Fishing Village","Lat":15.907082,"Lng":108.341189},{"TravelLokaId":9000000355142,"HotelName":"Lakeside Dai Lai Hotel","Country":"Vietnam","City":"Phuc Yen Town","Address":"Zone A, Dai Lai, Cao Minh,","Lat":21.313504373,"Lng":105.712037086},{"TravelLokaId":9000000355756,"HotelName":"Halong Plus Hotel","Country":"Vietnam","City":"Ha Long City","Address":"Lot N16 Area C, Cai Dam urban area","Lat":20.948209892,"Lng":107.025813312},{"TravelLokaId":9000000363388,"HotelName":"Posiki Dorm Hostel","Country":"Vietnam","City":"Hai Chau District","Address":"4 Le Dinh Duong","Lat":16.0614619,"Lng":108.2226679},{"TravelLokaId":9000000363394,"HotelName":"Vinhomes Greenbay Me Tri Apartment","Country":"Vietnam","City":"Nam Tu Liem District","Address":"Vinhomes Green Bay Me Tri, Moc Lan","Lat":21.0011798,"Lng":105.783853389},{"TravelLokaId":9000000363659,"HotelName":"Bespoke Beachfront","Country":"Vietnam","City":"Ngu Hanh Son District","Address":"09 An Thuong 33","Lat":16.0506479,"Lng":108.2458806},{"TravelLokaId":9000000364498,"HotelName":"An House Villa","Country":"Vietnam","City":"Da Lat","Address":"No. 110 To Hien Thanh","Lat":11.9283008,"Lng":108.445447},{"TravelLokaId":9000000366251,"HotelName":"Elwood Resort Phu Quoc","Country":"Vietnam","City":"Phu Quoc","Address":"Ong Lang, Cua Duong,","Lat":10.2671511,"Lng":103.9405028},{"TravelLokaId":9000000366942,"HotelName":"Amanda Phan Hotel","Country":"Vietnam","City":"District 1","Address":"54/2 Ky Con","Lat":10.765617651,"Lng":106.699518132},{"TravelLokaId":9000000368432,"HotelName":"Lam Phuong Hotel Dalat","Country":"Vietnam","City":"Da Lat","Address":"51 Hung Vuong str.","Lat":11.9490255,"Lng":108.4670059},{"TravelLokaId":9000000368433,"HotelName":"Ngoc Anh Hotel Con Dao","Country":"Vietnam","City":"Con Dao (Hon Son) District","Address":"Area 8, Pham Van Dong","Lat":8.6870042,"Lng":106.609927},{"TravelLokaId":9000000368436,"HotelName":"THT Apartment","Country":"Vietnam","City":"District 2","Address":"215A6 Nguyen Van Huong","Lat":10.811750487,"Lng":106.733311469},{"TravelLokaId":9000000368520,"HotelName":"Minh Hai 2 Hotel","Country":"Vietnam","City":"Vung Tau City","Address":"189/19A Hoang Hoa Tham","Lat":10.3359414,"Lng":107.0877267},{"TravelLokaId":9000000368521,"HotelName":"Sunflower Home","Country":"Vietnam","City":"Quy Nhon City","Address":"Hoang Anh Gia Lai Building, Luu Huu Phuoc","Lat":13.778818,"Lng":109.2340082},{"TravelLokaId":9000000368522,"HotelName":"Ben Thanh House - Luxury Apartment","Country":"Vietnam","City":"District 4","Address":"39 Ben Van Don","Lat":10.7665449,"Lng":106.7034383},{"TravelLokaId":9000000368524,"HotelName":"Kota's House Homestay","Country":"Vietnam","City":"Hue City","Address":"15/67 Ngo The Lan","Lat":16.4723394,"Lng":107.5694748},{"TravelLokaId":9000000368526,"HotelName":"A25 Hotel - 187 Trung Kinh","Country":"Vietnam","City":"Cau Giay District","Address":"1/3, Alley 193, Trung Kính Street","Lat":21.017866205,"Lng":105.792839974},{"TravelLokaId":9000000368825,"HotelName":"Cherry Villa Hue","Country":"Vietnam","City":"Hue City","Address":"108 Phan Van Truong","Lat":16.4782607,"Lng":107.601211},{"TravelLokaId":9000000369120,"HotelName":"Auhome - Fairy Apartment","Country":"Vietnam","City":"District 1","Address":"27b/5 Nguyen Dinh Chieu","Lat":10.7904705,"Lng":106.7011993},{"TravelLokaId":9000000369433,"HotelName":"Kim Ngoc PQ Hotel","Country":"Vietnam","City":"Phu Quoc","Address":"SS26 - S03B, S05, Sonasea Area, Duong Bao Hamlet","Lat":10.1290514,"Lng":103.9826946},{"TravelLokaId":9000000369551,"HotelName":"Minh Hung Homestay","Country":"Vietnam","City":"Da Lat","Address":"23A Thong Thien Hoc","Lat":11.9524639,"Lng":108.4367204},{"TravelLokaId":9000000369569,"HotelName":"Eco Villa Dalat","Country":"Vietnam","City":"Da Lat","Address":"37 Trang Trinh","Lat":11.9520873,"Lng":108.4555799}]