[{"TravelLokaId":9000001043564,"HotelName":"S Lux Scenia Bay Nha Trang","Country":"Vietnam","City":"Nha Trang","Address":"26 Phạm Văn Đồng, Vĩnh Hải, Nha Trang, Khánh Hòa","Lat":12.281075,"Lng":109.2020109},{"TravelLokaId":9000001043567,"HotelName":"La Cle de Orchid Dalat Villa","Country":"Vietnam","City":"Da Lat","Address":"Group 20, An Son Street","Lat":11.9274188,"Lng":108.4297078},{"TravelLokaId":9000001043570,"HotelName":"Vuon Tung Homestay (Pine Garden)","Country":"Vietnam","City":"Da Lat","Address":"14A 3/4 Street","Lat":11.9326207,"Lng":108.4457126},{"TravelLokaId":9000001043574,"HotelName":"La Hotel Riverside","Country":"Vietnam","City":"Binh Thanh District","Address":"44 Binh Quoi","Lat":10.8153352,"Lng":106.7186992},{"TravelLokaId":9000001043576,"HotelName":"Moc Chau Island Mountain Park & Resort - The Bullet Hotel","Country":"Vietnam","City":"Moc Chau District","Address":"Lun Hamlet, Muong Sang Commune","Lat":20.842232664,"Lng":104.576082981},{"TravelLokaId":9000001043580,"HotelName":"Bungalow Ha Thu","Country":"Vietnam","City":"Phu Quoc","Address":"118/13 Tran Hung Dao","Lat":10.194097116,"Lng":103.965504749},{"TravelLokaId":9000001043581,"HotelName":"Arya Hotel","Country":"Vietnam","City":"Da Lat","Address":"406 Hai Ba Trung Street","Lat":11.9555786,"Lng":108.4299474},{"TravelLokaId":9000001043598,"HotelName":"Tourist Apartment - TMS Residences Quy Nhon","Country":"Vietnam","City":"Quy Nhon City","Address":"28 Nguyen Hue","Lat":13.770064979,"Lng":109.23288703},{"TravelLokaId":9000001043634,"HotelName":"Full House Apartment Da Nang","Country":"Vietnam","City":"Son Tra District","Address":"46 An Don","Lat":16.0722166,"Lng":108.2375734},{"TravelLokaId":9000001043652,"HotelName":"Holi Gold Coast Nha Trang","Country":"Vietnam","City":"Nha Trang","Address":"Gold Coast Building, 01 Tran Hung Dao","Lat":12.248278,"Lng":109.1947795},{"TravelLokaId":9000001043680,"HotelName":"Hotel Kim Ngoc Phu Quoc","Country":"Vietnam","City":"Phu Quoc","Address":"Ấp Đường Bào, Dương Tơ","Lat":10.132687868,"Lng":103.984190226},{"TravelLokaId":9000001043688,"HotelName":"Golden Legend Palace Hotel","Country":"Vietnam","City":"Hoan Kiem District","Address":"2 Alley Nguyen Huu Huan","Lat":21.033177001,"Lng":105.854969036},{"TravelLokaId":9000001043705,"HotelName":"The Arrivals Capsule","Country":"Vietnam","City":"District 1","Address":"302 Vo Van Kiet, Co Giang, district 1","Lat":10.7622067,"Lng":106.6961616},{"TravelLokaId":9000001043790,"HotelName":"Cloud9 Premium Hotel 21","Country":"Vietnam","City":"Go Vap District","Address":"97 street 21","Lat":10.8425864,"Lng":106.6516251},{"TravelLokaId":9000001044012,"HotelName":"Lucky Homestay Saigon","Country":"Vietnam","City":"Go Vap District","Address":"231 Nguyễn Văn Công, Phường 3","Lat":10.8223036,"Lng":106.6740308},{"TravelLokaId":9000001044041,"HotelName":"Sala Hotel Mong Cai","Country":"Vietnam","City":"Mong Cai City","Address":"Số 56, Đại Lộ Hòa Bình, Phường Trần Phú","Lat":21.5289385,"Lng":107.973308},{"TravelLokaId":9000001044113,"HotelName":"Anzui Homestay","Country":"Vietnam","City":"Vung Tau City","Address":"383/5/3 Binh Gia","Lat":10.364095879,"Lng":107.093280852},{"TravelLokaId":9000001044161,"HotelName":"M Village The Tropic","Country":"Vietnam","City":"Binh Thanh District","Address":"298/107/2 Dien Bien Phu","Lat":10.7994267,"Lng":106.7071127},{"TravelLokaId":9000001044183,"HotelName":"Le Royal Hotel","Country":"Vietnam","City":"Duc Trong District","Address":"54 Thong Nhat Street","Lat":11.7307873,"Lng":108.3754352},{"TravelLokaId":9000001044659,"HotelName":"Justay Tresor Bach Dang River","Country":"Vietnam","City":"District 4","Address":"39 Ben Van Don","Lat":10.7665441,"Lng":106.703439},{"TravelLokaId":9000001044699,"HotelName":"Hotel Ngoc Tram","Country":"Vietnam","City":"Phu Quoc","Address":"Le Bat Hamlet, Group 2","Lat":10.295390784,"Lng":103.917357959},{"TravelLokaId":9000001046663,"HotelName":"Saigon Rose Hotel - Phan Huy Ich Street","Country":"Vietnam","City":"Go Vap District","Address":"358 Phan Huy Ich, Ward 12, Go Vap District, Ho Chi Minh City","Lat":10.8405336,"Lng":106.638076},{"TravelLokaId":9000001046729,"HotelName":"Duc Manh Hotel Quang Ninh","Country":"Vietnam","City":"Ha Long City","Address":"27 Hai Dang","Lat":20.9404165,"Lng":107.1151075},{"TravelLokaId":9000001046785,"HotelName":"Yukkuri Hotel Dalat","Country":"Vietnam","City":"Da Lat","Address":"21/4 Tran Phu Street","Lat":11.9362882,"Lng":108.4353012},{"TravelLokaId":9000001046824,"HotelName":"The Arrivals hotel","Country":"Vietnam","City":"District 1","Address":"304 Võ Văn Kiệt, Cô Giang, quận 1","Lat":10.762207,"Lng":106.6961595},{"TravelLokaId":9000001046849,"HotelName":"Blue Sea Hotel Phu Quoc","Country":"Vietnam","City":"Phu Quoc","Address":"126 Tran hung Dao Street","Lat":10.193222,"Lng":103.9659982},{"TravelLokaId":9000001046918,"HotelName":"YaYa Hotel","Country":"Vietnam","City":"District 1","Address":"40/29 - 31 Bui Vien","Lat":10.7681472,"Lng":106.6940211},{"TravelLokaId":9000001046922,"HotelName":"The Postcard Hotel Ha Long","Country":"Vietnam","City":"Ha Long City","Address":"Lot 1, Tuan Chau Complex","Lat":20.932864721,"Lng":106.994006484},{"TravelLokaId":9000001046923,"HotelName":"Justay Saigon Royal","Country":"Vietnam","City":"District 4","Address":"34 Ben Van Don street, ward 12, district 4, HCMC","Lat":10.7541777,"Lng":106.6885936},{"TravelLokaId":9000001046925,"HotelName":"Muong Sang Retreat","Country":"Vietnam","City":"Moc Chau District","Address":"So Lon Village, Moc Chau","Lat":20.797126493,"Lng":104.598255909},{"TravelLokaId":9000001046928,"HotelName":"Tropicana Hotel 2","Country":"Vietnam","City":"Da Lat","Address":"64 Phan Nhu Thach Street","Lat":11.9405846,"Lng":108.433907},{"TravelLokaId":9000001046932,"HotelName":"SENDA Villa and Apartment","Country":"Vietnam","City":"Hoi An","Address":"10 Le Quy Don","Lat":15.8818667,"Lng":108.3215906},{"TravelLokaId":9000001046938,"HotelName":"Gia Huyen Hotel","Country":"Vietnam","City":"District 4","Address":"59 Street 41","Lat":10.7590454,"Lng":106.7009576},{"TravelLokaId":9000001046939,"HotelName":"Sen Hotel Hanoi","Country":"Vietnam","City":"Nam Tu Liem District","Address":"25 Alley 39 Dinh Thon","Lat":21.0191085,"Lng":105.7788035},{"TravelLokaId":9000001046960,"HotelName":"Phuot House Restaurant and Motorbikes","Country":"Vietnam","City":"Ha Giang City","Address":"No. 1, Group 18, Nguyen Trai Ward","Lat":22.8041805,"Lng":104.9783957},{"TravelLokaId":9000001046985,"HotelName":"2 Bed Room Apartment 12/12 - Altara Residences","Country":"Vietnam","City":"Quy Nhon City","Address":"76 Tran Hung Dao, Hai Cang","Lat":13.7734407,"Lng":109.2404925},{"TravelLokaId":9000001046990,"HotelName":"Nha Trang Bay Monaco Apartment","Country":"Vietnam","City":"Nha Trang","Address":"25 Phan Chu Trinh Streets","Lat":12.2521738,"Lng":109.192639},{"TravelLokaId":9000001047116,"HotelName":"Lac Hong Hotel","Country":"Vietnam","City":"My Tho City","Address":"67 Street 30/4","Lat":10.35278729,"Lng":106.366885006},{"TravelLokaId":9000001047197,"HotelName":"Phuong Thuy Hotel","Country":"Vietnam","City":"Ninh Kieu District","Address":"118/14 Trần Phú","Lat":10.047506024,"Lng":105.784609616},{"TravelLokaId":9000001047281,"HotelName":"The King Hotel - Condotel Thai Nguyen","Country":"Vietnam","City":"Thai Nguyen City","Address":"No. 99 Bac Son","Lat":21.593963,"Lng":105.826083},{"TravelLokaId":9000001047285,"HotelName":"SV Boutique Resort","Country":"Vietnam","City":"Vung Tau City","Address":"66/15 Ha Long","Lat":10.330241455,"Lng":107.077379376},{"TravelLokaId":9000001047398,"HotelName":"Homestay Can Tho Green Sunshine","Country":"Vietnam","City":"Binh Thuy District","Address":"F2 Street","Lat":10.050802067,"Lng":105.748767257},{"TravelLokaId":9000001047479,"HotelName":"Lamer Thien Cam Hotel","Country":"Vietnam","City":"Cam Xuyen District","Address":"Lien Thanh, Cam Nhuong Village, Cam Xuyen District","Lat":18.273053,"Lng":106.102862},{"TravelLokaId":9000001047497,"HotelName":"My Anh Boutique Villa","Country":"Vietnam","City":"Hoi An","Address":"333A Cua Dai, Cam Chau","Lat":15.8813192,"Lng":108.3449756},{"TravelLokaId":9000001047542,"HotelName":"Muong Thanh Luxury Ha Long Residence","Country":"Vietnam","City":"Ha Long City","Address":"Area 2","Lat":20.955794,"Lng":107.0484064},{"TravelLokaId":9000001047629,"HotelName":"The Seaward Hostel","Country":"Vietnam","City":"Tuy Hoa City","Address":"193 Le Duan","Lat":13.0930795,"Lng":109.3212567},{"TravelLokaId":9000001047630,"HotelName":"Lae Hostel","Country":"Vietnam","City":"Tuy Hoa City","Address":"347B Tran Hung Dao","Lat":13.0878395,"Lng":109.312202},{"TravelLokaId":9000001047643,"HotelName":"Sandra Home","Country":"Vietnam","City":"Vung Tau City","Address":"160/38 Hoang Hoa Tham Street","Lat":10.3328364,"Lng":107.0865987},{"TravelLokaId":9000001047760,"HotelName":"Cozrum Lux - The Arrivals Hotel","Country":"Vietnam","City":"District 1","Address":"302 Vo Van Kiet, P Co Giang, Q1, TP HCM","Lat":10.762363553,"Lng":106.696504354},{"TravelLokaId":9000001047814,"HotelName":"The Home Station","Country":"Vietnam","City":"Phu Quoc","Address":"Sonasea 08, Area C.E.O Sonasea villas & Resort","Lat":10.1320636,"Lng":103.9840563},{"TravelLokaId":9000001047844,"HotelName":"ARIA RESORT - 4BEDS VILLA,THE SEA BY 10m,Biển và hồ bơi riêng","Country":"Vietnam","City":"Vung Tau City","Address":"D5 Street, Ward 10, Vung Tau city","Lat":10.3746053,"Lng":107.1277713},{"TravelLokaId":9000001047845,"HotelName":"Hoang Loc Phat Hotel","Country":"Vietnam","City":"Cai Rang District","Address":"Số 12 đường Phạm Hùng","Lat":9.989607,"Lng":105.7481291},{"TravelLokaId":9000001047846,"HotelName":"DS La Belle Vie Hotel & Suite","Country":"Vietnam","City":"Hai Chau District","Address":"02 Cao Xuan Duc Street, Da Nang City, Vietnam","Lat":16.087268425,"Lng":108.219563141},{"TravelLokaId":9000001051517,"HotelName":"Minh Duc Luxury Hotel","Country":"Vietnam","City":"Ha Long City","Address":"lo 7+8, LK 4-13, KDT Hung Thang","Lat":20.959571,"Lng":107.0057876},{"TravelLokaId":9000001053237,"HotelName":"Gao Hotel & Spa","Country":"Vietnam","City":"Ngu Hanh Son District","Address":"119 Hoang Ke Viem","Lat":16.0499047,"Lng":108.246811},{"TravelLokaId":9000001056799,"HotelName":"L&H Apartment Da Nang","Country":"Vietnam","City":"Son Tra District","Address":"K82/43 Nguyen Duy Hieu","Lat":16.0545533,"Lng":108.2391236},{"TravelLokaId":9000001057634,"HotelName":"The First Stay","Country":"Vietnam","City":"Van Giang District","Address":"Central Lake 1, Aqua bay, Eco Park, Phung Cong Ward","Lat":20.9527931,"Lng":105.9378107},{"TravelLokaId":9000001060485,"HotelName":"Lanura Apartments and Hotel","Country":"Vietnam","City":"Tan Binh District","Address":"406/35 Cong Hoa","Lat":10.8032708,"Lng":106.6435293},{"TravelLokaId":9000001061930,"HotelName":"Khang Hy Hotel","Country":"Vietnam","City":"Buon Ma Thuot City","Address":"162 Ly Chinh Thang, Tan An Ward","Lat":12.702036572,"Lng":108.065546751},{"TravelLokaId":9000001063685,"HotelName":"Thanh Dat Hotel","Country":"Vietnam","City":"Di An Town","Address":"3 CN Street, An Phu Ward, Thuan An City, Binh Duong Province, 75209","Lat":10.934712111,"Lng":106.744772382}]