[{"TravelLokaId":3000010035326,"HotelName":"Mimosa Hotel","Country":"Vietnam","City":"Binh Chanh District","Address":"172  Street No 7, Trung Son Residences, Binh Hung Ward","Lat":10.7343466,"Lng":106.6901421},{"TravelLokaId":3000010035331,"HotelName":"Van Hong Hotel","Country":"Vietnam","City":"Sa Pa District","Address":"009 Pho Dien Bien Street","Lat":22.338708705,"Lng":103.850463331},{"TravelLokaId":3000010035332,"HotelName":"Phu Hai Hotel","Country":"Vietnam","City":"Buon Ma Thuot City","Address":"22 Ly Tu Trong","Lat":12.6941138,"Lng":108.0580973},{"TravelLokaId":3000010035333,"HotelName":"Thien Phu Hotel Vung Tau","Country":"Vietnam","City":"Vung Tau City","Address":"170/17/1 Binh Gia","Lat":10.3553453,"Lng":107.0931362},{"TravelLokaId":3000010035337,"HotelName":"Tiami Villa Hotel","Country":"Vietnam","City":"Vung Tau City","Address":"B17-18, Phuong Nam VIllas","Lat":10.3558486,"Lng":107.0997966},{"TravelLokaId":3000010035338,"HotelName":"Carambola Homestay","Country":"Vietnam","City":"Hoi An","Address":"159 Tran Nhan Tong, Cam Chau","Lat":15.8804991,"Lng":108.3438654},{"TravelLokaId":3000010035349,"HotelName":"Lavender Homestay","Country":"Vietnam","City":"Da Lat","Address":"262 Hai Ba Trung","Lat":11.9495024,"Lng":108.4328931},{"TravelLokaId":3000010035350,"HotelName":"Lavender Guesthouse","Country":"Vietnam","City":"Da Lat","Address":"H73 Nguyen Thi Nghia","Lat":11.9483654,"Lng":108.4401788},{"TravelLokaId":3000010035351,"HotelName":"Minh Quang Hotel","Country":"Vietnam","City":"Da Lat","Address":"26 Tran Le","Lat":11.9366754,"Lng":108.4270987},{"TravelLokaId":3000010035352,"HotelName":"Dalat Hills Homestay","Country":"Vietnam","City":"Da Lat","Address":"36/4 Nguyen Van Troi","Lat":11.9461857,"Lng":108.4357822},{"TravelLokaId":3000010035356,"HotelName":"Bicycle Hotel","Country":"Vietnam","City":"Vung Tau City","Address":"89 Phan Chu Trinh","Lat":10.3368565,"Lng":107.0808088},{"TravelLokaId":3000010035374,"HotelName":"Minh Phuc Hotel Trung Son","Country":"Vietnam","City":"Binh Chanh District","Address":"26 Duong so 7, Binh Hung","Lat":10.7351078,"Lng":106.6901396},{"TravelLokaId":3000010035398,"HotelName":"Saigon Airport Hotel","Country":"Vietnam","City":"Tan Binh District","Address":"136 Yen The","Lat":10.814857,"Lng":106.669351},{"TravelLokaId":3000010035406,"HotelName":"Hoang Kim Hotel Trung Son","Country":"Vietnam","City":"Binh Chanh District","Address":"55 Duong so 6, Binh Hung","Lat":10.7375536,"Lng":106.6914467},{"TravelLokaId":3000010035409,"HotelName":"Nam Han Hotel Phu Quoc","Country":"Vietnam","City":"Phu Quoc","Address":"100 Nguyen Trung Truc St., Phu Quoc, Kien Giang","Lat":10.2222457,"Lng":103.9623037},{"TravelLokaId":3000010035411,"HotelName":"Family Hotel Da Nang","Country":"Vietnam","City":"Hai Chau District","Address":"604 Nui Thanh Street","Lat":16.0300898,"Lng":108.2226736},{"TravelLokaId":3000010035420,"HotelName":"Linh Giang Hotel Nha Trang","Country":"Vietnam","City":"Nha Trang","Address":"98A Tran Phu","Lat":12.2274175,"Lng":109.1989705},{"TravelLokaId":3000010035422,"HotelName":"Phuong Ngoc Hotel","Country":"Vietnam","City":"Thanh Khe District","Address":"77 Le Dinh Ly Street","Lat":16.0577968,"Lng":108.2114581},{"TravelLokaId":3000010035423,"HotelName":"Viet Anh Hotel","Country":"Vietnam","City":"Sa Pa District","Address":"1 Nguyen Van Troi","Lat":22.336713636,"Lng":103.845743146},{"TravelLokaId":3000010035435,"HotelName":"New Palace Bac Lieu Hotel","Country":"Vietnam","City":"Bac Lieu City","Address":"36 Tran Quang Dieu","Lat":9.3063065,"Lng":105.7314992},{"TravelLokaId":3000010035455,"HotelName":"My Loc Hotel","Country":"Vietnam","City":"Binh Chanh District","Address":"64-66, Street Number 9A, Trung Son Residences, Binh Hung Ward","Lat":10.739764695,"Lng":106.689139009},{"TravelLokaId":3000010035466,"HotelName":"Truc Bach Homestay Hoi An","Country":"Vietnam","City":"Hoi An","Address":"362 Corner Cua Dai Street, Cam Chau","Lat":15.882428,"Lng":108.3459292},{"TravelLokaId":3000010035467,"HotelName":"Dai An Hotel","Country":"Vietnam","City":"Go Vap District","Address":"836 Quang Trung, Ward 8","Lat":10.8385754,"Lng":106.6501189},{"TravelLokaId":3000010035469,"HotelName":"Hoang Gia Hotel Buon Ma Thuot","Country":"Vietnam","City":"Buon Ma Thuot City","Address":"116 Xo Viet Nghe Tinh","Lat":12.685847359,"Lng":108.040619872},{"TravelLokaId":3000010035480,"HotelName":"Van Son Guest House","Country":"Vietnam","City":"Sa Pa District","Address":"043 Thach Son street","Lat":22.336283636,"Lng":103.84676728},{"TravelLokaId":3000010035481,"HotelName":"Jasmine Homestay","Country":"Vietnam","City":"Hoi An","Address":"151/6 Tran Nhan Tong, Cam Chau","Lat":15.8787508,"Lng":108.3463457},{"TravelLokaId":3000010035486,"HotelName":"Cat Cat Hotel Trung Son","Country":"Vietnam","City":"Binh Chanh District","Address":"10 Duong so 8, Binh Hung","Lat":10.7357351,"Lng":106.6899312},{"TravelLokaId":3000010035488,"HotelName":"Iboss Hotel","Country":"Vietnam","City":"Binh Chanh District","Address":"64 Street Number 7, Trung Son Residences ,Binh Hung Ward","Lat":10.7357459,"Lng":106.6901559},{"TravelLokaId":3000010035489,"HotelName":"Tuan Thuy Hotel Nha Trang","Country":"Vietnam","City":"Nha Trang","Address":"05 Pham Van Dong, Hon Chong","Lat":12.2745819,"Lng":109.2020684},{"TravelLokaId":3000010035494,"HotelName":"Gold Hotel Samson","Country":"Vietnam","City":"Sam Son Town","Address":"03 Tay Son Street","Lat":19.735471507,"Lng":105.900996029},{"TravelLokaId":3000010035517,"HotelName":"Ngoc Han Vung Tau Hotel","Country":"Vietnam","City":"Vung Tau City","Address":"8 Block A2, Thuy Van Street","Lat":10.3518351,"Lng":107.1004553},{"TravelLokaId":3000010035522,"HotelName":"Saigon Center Hotel","Country":"Vietnam","City":"District 7","Address":"94 Street No. 9","Lat":10.736028425,"Lng":106.717800701},{"TravelLokaId":3000010035526,"HotelName":"Thanh Ngoc Motel","Country":"Vietnam","City":"Buon Ma Thuot City","Address":"118 Dinh Tien Hoang","Lat":12.6706986,"Lng":108.044471},{"TravelLokaId":3000010035528,"HotelName":"Thanh Dat Guesthouse","Country":"Vietnam","City":"Buon Ma Thuot City","Address":"57 Le Duan","Lat":12.661296,"Lng":108.0324268},{"TravelLokaId":3000010035535,"HotelName":"Long Anh Hotel","Country":"Vietnam","City":"Thanh Khe District","Address":"11 Le Dinh Ly Street","Lat":16.0590395,"Lng":108.211289},{"TravelLokaId":3000010035536,"HotelName":"Pioneer Hotel","Country":"Vietnam","City":"District 1","Address":"40/6 Bui Vien Street","Lat":10.767796,"Lng":106.69425},{"TravelLokaId":3000010035543,"HotelName":"Thanh Van Guesthouse","Country":"Vietnam","City":"Buon Ma Thuot City","Address":"4 Thang Long","Lat":12.670902075,"Lng":108.042986055},{"TravelLokaId":3000010035549,"HotelName":"Huong Giang Motel","Country":"Vietnam","City":"Hai Chau District","Address":"128 Phan Dang Luu Street, Hoa Cuong Bac","Lat":16.0360916,"Lng":108.216249},{"TravelLokaId":3000010035563,"HotelName":"Marktplatz Cafe Co Gao Guesthouse","Country":"Vietnam","City":"Phan Thiet City","Address":"227 Nguyen Dinh Chieu, Ham Tien Ward","Lat":10.955221183,"Lng":108.233410235},{"TravelLokaId":3000010035577,"HotelName":"Lighthouse Hotel & Cafe","Country":"Vietnam","City":"Phan Thiet City","Address":"N47, Dao Tan, Xuan An","Lat":10.9405913,"Lng":108.1125512},{"TravelLokaId":3000010035581,"HotelName":"Phu Loi 1 Hotel","Country":"Vietnam","City":"Ngu Hanh Son District","Address":"Vo Nguyen Giap","Lat":16.032656373,"Lng":108.252547011},{"TravelLokaId":3000010035582,"HotelName":"Phu Loi 2 Hotel","Country":"Vietnam","City":"Son Tra District","Address":"12 Pham Thieu","Lat":16.072320888,"Lng":108.242628034},{"TravelLokaId":3000010035584,"HotelName":"Huyen Phuong Hotel","Country":"Vietnam","City":"Phan Thiet City","Address":"147 Nguyen Dinh Chieu, Mui Ne Ward","Lat":10.95368,"Lng":108.2174436},{"TravelLokaId":3000010035587,"HotelName":"Dong Nam A Hotel Danang","Country":"Vietnam","City":"Ngu Hanh Son District","Address":"Lot 11 B4.4 Vo Nguyen Giap","Lat":16.048752,"Lng":108.2491631},{"TravelLokaId":3000010035588,"HotelName":"Thanh Dong Hotel","Country":"Vietnam","City":"Ngu Hanh Son District","Address":"357 Le Van Hien","Lat":15.9981936,"Lng":108.2593539},{"TravelLokaId":3000010035589,"HotelName":"Thanh Dat Hotel Dalat","Country":"Vietnam","City":"Da Lat","Address":"H83 Nguyen Thi Nghia","Lat":11.9480497,"Lng":108.4405982},{"TravelLokaId":3000010035590,"HotelName":"Huong Long Guesthouse","Country":"Vietnam","City":"Thanh Khe District","Address":"291/28 Tran Cao Van","Lat":16.072952,"Lng":108.210496},{"TravelLokaId":3000010035595,"HotelName":"Tropical Luxury Villas","Country":"Vietnam","City":"Phan Thiet City","Address":"Villa R5, Sea Links City, Km 9, Nguyen Thong, Phu Hai Ward","Lat":10.942674,"Lng":108.182736},{"TravelLokaId":3000010035636,"HotelName":"Dong Nghi Hotel Bao Loc","Country":"Vietnam","City":"Bao Loc City","Address":"841 Tran Phu Street","Lat":11.543081717,"Lng":107.802357238},{"TravelLokaId":3000010035639,"HotelName":"Hoang Long Hotel Trung Son","Country":"Vietnam","City":"Binh Chanh District","Address":"39 Duong so 7, Binh Hung","Lat":10.7358473,"Lng":106.6917692},{"TravelLokaId":3000010035643,"HotelName":"Avatar 6 Hotel","Country":"Vietnam","City":"Binh Chanh District","Address":"93 Duong so 6, Binh Hung","Lat":10.7375536,"Lng":106.6914467},{"TravelLokaId":3000010035647,"HotelName":"Phuong Dung Hotel","Country":"Vietnam","City":"Hai Chau District","Address":"119 Nguyen Du","Lat":16.0783479,"Lng":108.2181857},{"TravelLokaId":3000010035649,"HotelName":"Avatar Hotel Trung Son","Country":"Vietnam","City":"Binh Chanh District","Address":"21 Duong so 7, Binh Hung","Lat":10.735485883,"Lng":106.691052783},{"TravelLokaId":3000010035656,"HotelName":"Mi Lan Diamond Hotel","Country":"Vietnam","City":"Vung Tau City","Address":"H27 Thai Van Lung, A Chau Area","Lat":10.336952998,"Lng":107.082876563},{"TravelLokaId":3000010035662,"HotelName":"Thien Nga Hotel","Country":"Vietnam","City":"Buon Ma Thuot City","Address":"H4 - H5 - H6 Ly Thuong Kiet","Lat":12.6790228,"Lng":108.0431905},{"TravelLokaId":3000010035664,"HotelName":"Ly Ly Hotel","Country":"Vietnam","City":"Hai Chau District","Address":"179B Nguyen Tat Thanh","Lat":16.0815084,"Lng":108.2122287},{"TravelLokaId":3000010035668,"HotelName":"Mi Lan Hotel 2","Country":"Vietnam","City":"Vung Tau City","Address":"H16 Phan Huy Chu, A Chau Area","Lat":10.336243194,"Lng":107.082120641},{"TravelLokaId":3000010035674,"HotelName":"Thong Nhat Hotel","Country":"Vietnam","City":"Buon Ma Thuot City","Address":"21 - 23, Alley 9, Truong Chinh","Lat":12.6839764,"Lng":108.0484155},{"TravelLokaId":3000010035681,"HotelName":"Sapa Tavan Hostel","Country":"Vietnam","City":"Sa Pa District","Address":"Tavan Village","Lat":22.303093067,"Lng":103.886750937},{"TravelLokaId":3000010035682,"HotelName":"Blue Sky Hotel","Country":"Vietnam","City":"Son Tra District","Address":"26 Dong Du Street","Lat":16.0799251,"Lng":108.2304512}]