[{"TravelLokaId":9000000417332,"HotelName":"Cocoland Homestay","Country":"Vietnam","City":"Chau Thanh District","Address":"Group 3, Phuoc Hoa Hamlet, Thanh Trieu Village","Lat":10.290556385,"Lng":106.248511076},{"TravelLokaId":9000000417333,"HotelName":"QLee LuxHome - Saigon Royal Apartment","Country":"Vietnam","City":"District 4","Address":"34-35 Ben Van Don","Lat":10.7669843,"Lng":106.7036657},{"TravelLokaId":9000000417337,"HotelName":"Magnolia's Saigon Serviced Apartment","Country":"Vietnam","City":"District 1","Address":"270/2 Le Thanh Ton","Lat":10.7721221,"Lng":106.695409},{"TravelLokaId":9000000417401,"HotelName":"Biệt thự Mũi Né - Villas & Resort Muine Domaine","Country":"Vietnam","City":"Phan Thiet City","Address":"06 Dai Lo -  Vo Nguyen Giap (706B)","Lat":10.94352271,"Lng":108.174426916},{"TravelLokaId":9000000417648,"HotelName":"Hovi De Villa Trang An","Country":"Vietnam","City":"Hai Ba Trung District","Address":"4B Trang An Alley, Trieu Viet Vương Street","Lat":21.0176202,"Lng":105.8514658},{"TravelLokaId":9000000417970,"HotelName":"Jungle Beach Ninh Hoa","Country":"Vietnam","City":"Ninh Hoa Town, Nha Trang","Address":"Jungle Beach, Ninh Phước, Ninh Hòa, Khánh Hòa, Việt Nam","Lat":12.4313445,"Lng":109.2872419},{"TravelLokaId":9000000418305,"HotelName":"Luxury Apartment Ocean View - Muong Thanh Apartment My Khe Beach","Country":"Vietnam","City":"Ngu Hanh Son District","Address":"51 Tran Bach Dang","Lat":16.0533245,"Lng":108.2467724},{"TravelLokaId":9000000418502,"HotelName":"Caribe Villa Vung Tau","Country":"Vietnam","City":"Vung Tau City","Address":"06 Le Hong Phong","Lat":10.346325381,"Lng":107.096837498},{"TravelLokaId":9000000418557,"HotelName":"Nguyen Thanh Hotel","Country":"Vietnam","City":"District 1","Address":"19B Bui Thi Xuan","Lat":10.7697528,"Lng":106.6885723},{"TravelLokaId":9000000419030,"HotelName":"King Kong Homestay","Country":"Vietnam","City":"Hoa Lu District","Address":"Ninh Hai, Hoa Lu","Lat":20.2174601,"Lng":105.9341214},{"TravelLokaId":9000000419040,"HotelName":"Luxury Shell Villa By the Sea","Country":"Vietnam","City":"Vung Tau City","Address":"Lot B2-53, D5 Street","Lat":10.377755848,"Lng":107.126272276},{"TravelLokaId":9000000419133,"HotelName":"Rubick Apartment","Country":"Vietnam","City":"District 3","Address":"2A/6 Nguyen Thi Minh Khai","Lat":10.7784819,"Lng":106.6939362},{"TravelLokaId":9000000419143,"HotelName":"Pu Luong Natura","Country":"Vietnam","City":"Ba Thuoc District","Address":"Ban Don, Thanh Lam","Lat":20.4482358,"Lng":105.1562161},{"TravelLokaId":9000000419144,"HotelName":"Canary Dalat Hotel","Country":"Vietnam","City":"Da Lat","Address":"82 Tran Quang Khai","Lat":11.9702447,"Lng":108.4449355},{"TravelLokaId":9000000425788,"HotelName":"Melody Apartment - Sai Gon","Country":"Vietnam","City":"District 7","Address":"46 Hung Gia 2","Lat":10.7334178,"Lng":106.7069061},{"TravelLokaId":9000000425905,"HotelName":"Kaia Residence Danang Quiet Garden","Country":"Vietnam","City":"Hai Chau District","Address":"132/15 Ly Tu Trong","Lat":16.077025,"Lng":108.218096},{"TravelLokaId":9000000425909,"HotelName":"Villa Nha Trang Private Beach E5","Country":"Vietnam","City":"Nha Trang","Address":"Khu do thi An Vien","Lat":12.2380731,"Lng":109.1962015},{"TravelLokaId":9000000425910,"HotelName":"Wisteria Hotel Dalat","Country":"Vietnam","City":"Da Lat","Address":"5/6 Le Dai Hanh","Lat":11.9384054,"Lng":108.4387095},{"TravelLokaId":9000000425913,"HotelName":"Villa BuBu - Da Lat","Country":"Vietnam","City":"Da Lat","Address":"35 Gio An, Phường 5, Thành phố Đà Lạt, Lâm Đồng","Lat":11.9394235,"Lng":108.4200617},{"TravelLokaId":9000000425915,"HotelName":"The Dwell","Country":"Vietnam","City":"District 4","Address":"151 - 155 Ben Van Don","Lat":10.7628846,"Lng":106.6987292},{"TravelLokaId":9000000425920,"HotelName":"Hi.Home Ha Noi","Country":"Vietnam","City":"Ba Dinh District","Address":"No 8 Ngo 10 - Kim Ma Thuong","Lat":21.0363509,"Lng":105.8130875},{"TravelLokaId":9000000425922,"HotelName":"Tu Phuong Hotel","Country":"Vietnam","City":"Tan Binh District","Address":"31/11 Pham Phu Thu","Lat":10.788391,"Lng":106.649206},{"TravelLokaId":9000000425927,"HotelName":"Chieu Ha Village Hoi An","Country":"Vietnam","City":"Hoi An","Address":"Thanh Nhut Village","Lat":15.8747832,"Lng":108.3592636},{"TravelLokaId":9000000426233,"HotelName":"Ha Thanh 2 Hotel Nha Trang","Country":"Vietnam","City":"Nha Trang","Address":"111 Hoang Hoa Tham","Lat":12.2459076,"Lng":109.1940323},{"TravelLokaId":9000000426240,"HotelName":"Panorama Star Beach Nha Trang","Country":"Vietnam","City":"Nha Trang","Address":"2 Nguyen Thi Minh Khai","Lat":12.238694,"Lng":109.1949957},{"TravelLokaId":9000000426274,"HotelName":"Omerta Hotel","Country":"Vietnam","City":"My Duc District","Address":"Alley 18, Te Tieu Street","Lat":20.687014314,"Lng":105.744514522},{"TravelLokaId":9000000434064,"HotelName":"Truong Tinh Hotel Hue","Country":"Vietnam","City":"Quang Dien District","Address":"Con Toc ferry, Tam Giang lagoon","Lat":16.5983708,"Lng":107.5100052},{"TravelLokaId":9000000434072,"HotelName":"Vida Loca Resort & Sunset Beach","Country":"Vietnam","City":"Phu Quoc","Address":"118/18 Tran Hung Dao","Lat":10.1928138,"Lng":103.9647053},{"TravelLokaId":9000000434073,"HotelName":"Beach & Bikini Apartment","Country":"Vietnam","City":"Quy Nhon City","Address":"Le Loi - Chung cu Hoang anh Gia Lai","Lat":13.780033,"Lng":109.2278813},{"TravelLokaId":9000000434580,"HotelName":"Rose Villa Beach","Country":"Vietnam","City":"Phu Vang District","Address":"75A Hoang Sa","Lat":16.5621317,"Lng":107.6448824},{"TravelLokaId":9000000434681,"HotelName":"Miehouse 124 Nguyen Trai Ho Chi Minh","Country":"Vietnam","City":"District 1","Address":"241/B5 Nguyen Trai","Lat":10.763282,"Lng":106.6862359},{"TravelLokaId":9000000434713,"HotelName":"Home 98s Da Lat","Country":"Vietnam","City":"Da Lat","Address":"10B Van Kiep","Lat":11.9624737,"Lng":108.4370059},{"TravelLokaId":9000000449719,"HotelName":"CBD Home - Home in Central","Country":"Vietnam","City":"District 3","Address":"193/22 Nam Ky Khoi Nghia","Lat":10.786896,"Lng":106.686126},{"TravelLokaId":9000000450038,"HotelName":"Palmy Beach Club Resort","Country":"Vietnam","City":"Phu Quoc","Address":"Group 2, Cua Lap Hamlet, Duong To Village","Lat":10.1849987,"Lng":103.9670928},{"TravelLokaId":9000000450480,"HotelName":"Tan Nhat Suong Hotel","Country":"Vietnam","City":"Tay Son District","Address":"19 Vo Xan","Lat":13.9090327,"Lng":108.9177167},{"TravelLokaId":9000000450758,"HotelName":"Ninh Binh Valle Montana Homestay","Country":"Vietnam","City":"Hoa Lu District","Address":"Cầu Khê Thượng, Ninh Xuân","Lat":20.2465965,"Lng":105.935231},{"TravelLokaId":9000000451028,"HotelName":"Marvelous Sea View Vung Tau","Country":"Vietnam","City":"Vung Tau City","Address":"02 Le Hong Phong (extended)","Lat":10.3478723,"Lng":107.0941179},{"TravelLokaId":9000000457733,"HotelName":"DNBV - SenseVilla","Country":"Vietnam","City":"Ngu Hanh Son District","Address":"Da Lo 18","Lat":16.0386968,"Lng":108.2464237},{"TravelLokaId":9000000457760,"HotelName":"Church Boutique Hotel 58 Hang Gai","Country":"Vietnam","City":"Hoan Kiem District","Address":"58 Hang Gai","Lat":21.032007,"Lng":105.850107},{"TravelLokaId":9000000457776,"HotelName":"Hue Mate Hotel","Country":"Vietnam","City":"Hue City","Address":"04/33 Nguyen Cong Tru","Lat":16.471617593,"Lng":107.596849538},{"TravelLokaId":9000000457777,"HotelName":"Lem's Apartment & Coffee","Country":"Vietnam","City":"Son Tra District","Address":"25 Phuoc My 1","Lat":16.0658412,"Lng":108.2423925},{"TravelLokaId":9000000457806,"HotelName":"Blue Sea Apartment - Son Thinh 1","Country":"Vietnam","City":"Vung Tau City","Address":"23D Thuy Van","Lat":10.3302509,"Lng":107.0882343},{"TravelLokaId":9000000458761,"HotelName":"Ventana Nha Trang Hotel","Country":"Vietnam","City":"Nha Trang","Address":"127/5 Nguyen Thien Thuat","Lat":12.2367567,"Lng":109.1940824},{"TravelLokaId":9000000458765,"HotelName":"The Fancy House Quy Nhon","Country":"Vietnam","City":"Quy Nhon City","Address":"304 Dien Hong","Lat":13.7677044,"Lng":109.2205531},{"TravelLokaId":9000000458766,"HotelName":"Golden Emerald Resort Cu Chi","Country":"Vietnam","City":"Cu Chi District","Address":"29 Pham Thi Trich, Hamlet 1, Binh My","Lat":10.9712402,"Lng":106.6481761},{"TravelLokaId":9000000458767,"HotelName":"La Phu Nhuan Hotel Airport","Country":"Vietnam","City":"Phu Nhuan District","Address":"31 Ho Van Hue","Lat":10.8018699,"Lng":106.676022},{"TravelLokaId":9000000458824,"HotelName":"David Homestay - Vinhomes Central Park","Country":"Vietnam","City":"Binh Thanh District","Address":"208 Nguyen Huu Canh","Lat":10.7956957,"Lng":106.7188272},{"TravelLokaId":9000000458825,"HotelName":"Gold Bee Service Apartment","Country":"Vietnam","City":"District 4","Address":"34 - 35 Ben Van Don","Lat":10.7669843,"Lng":106.7036657},{"TravelLokaId":9000000458828,"HotelName":"Dinh Villa","Country":"Vietnam","City":"Huong Thuy Town","Address":"27 Nguyen Tat Thanh","Lat":16.4463304,"Lng":107.6118563},{"TravelLokaId":9000000458830,"HotelName":"Hi.Home - Vinhomes Metropolis","Country":"Vietnam","City":"Ba Dinh District","Address":"304 Kim Ma","Lat":21.0314784,"Lng":105.8161185},{"TravelLokaId":9000000458844,"HotelName":"Vuu Apartment - Vinhomes Central Park","Country":"Vietnam","City":"Binh Thanh District","Address":"208 Nguyen Huu Canh","Lat":10.7937418,"Lng":106.7239916},{"TravelLokaId":9000000458853,"HotelName":"Apartmentel – Leman Suites","Country":"Vietnam","City":"District 3","Address":"20A Truong Dinh","Lat":10.7769486,"Lng":106.6906721},{"TravelLokaId":9000000458905,"HotelName":"Kha Thy Hotel","Country":"Vietnam","City":"District 2","Address":"39 Street 33, Binh Trung Tay Ward, District 2","Lat":10.7852292,"Lng":106.7683712},{"TravelLokaId":9000000458907,"HotelName":"SStay - Millennium Saigon","Country":"Vietnam","City":"District 4","Address":"132 Ben Van Don","Lat":10.7637443,"Lng":106.6999369},{"TravelLokaId":9000000458908,"HotelName":"Lavista - Boutique House Apartment","Country":"Vietnam","City":"Hong Bang District","Address":"BH 02-05, Vinhomes Imperia, 01 Bach Dang","Lat":20.862840146,"Lng":106.662922253},{"TravelLokaId":9000000458935,"HotelName":"Olga Apartment Danang","Country":"Vietnam","City":"Hai Chau District","Address":"68 Nguyen Chi Thanh","Lat":16.073519,"Lng":108.22096},{"TravelLokaId":9000000458939,"HotelName":"SStay - Justyle Saigon","Country":"Vietnam","City":"District 3","Address":"169 Vo Van Tan","Lat":10.7738296,"Lng":106.6880034},{"TravelLokaId":9000000458950,"HotelName":"Mermaids Vietnam -  Starcity Seaview","Country":"Vietnam","City":"Nha Trang","Address":"72-74 Tran Phu","Lat":12.2339836,"Lng":109.1972861},{"TravelLokaId":9000000458951,"HotelName":"Ninh Binh Paradise Homestay","Country":"Vietnam","City":"Ninh Binh City","Address":"25 Nguyen Van Hoan","Lat":20.278782332,"Lng":105.969566245},{"TravelLokaId":9000000458952,"HotelName":"Lavista - Eudora Apartment","Country":"Vietnam","City":"Ngo Quyen District","Address":"12 Lach Tray","Lat":20.8515987,"Lng":106.6870853}]