[{"TravelLokaId":9000000209216,"HotelName":"Dhouse-Beautiful 2br Apt Great for Summer Holiday","Country":"Vietnam","City":"Ha Long City","Address":"Hoang Quoc Viet","Lat":20.9530236,"Lng":107.0236511},{"TravelLokaId":9000000209252,"HotelName":"Z Hotel Sai Gon","Country":"Vietnam","City":"Go Vap District","Address":"350/3 Nguyen Van Luong","Lat":10.8380429,"Lng":106.6801714},{"TravelLokaId":9000000218520,"HotelName":"Muine Ihome","Country":"Vietnam","City":"Phan Thiet City","Address":"Hoa Binh Street, Group 2, Ham Tien Ward","Lat":10.953022,"Lng":108.2438748},{"TravelLokaId":9000000220231,"HotelName":"Capsule Hanoi Luxury Hostel","Country":"Vietnam","City":"Ba Dinh District","Address":"160/20 Ngoc Ha","Lat":21.0382752,"Lng":105.8292518},{"TravelLokaId":9000000233212,"HotelName":"Soulmate Homestay","Country":"Vietnam","City":"Da Lat","Address":"517 Mai Anh Dao","Lat":11.9780248,"Lng":108.4532332},{"TravelLokaId":9000000233331,"HotelName":"Vu Linh Hotel","Country":"Vietnam","City":"Cau Giay District","Address":"289-291 Tran Dang Ninh","Lat":21.038943371,"Lng":105.790640831},{"TravelLokaId":9000000234309,"HotelName":"Pham Nguyen Hostel","Country":"Vietnam","City":"Da Lat","Address":"6A Phan Dinh Giot","Lat":11.9554999,"Lng":108.4285855},{"TravelLokaId":9000000267598,"HotelName":"B.O HOMES @LuxuryRoom","Country":"Vietnam","City":"District 7","Address":"210 Bui Van Ba","Lat":10.7505265,"Lng":106.7363302},{"TravelLokaId":9000000267667,"HotelName":"Kimi Home","Country":"Vietnam","City":"Binh Thanh District","Address":"Landmark 4, Vinhomes Central Park, 208 Nguyen Huu Canh","Lat":10.7950602,"Lng":106.7199874},{"TravelLokaId":9000000267690,"HotelName":"Hanoi Moi Hotel Sam Son","Country":"Vietnam","City":"Sam Son Town","Address":"Beach D, Ho Xuan Huong","Lat":19.7390885,"Lng":105.904295},{"TravelLokaId":9000000267738,"HotelName":"Himika Home","Country":"Vietnam","City":"Vung Tau City","Address":"02 Le Hong Phong","Lat":10.3475475,"Lng":107.0938461},{"TravelLokaId":9000000267990,"HotelName":"Luoi Lam Luon Homestay - Melody Apartment","Country":"Vietnam","City":"Vung Tau City","Address":"149 Vo Thi Sau","Lat":10.3343764,"Lng":107.0858325},{"TravelLokaId":9000000268011,"HotelName":"Hometown Sea View Nha Trang Centre","Country":"Vietnam","City":"Nha Trang","Address":"04 Tran Phu","Lat":12.258656967,"Lng":109.197814418},{"TravelLokaId":9000000268012,"HotelName":"La Calmette Saigon","Country":"Vietnam","City":"District 4","Address":"155 Ben Van Don","Lat":10.7619406,"Lng":106.6994216},{"TravelLokaId":9000000272743,"HotelName":"Sea Town Travel Apartment","Country":"Vietnam","City":"Nha Trang","Address":"44 Yet Kieu","Lat":12.249804,"Lng":109.1896411},{"TravelLokaId":9000000272759,"HotelName":"Sam Son Phan Thiet Guest House","Country":"Vietnam","City":"Phan Thiet City","Address":"22/3 Da Tuong","Lat":10.9321319,"Lng":108.129504},{"TravelLokaId":9000000272980,"HotelName":"XH Apartment","Country":"Vietnam","City":"Thanh Khe District","Address":"k28/10 Van Cao","Lat":16.064371852,"Lng":108.210124161},{"TravelLokaId":9000000273013,"HotelName":"Anh A Homestay & Villa","Country":"Vietnam","City":"Da Lat","Address":"100 Hoang Dieu","Lat":11.9424846,"Lng":108.4220609},{"TravelLokaId":9000000273078,"HotelName":"Tea Resort","Country":"Vietnam","City":"Bao Loc City","Address":"27 Cao Thang","Lat":11.5293979,"Lng":107.8577057},{"TravelLokaId":9000000273589,"HotelName":"Sunny Sea Hotel Nha Trang","Country":"Vietnam","City":"Nha Trang","Address":"64B/9 Tran Phu","Lat":12.2352893,"Lng":109.1965708},{"TravelLokaId":9000000273783,"HotelName":"Ly Son Pearl Island Hotel & Resort","Country":"Vietnam","City":"Ly Son District","Address":"Dong Village","Lat":15.383361,"Lng":109.1107114},{"TravelLokaId":9000000273785,"HotelName":"Bui Vien Apartment Nice View","Country":"Vietnam","City":"District 1","Address":"43 Nguyen Thai Hoc","Lat":10.7656189,"Lng":106.696538},{"TravelLokaId":9000000273858,"HotelName":"Seaweed Luxury Villa & Spa","Country":"Vietnam","City":"Hoi An","Address":"No.18, Truong But Street, An Bang Beach","Lat":15.9086118,"Lng":108.3420075},{"TravelLokaId":9000000274269,"HotelName":"Mint Home Nha Trang","Country":"Vietnam","City":"Nha Trang","Address":"05 Pham Van Dong","Lat":12.2742607,"Lng":109.2018644},{"TravelLokaId":9000000274459,"HotelName":"Celina Hotel & Apartment","Country":"Vietnam","City":"Ngu Hanh Son District","Address":"45 - 47 An Thuong 26","Lat":16.0552451,"Lng":108.2451323},{"TravelLokaId":9000000274926,"HotelName":"C08 Jamona Golden Silk","Country":"Vietnam","City":"District 7","Address":"208 Bui Van Ba","Lat":10.750922066,"Lng":106.735453669},{"TravelLokaId":9000000274989,"HotelName":"Kim Hotel","Country":"Vietnam","City":"Hoan Kiem District","Address":"12 Alley 75 Cau Dat","Lat":21.0251645,"Lng":105.8610019},{"TravelLokaId":9000000275329,"HotelName":"Little Hanoi - Green Bay Apartment","Country":"Vietnam","City":"Nam Tu Liem District","Address":"G3 Vinhomes Greenbay, 400 Luong The Vinh","Lat":21.0004935,"Lng":105.7839783},{"TravelLokaId":9000000275332,"HotelName":"New Room Near Ben Thanh Market","Country":"Vietnam","City":"District 1","Address":"89 Nguyen Du","Lat":10.7772911,"Lng":106.6986706},{"TravelLokaId":9000000276234,"HotelName":"Grand Holiday Villa","Country":"Vietnam","City":"Hoi An","Address":"42-44 Mac Dinh Chi","Lat":15.8883649,"Lng":108.3289142},{"TravelLokaId":9000000276874,"HotelName":"King's Hotel Cau Giay","Country":"Vietnam","City":"Cau Giay District","Address":"Vila 17H1,  Yen Hoa","Lat":21.018065656,"Lng":105.796048842},{"TravelLokaId":9000000277584,"HotelName":"Casaco Guest House","Country":"Vietnam","City":"District 1","Address":"26/49A Do Quang Dau","Lat":10.7670162,"Lng":106.6914119},{"TravelLokaId":9000000280047,"HotelName":"Sele House","Country":"Vietnam","City":"Ha Tien Town","Address":"35&38, Ha Tien","Lat":10.3805165,"Lng":104.4783903},{"TravelLokaId":9000000280056,"HotelName":"Cosiana Hotel & Apartment","Country":"Vietnam","City":"Ngu Hanh Son District","Address":"180 Tran Bach Dang","Lat":16.0533944,"Lng":108.24634},{"TravelLokaId":9000000280439,"HotelName":"The Bell House Dalat","Country":"Vietnam","City":"Da Lat","Address":"Lot 75  Yersin","Lat":11.944869764,"Lng":108.452433798},{"TravelLokaId":9000000288018,"HotelName":"Villa Blue Saphire Resort","Country":"Vietnam","City":"Vung Tau City","Address":"D5","Lat":10.3766583,"Lng":107.1254998},{"TravelLokaId":9000000288272,"HotelName":"Bao Long Guesthouse","Country":"Vietnam","City":"Da Lat","Address":"53 Tran Nhat Duat","Lat":11.9450311,"Lng":108.4292163},{"TravelLokaId":9000000288274,"HotelName":"Homestay Doc Tinh","Country":"Vietnam","City":"Da Lat","Address":"16E Nguyen Dinh Quan","Lat":11.94071392,"Lng":108.417286989},{"TravelLokaId":9000000288338,"HotelName":"Thoi Binh Hotel","Country":"Vietnam","City":"Nha Trang","Address":"Boulevard Dinh Tien Hoang","Lat":12.0763768,"Lng":109.1727734},{"TravelLokaId":9000000288720,"HotelName":"Cinema Apartment Hanoi","Country":"Vietnam","City":"Cau Giay District","Address":"Lane 110, 43/60 Tran Duy Hung","Lat":21.017290925,"Lng":105.791007874},{"TravelLokaId":9000000289579,"HotelName":"Kem's Nest","Country":"Vietnam","City":"District 1","Address":"Room 405, 4th floor, 422 Vo Van Kiet","Lat":10.7598973,"Lng":106.6929208},{"TravelLokaId":9000000289661,"HotelName":"Bui Family Homestay","Country":"Vietnam","City":"Hoi An","Address":"138 Nguyen Phuc Tan","Lat":15.8746199,"Lng":108.3213023},{"TravelLokaId":9000000291034,"HotelName":"La Nha Homestay","Country":"Vietnam","City":"Vung Tau City","Address":"2 Le Hong Phong","Lat":10.3475475,"Lng":107.0938461},{"TravelLokaId":9000000291037,"HotelName":"Apartment in Ocean Vista Mui Ne","Country":"Vietnam","City":"Phan Thiet City","Address":"KM9, Nguyễn Thông, P. Phú Hài, TP. Phan Thiết","Lat":10.944713469,"Lng":108.18684402},{"TravelLokaId":9000000291513,"HotelName":"Smile Homestay and Hostel","Country":"Vietnam","City":"Hoan Kiem District","Address":"50 Ngo Huyen","Lat":21.02942,"Lng":105.848251},{"TravelLokaId":9000000291525,"HotelName":"The One Homestay","Country":"Vietnam","City":"Da Lat","Address":"23 An Duong Vuong","Lat":11.9514394,"Lng":108.434986},{"TravelLokaId":9000000291963,"HotelName":"Green Villa House","Country":"Vietnam","City":"Quy Nhon City","Address":"08/25 An Dương Vương","Lat":13.756146869,"Lng":109.217286867},{"TravelLokaId":9000000292005,"HotelName":"Sunrise Hotel Ninh Thuan","Country":"Vietnam","City":"Phan Rang - Thap Cham City","Address":"220 Yen Ninh, Khanh Hai","Lat":11.5881026,"Lng":109.0316228},{"TravelLokaId":9000000295152,"HotelName":"Pho Xanh Apartment & Hotel","Country":"Vietnam","City":"Hai An District","Address":"45 Hoang The Thien","Lat":20.8479861,"Lng":106.7129426},{"TravelLokaId":9000000295160,"HotelName":"Ane Apartment - Heart Of Dalat","Country":"Vietnam","City":"Da Lat","Address":"205, Block B, Mac Dinh Chi Apartment","Lat":11.940542536,"Lng":108.425925526},{"TravelLokaId":9000000295166,"HotelName":"Thuy Nga Hotel Phu Quoc","Country":"Vietnam","City":"Phu Quoc","Address":"SS24 Sonasea Villas, Bai Truong, Duong To","Lat":10.1290514,"Lng":103.9826946},{"TravelLokaId":9000000297405,"HotelName":"Rang Dong Hotel Hue","Country":"Vietnam","City":"Hue City","Address":"66A Hai Ba Trung","Lat":16.4593932,"Lng":107.5889793},{"TravelLokaId":9000000297473,"HotelName":"Gims Hotel","Country":"Vietnam","City":"Hoc Mon District","Address":"5/2A  Highway 22","Lat":10.8623692,"Lng":106.6022383},{"TravelLokaId":9000000297474,"HotelName":"Fleur De Vie Bungalow","Country":"Vietnam","City":"Phan Thiet City","Address":"17B Huynh Thuc Khang","Lat":10.9446665,"Lng":108.2728935},{"TravelLokaId":9000000297478,"HotelName":"N-T Guest House","Country":"Vietnam","City":"Da Lat","Address":"8/13 Đường Phạm Ngọc Thạch, Thành phố Đà Lạt, Lâm Đồng, Vietnam","Lat":11.944588,"Lng":108.4307278},{"TravelLokaId":9000000297482,"HotelName":"Boom Homestay","Country":"Vietnam","City":"Quy Nhon City","Address":"Hoang Anh Gia Lai Building, Hoang Quoc Viet","Lat":13.778524,"Lng":109.2339005},{"TravelLokaId":9000000297483,"HotelName":"Bonhomie","Country":"Vietnam","City":"Hoan Kiem District","Address":"23 Le Thanh Tong","Lat":21.0201496,"Lng":105.8586396},{"TravelLokaId":9000000297488,"HotelName":"The 91 Saigon House 2","Country":"Vietnam","City":"District 1","Address":"14 Nguyen Thi Nghia","Lat":10.7704232,"Lng":106.6937269},{"TravelLokaId":9000000297490,"HotelName":"Vung Tau Milan Homestay","Country":"Vietnam","City":"Vung Tau City","Address":"Melody Building - 149 Vo Thi Sau","Lat":10.3370891,"Lng":107.0864544},{"TravelLokaId":9000000297496,"HotelName":"Japan Strawberry Farm","Country":"Vietnam","City":"Da Lat","Address":"162 Thanh Mau","Lat":11.974968,"Lng":108.4400595}]