[{"TravelLokaId":3000010032252,"HotelName":"Xuan Hue Hotel","Country":"Vietnam","City":"Tan Binh District","Address":"71/2/3 Nguyen Bac","Lat":10.7949297,"Lng":106.6626204},{"TravelLokaId":3000010032254,"HotelName":"Stork Hostel","Country":"Vietnam","City":"Hoan Kiem District","Address":"29 Cau Go","Lat":21.032205,"Lng":105.852951},{"TravelLokaId":3000010032258,"HotelName":"Song Lam Hotel","Country":"Vietnam","City":"Vung Tau City","Address":"126N Hoang Hoa Tham","Lat":10.3373455,"Lng":107.0856486},{"TravelLokaId":3000010032309,"HotelName":"Nhat Le Hotel","Country":"Vietnam","City":"Hue City","Address":"6/34 Nguyen Tri Phuong Street","Lat":16.4646399,"Lng":107.5926988},{"TravelLokaId":3000010032321,"HotelName":"Phuong Linh 2 Hotel","Country":"Vietnam","City":"Binh Thanh District","Address":"243/66 Chu Van An","Lat":10.8107084,"Lng":106.7015722},{"TravelLokaId":3000010032323,"HotelName":"Smart Hotel 3","Country":"Vietnam","City":"Cau Giay District","Address":"3 Nguyen Chanh","Lat":21.0097343,"Lng":105.7941169},{"TravelLokaId":3000010032326,"HotelName":"Golf Star Hotel","Country":"Vietnam","City":"Go Vap District","Address":"848 Quang Trung","Lat":10.8385778,"Lng":106.6501099},{"TravelLokaId":3000010032330,"HotelName":"An Phu Nguyen Hoang Hotel","Country":"Vietnam","City":"Nam Tu Liem District","Address":"10 Nguyen Hoang","Lat":21.0308975,"Lng":105.7747092},{"TravelLokaId":3000010032337,"HotelName":"An Phu 2 Guest House","Country":"Vietnam","City":"Nam Tu Liem District","Address":"N5C KDT Phu My, My Dinh Ward","Lat":21.0290663,"Lng":105.7739022},{"TravelLokaId":3000010032340,"HotelName":"Pho Thuong House and Kitchen","Country":"Vietnam","City":"Da Lat","Address":"Lot A8 To Hien Thanh Street","Lat":11.9276917,"Lng":108.4442536},{"TravelLokaId":3000010032352,"HotelName":"The 1975 House 1","Country":"Vietnam","City":"District 1","Address":"116 - 118 Ly Tu Trong","Lat":10.773986443,"Lng":106.697013974},{"TravelLokaId":3000010032353,"HotelName":"The 1975 House 2","Country":"Vietnam","City":"District 1","Address":"12 - 14 Nguyen Thi Nghia Street","Lat":10.770521777,"Lng":106.693790622},{"TravelLokaId":3000010032355,"HotelName":"Danang Cosy Hostel","Country":"Vietnam","City":"Son Tra District","Address":"76 Nguyen Binh Khiem","Lat":16.0641172,"Lng":108.2325537},{"TravelLokaId":3000010032357,"HotelName":"New Life Hotel Danang","Country":"Vietnam","City":"Hai Chau District","Address":"121 Trinh Cong Son","Lat":16.034575,"Lng":108.2204326},{"TravelLokaId":3000010032367,"HotelName":"Quy Chuong Hotel","Country":"Vietnam","City":"Go Vap District","Address":"5 Tran Quoc Tuan","Lat":10.8207224,"Lng":106.691666},{"TravelLokaId":3000010032368,"HotelName":"Hai Hoa Hotel","Country":"Vietnam","City":"Da Lat","Address":"R1 - 15 Nguyen Thi Nghia Street","Lat":11.9483654,"Lng":108.4401788},{"TravelLokaId":3000010032370,"HotelName":"Quynh Nhu Hotel","Country":"Vietnam","City":"Vung Tau City","Address":"Y41 A Chau Area, Hoang Hoa Tham","Lat":10.33715,"Lng":107.08246},{"TravelLokaId":3000010032373,"HotelName":"Co Hoa Homestay","Country":"Vietnam","City":"Hoi An","Address":"To 1, Thon Thanh Dong, Cam Thanh Village","Lat":15.880647902,"Lng":108.352984842},{"TravelLokaId":3000010032381,"HotelName":"Friendlee House","Country":"Vietnam","City":"Hoi An","Address":"59 Thich Quang Duc","Lat":15.8898242,"Lng":108.3282306},{"TravelLokaId":3000010032383,"HotelName":"Quynh Hoa Hotel","Country":"Vietnam","City":"Vung Tau City","Address":"Y16 A Chau Area, Hoang Hoa Tham","Lat":10.337081394,"Lng":107.082111313},{"TravelLokaId":3000010032384,"HotelName":"Chaos Downtown","Country":"Vietnam","City":"District 1","Address":"121/61 Le Thi Rieng","Lat":10.7701048,"Lng":106.690911},{"TravelLokaId":3000010032387,"HotelName":"Van Anh Hotel","Country":"Vietnam","City":"Soc Son District","Address":"Dien Xa, Thach Loi, Quang Tien","Lat":21.218496404,"Lng":105.782128534},{"TravelLokaId":3000010032388,"HotelName":"Thuy Tran Hotel","Country":"Vietnam","City":"Da Lat","Address":"32 Bui Thi Xuan Street","Lat":11.9441995,"Lng":108.4401375},{"TravelLokaId":3000010032391,"HotelName":"Thuy Nhien Hotel","Country":"Vietnam","City":"Vung Tau City","Address":"Road 36, Hai Binh,","Lat":10.4127424,"Lng":107.2259831},{"TravelLokaId":3000010032404,"HotelName":"Hoang Son Hotel","Country":"Vietnam","City":"Nha Trang","Address":"15 Tue Tinh Street","Lat":12.231676453,"Lng":109.197330368},{"TravelLokaId":3000010032425,"HotelName":"Swan Hotel Danang","Country":"Vietnam","City":"Thanh Khe District","Address":"21 Ton That Dam","Lat":16.0722052,"Lng":108.2013141},{"TravelLokaId":3000010032432,"HotelName":"Se San Hotel","Country":"Vietnam","City":"Pleiku City","Address":"89 Hung Vuong","Lat":13.9765055,"Lng":107.9985189},{"TravelLokaId":3000010032433,"HotelName":"Trang Thu Hotel","Country":"Vietnam","City":"Hai Chau District","Address":"41 Dong Da","Lat":16.081607,"Lng":108.219406},{"TravelLokaId":3000010032436,"HotelName":"Phuong Dong Hotel Can Tho","Country":"Vietnam","City":"Ninh Kieu District","Address":"62, 30/4 Street,","Lat":10.029863,"Lng":105.780264},{"TravelLokaId":3000010032437,"HotelName":"Hiep Thoai Hotel","Country":"Vietnam","City":"Phu Quoc","Address":"65 Tran Hung Dao, Hamlet 7","Lat":10.2102205,"Lng":103.9609459},{"TravelLokaId":3000010032454,"HotelName":"Galaxy 9 Residence - GEM","Country":"Vietnam","City":"District 4","Address":"9 Nguyen Khoai , Ward 2","Lat":10.755228468,"Lng":106.693977043},{"TravelLokaId":3000010032464,"HotelName":"Icon 56 Building - Gem Apartment","Country":"Vietnam","City":"District 4","Address":"56 Ben Van Don","Lat":10.766284451,"Lng":106.703279614},{"TravelLokaId":3000010032475,"HotelName":"My Hoa Hotel","Country":"Vietnam","City":"Da Lat","Address":"73 Phan Nhu Thach","Lat":11.9417639,"Lng":108.4345439},{"TravelLokaId":3000010032493,"HotelName":"My Hoa 2 Hotel Da Lat","Country":"Vietnam","City":"Da Lat","Address":"60 Phan Nhu Thach","Lat":11.9417639,"Lng":108.4345439},{"TravelLokaId":3000010032496,"HotelName":"Banh Sua Island Stay","Country":"Vietnam","City":"Van Don District","Address":"Banh Sua Island, Ban Sen","Lat":20.9264597,"Lng":107.3970801},{"TravelLokaId":3000010032505,"HotelName":"Cua Lo Golf Resort","Country":"Vietnam","City":"Cua Lo Town","Address":"Binh Minh Street","Lat":18.784889,"Lng":105.740154013},{"TravelLokaId":3000010032514,"HotelName":"Kim Thanh Hotel","Country":"Vietnam","City":"District 3","Address":"645/19 Dien Bien Phu","Lat":10.7686077,"Lng":106.6759742},{"TravelLokaId":3000010032515,"HotelName":"Lai Farm Ba Vi","Country":"Vietnam","City":"Ba Vi District","Address":"Thon Rua (Rua Ward), Van Hoa, Ba Vi","Lat":21.07901511,"Lng":105.406169188},{"TravelLokaId":3000010032519,"HotelName":"Can Tho Hotel","Country":"Vietnam","City":"Ninh Kieu District","Address":"41-43-45-47 Chau Van Liem Street,","Lat":10.030816,"Lng":105.786097},{"TravelLokaId":3000010032520,"HotelName":"Khai Hoang 1 Hotel","Country":"Vietnam","City":"Da Lat","Address":"109 Bui Thi Xuan Street","Lat":11.9495862,"Lng":108.4387068},{"TravelLokaId":3000010032521,"HotelName":"Thai Binh Hotel (Phuc An Khang)","Country":"Vietnam","City":"District 1","Address":"1 Pham Viet Chanh, Nguyen Cu Trinh Ward","Lat":10.7678233,"Lng":106.6855086},{"TravelLokaId":3000010032527,"HotelName":"Long Tuyet Hotel","Country":"Vietnam","City":"Son Tra District","Address":"58 Bui Duong Lich","Lat":16.0894622,"Lng":108.2331019},{"TravelLokaId":3000010032533,"HotelName":"Kim Cuong Hostel Dalat","Country":"Vietnam","City":"Da Lat","Address":"191 Bui Thi Xuan Street. Ward 8","Lat":11.949537102,"Lng":108.438888766},{"TravelLokaId":3000010032537,"HotelName":"Cali Hotel Can Tho","Country":"Vietnam","City":"Ninh Kieu District","Address":"46 Luong Dinh Cua Street","Lat":10.044006273,"Lng":105.787267651},{"TravelLokaId":3000010032540,"HotelName":"Quang Trung Hotel","Country":"Vietnam","City":"Phu Quoc","Address":"Nguyen An Ninh 9, Duong Dong, Vietnam","Lat":10.2173052,"Lng":103.9600879},{"TravelLokaId":3000010032558,"HotelName":"The World Hotel","Country":"Vietnam","City":"My Tho City","Address":"306C Ly Thuong Kiet","Lat":10.3616138,"Lng":106.3524432},{"TravelLokaId":3000010032569,"HotelName":"Trip DaNang Hostel","Country":"Vietnam","City":"Son Tra District","Address":"67 Bui Thi Xuan","Lat":16.052504111,"Lng":108.234328718},{"TravelLokaId":3000010032574,"HotelName":"Lan Anh Hotel","Country":"Vietnam","City":"Tuy Phuoc District","Address":"55 Lac Long Quan","Lat":13.802183564,"Lng":109.147440232},{"TravelLokaId":3000010032575,"HotelName":"Khai Hoang 2 Hotel","Country":"Vietnam","City":"Da Lat","Address":"59/5 Phan Nhu Thach Street","Lat":11.9411129,"Lng":108.4340304},{"TravelLokaId":3000010032576,"HotelName":"Nhu Mai Hotel","Country":"Vietnam","City":"Ninh Kieu District","Address":"60-62-64B2 Ly Hong Thanh ,","Lat":10.0447194,"Lng":105.7846175},{"TravelLokaId":3000010032583,"HotelName":"Nam Dat Hotel","Country":"Vietnam","City":"Ha Long City","Address":"08 Doan Thi Diem","Lat":20.950932,"Lng":107.0791885},{"TravelLokaId":3000010032597,"HotelName":"Casita Hotel","Country":"Vietnam","City":"District 1","Address":"131 Bui Vien","Lat":10.7664815,"Lng":106.6919608},{"TravelLokaId":3000010032610,"HotelName":"Long Chau Motel","Country":"Vietnam","City":"Xuyen Moc District, Vung Tau City","Address":"Quarter 1","Lat":10.57921,"Lng":107.5386809},{"TravelLokaId":3000010032611,"HotelName":"Boss Sac Hoa Homestay","Country":"Vietnam","City":"Da Lat","Address":"67 Thu Khoa Huan Street","Lat":11.9413979,"Lng":108.4337092},{"TravelLokaId":3000010032625,"HotelName":"Vy Ha Hotel","Country":"Vietnam","City":"District 10","Address":"666/46,  3/2 street","Lat":10.76733808,"Lng":106.66159572},{"TravelLokaId":3000010032648,"HotelName":"Phu Uy Hotel Can Tho","Country":"Vietnam","City":"Ninh Kieu District","Address":"38 Mau Than, An Phu Ward,","Lat":10.0279467,"Lng":105.7768565},{"TravelLokaId":3000010032650,"HotelName":"Hello 1 Hotel Can Tho","Country":"Vietnam","City":"Ninh Kieu District","Address":"19/4 - 19/6 Nguyen Ngoc Trai , Xuan Khanh Ward,","Lat":10.034037299,"Lng":105.774666652},{"TravelLokaId":3000010032651,"HotelName":"Gia Han Guest House","Country":"Vietnam","City":"Vung Tau City","Address":"412/12 Le Hong Phong, Thang Tam Ward","Lat":10.352179427,"Lng":107.090088968},{"TravelLokaId":3000010032672,"HotelName":"Hotel 199 CVL","Country":"Vietnam","City":"Ninh Kieu District","Address":"31 Chau Van Liem Street,","Lat":10.030769,"Lng":105.786373},{"TravelLokaId":3000010032691,"HotelName":"Tan Tay Do Hotel","Country":"Vietnam","City":"Ninh Kieu District","Address":"26 Tran Phu Street,","Lat":10.045688,"Lng":105.7807179}]