[
    {
        "TravelLokaId": 1000000397065,
        "HotelName": "Hoa Mai Hotel",
        "Country": "Vietnam",
        "City": "District 10",
        "Address": "723-725 Le Hong Phong",
        "Lat": 10.7740111,
        "Lng": 106.6717464
    },
    {
        "TravelLokaId": 1000000430295,
        "HotelName": "Rainbow Hotel 2",
        "Country": "Vietnam",
        "City": "District 11",
        "Address": "618 Nguyen Chi Thanh Street",
        "Lat": 10.758153,
        "Lng": 106.659055
    },
    {
        "TravelLokaId": 1000000438622,
        "HotelName": "Camel Hotel",
        "Country": "Vietnam",
        "City": "Hoan Kiem District",
        "Address": "8/50 Dao Duy Tu",
        "Lat": 21.035347,
        "Lng": 105.852482
    },
    {
        "TravelLokaId": 1000000449028,
        "HotelName": "Yasaka Huong Sen Restaurant & Hotel",
        "Country": "Vietnam",
        "City": "Tuy Hoa City",
        "Address": "22B Nguyen Tat Thanh Street",
        "Lat": 13.08465,
        "Lng": 109.300754
    },
    {
        "TravelLokaId": 1000000466048,
        "HotelName": "Royal Hotel Ha Long",
        "Country": "Vietnam",
        "City": "Ha Long City",
        "Address": "144 Tran Quoc Nghien",
        "Lat": 20.937681949,
        "Lng": 107.122332534
    },
    {
        "TravelLokaId": 1000000505038,
        "HotelName": "Huong Toan Eco Resort",
        "Country": "Vietnam",
        "City": "Phu Quoc",
        "Address": "Group 7, Ben Tram Hamlet, Cua Duong, Phu Quoc, Kien Giang, Vietnam",
        "Lat": 10.244367,
        "Lng": 104.01747
    },
    {
        "TravelLokaId": 1000000536014,
        "HotelName": "Emis Hotel",
        "Country": "Vietnam",
        "City": "Phu Quoc",
        "Address": "Group 5, Suoi May Hamlet, Duong To",
        "Lat": 10.17898,
        "Lng": 103.983968
    },
    {
        "TravelLokaId": 1000000547235,
        "HotelName": "Tahiti Resort",
        "Country": "Vietnam",
        "City": "Phu Quoc",
        "Address": "90 Tran Hung Dao, Duong Dong Town",
        "Lat": 10.203112,
        "Lng": 103.964099
    },
    {
        "TravelLokaId": 1000000554716,
        "HotelName": "Thien Phu Nghia Guest House",
        "Country": "Vietnam",
        "City": "Phu Quoc",
        "Address": "174/1, 30/4 Street, Duong Dong Town (Nhà Nghỉ Thiên Phú Nghĩa)",
        "Lat": 10.2155832,
        "Lng": 103.9731627
    },
    {
        "TravelLokaId": 1000000561052,
        "HotelName": "Phi Phung Hotel",
        "Country": "Vietnam",
        "City": "Tan Binh District",
        "Address": "297 Le Van Sy",
        "Lat": 10.7947424,
        "Lng": 106.6675204
    },
    {
        "TravelLokaId": 1000000572379,
        "HotelName": "Nhat Vy Hotel Dalat",
        "Country": "Vietnam",
        "City": "Da Lat",
        "Address": "12 Hoang Hoa Tham",
        "Lat": 11.938917,
        "Lng": 108.46292
    },
    {
        "TravelLokaId": 1000000590995,
        "HotelName": "The Field Homestay",
        "Country": "Vietnam",
        "City": "Hoi An",
        "Address": "Group 3, Thanh Nhut, Cam Thanh 2",
        "Lat": 15.8755755,
        "Lng": 108.363072
    },
    {
        "TravelLokaId": 1000000593877,
        "HotelName": "Thanh Hoang Chau Hotel",
        "Country": "Vietnam",
        "City": "Hai Chau District",
        "Address": "56 Hoang Dieu",
        "Lat": 16.065022,
        "Lng": 108.219027
    },
    {
        "TravelLokaId": 1000000601300,
        "HotelName": "Up Village Phu Quoc",
        "Country": "Vietnam",
        "City": "Phu Quoc",
        "Address": "Area 4, Cua Lap, Duong To, Duong Dong, Phu Quoc, Vietnam",
        "Lat": 10.187523,
        "Lng": 103.968805
    },
    {
        "TravelLokaId": 1000000604327,
        "HotelName": "Hanoi Amore Hotel & Travel",
        "Country": "Vietnam",
        "City": "Thanh Xuan District",
        "Address": "105 Vu Tong Phan Street",
        "Lat": 20.99667164,
        "Lng": 105.816568136
    },
    {
        "TravelLokaId": 1000000617879,
        "HotelName": "Star City Riverside Hotel by Haviland",
        "Country": "Vietnam",
        "City": "Son Tra District",
        "Address": "147-149 Tran Hung Dao",
        "Lat": 16.08429,
        "Lng": 108.228952
    },
    {
        "TravelLokaId": 1000000797741,
        "HotelName": "iBeach Apartment - Muong Thanh Vien Trieu",
        "Country": "Vietnam",
        "City": "Nha Trang",
        "Address": "3 -5 Pham Van Dong",
        "Lat": 12.2742607,
        "Lng": 109.2018644
    },
    {
        "TravelLokaId": 1000000910850,
        "HotelName": "Justay Luxury Apartment Da Nang",
        "Country": "Vietnam",
        "City": "Son Tra District",
        "Address": "120 Vo Nguyen Giap",
        "Lat": 16.077626,
        "Lng": 108.2452123
    },
    {
        "TravelLokaId": 2000000200388,
        "HotelName": "Moon View Hotel 2",
        "Country": "Vietnam",
        "City": "Ba Dinh District",
        "Address": "61 Hang Than",
        "Lat": 21.041597,
        "Lng": 105.847627
    },
    {
        "TravelLokaId": 2000000261755,
        "HotelName": "Hoang Ngoc Hotel 2",
        "Country": "Vietnam",
        "City": "Hai Ba Trung District",
        "Address": "19 Nguyen Thuong Hien",
        "Lat": 21.018852,
        "Lng": 105.842697
    },
    {
        "TravelLokaId": 2000000285030,
        "HotelName": "Ruby Hotel Nha Trang",
        "Country": "Vietnam",
        "City": "Nha Trang",
        "Address": "14 Tran Phu",
        "Lat": 12.2197514,
        "Lng": 109.2039647
    },
    {
        "TravelLokaId": 3000010019060,
        "HotelName": "Thanh Thu Hotel",
        "Country": "Vietnam",
        "City": "District 1",
        "Address": "34 Nguyen An Ninh",
        "Lat": 10.773292,
        "Lng": 106.696873
    },
    {
        "TravelLokaId": 3000010019123,
        "HotelName": "Bach Mai Hotel",
        "Country": "Vietnam",
        "City": "District 1",
        "Address": "152 Cong Quynh",
        "Lat": 10.765768,
        "Lng": 106.691569
    },
    {
        "TravelLokaId": 3000010019448,
        "HotelName": "Villa Sim",
        "Country": "Vietnam",
        "City": "Dong Hoi City",
        "Address": "Vo Nguyen Giap Street",
        "Lat": 17.459748,
        "Lng": 106.644432
    },
    {
        "TravelLokaId": 3000010019901,
        "HotelName": "Hoa Sen Hotel Da Lat 62",
        "Country": "Vietnam",
        "City": "Da Lat",
        "Address": "62 Phan Dinh Phung",
        "Lat": 11.944745,
        "Lng": 108.43647
    },
    {
        "TravelLokaId": 3000010019913,
        "HotelName": "Phuong Hoang Hotel",
        "Country": "Vietnam",
        "City": "Van Don District",
        "Address": "Dong Nam Village, Quan Lan, Van Đon",
        "Lat": 20.876302061,
        "Lng": 107.490930175
    },
    {
        "TravelLokaId": 3000010020308,
        "HotelName": "Queen Bee Hotel",
        "Country": "Vietnam",
        "City": "District 7",
        "Address": "R4- 27,28 Hung Gia 5 St., PMH, Dist. 7",
        "Lat": 10.7323992,
        "Lng": 106.7077534
    },
    {
        "TravelLokaId": 3000010020491,
        "HotelName": "Trang Nhung Hotel Vung Tau",
        "Country": "Vietnam",
        "City": "Vung Tau City",
        "Address": "49 La Van Cau",
        "Lat": 10.33869,
        "Lng": 107.0891545
    },
    {
        "TravelLokaId": 3000010020513,
        "HotelName": "Organic Garden Hostel",
        "Country": "Vietnam",
        "City": "Da Lat",
        "Address": "23 Thien Y street",
        "Lat": 11.937971,
        "Lng": 108.424694
    },
    {
        "TravelLokaId": 3000010020523,
        "HotelName": "Gia Loi Hotel",
        "Country": "Vietnam",
        "City": "Lien Chieu District",
        "Address": "492 Kinh Duong Vuong",
        "Lat": 16.0821533,
        "Lng": 108.1585236
    },
    {
        "TravelLokaId": 3000010021220,
        "HotelName": "Bui Hostel",
        "Country": "Vietnam",
        "City": "Rach Gia City",
        "Address": "236 Nguyen Hung Son",
        "Lat": 10.0081028,
        "Lng": 105.0801248
    },
    {
        "TravelLokaId": 3000010021359,
        "HotelName": "Rung Hoa Hotel Dalat",
        "Country": "Vietnam",
        "City": "Da Lat",
        "Address": "7A/1 Mai Anh Dao",
        "Lat": 11.981497,
        "Lng": 108.453216
    },
    {
        "TravelLokaId": 3000010021535,
        "HotelName": "Ngoc Chau Hotel Dalat",
        "Country": "Vietnam",
        "City": "Da Lat",
        "Address": "23 Nam Ky Khoi Nghia, Ward 1",
        "Lat": 11.9405842,
        "Lng": 108.43582
    },
    {
        "TravelLokaId": 3000010021536,
        "HotelName": "Bostand 2 Hotel Danang",
        "Country": "Vietnam",
        "City": "Son Tra District",
        "Address": "91 Ha Bong",
        "Lat": 16.066176,
        "Lng": 108.244458
    },
    {
        "TravelLokaId": 3000010021603,
        "HotelName": "Thanh Van Hostel",
        "Country": "Vietnam",
        "City": "Son Tra District",
        "Address": "05 Le Duc Tho",
        "Lat": 16.104420636,
        "Lng": 108.25557375
    },
    {
        "TravelLokaId": 3000010021636,
        "HotelName": "Sapa May Ho Hotel",
        "Country": "Vietnam",
        "City": "Sa Pa District",
        "Address": "5 Kim Dong Street",
        "Lat": 22.337551,
        "Lng": 103.847786
    },
    {
        "TravelLokaId": 3000010021637,
        "HotelName": "Furuya House",
        "Country": "Vietnam",
        "City": "Ba Dinh District",
        "Address": "No 12, Alley 71, Linh Lang",
        "Lat": 21.0336656,
        "Lng": 105.8103251
    },
    {
        "TravelLokaId": 3000010021641,
        "HotelName": "Sen Vang Hotel",
        "Country": "Vietnam",
        "City": "Son Tra District",
        "Address": "173 Ho Nghinh",
        "Lat": 16.0661712,
        "Lng": 108.2432793
    },
    {
        "TravelLokaId": 3000010021675,
        "HotelName": "Sunna Hotel Danang",
        "Country": "Vietnam",
        "City": "Son Tra District",
        "Address": "27 Duong Dinh Nghe, Phuoc My",
        "Lat": 16.068691,
        "Lng": 108.243517
    },
    {
        "TravelLokaId": 3000010021719,
        "HotelName": "Son Hien Hotel Cam Ranh",
        "Country": "Vietnam",
        "City": "Nha Trang",
        "Address": "Highway 1A",
        "Lat": 12.083929,
        "Lng": 109.154808
    },
    {
        "TravelLokaId": 3000010021749,
        "HotelName": "Beepub",
        "Country": "Vietnam",
        "City": "Da Lat",
        "Address": "74 Truong Cong Dinh",
        "Lat": 11.944732,
        "Lng": 108.434846
    },
    {
        "TravelLokaId": 3000010021759,
        "HotelName": "Phu Nguyen Hotel",
        "Country": "Vietnam",
        "City": "Nha Trang",
        "Address": "02 Phan Phu Tien",
        "Lat": 12.281757,
        "Lng": 109.19942
    },
    {
        "TravelLokaId": 3000010021783,
        "HotelName": "O La Guest House",
        "Country": "Vietnam",
        "City": "Hoi An",
        "Address": "12 Tran Binh Trong, Cam Chau",
        "Lat": 15.8829517,
        "Lng": 108.3482677
    },
    {
        "TravelLokaId": 3000010022001,
        "HotelName": "Hai Khanh Hotel",
        "Country": "Vietnam",
        "City": "Hai Duong City",
        "Address": "100 Ham Nghi Street,",
        "Lat": 20.9299772,
        "Lng": 106.3370079
    },
    {
        "TravelLokaId": 3000010022008,
        "HotelName": "Golden Sun Sapa",
        "Country": "Vietnam",
        "City": "Sa Pa District",
        "Address": "075 Thach Son Street",
        "Lat": 22.336238,
        "Lng": 103.846058
    },
    {
        "TravelLokaId": 3000010022046,
        "HotelName": "Kim Quang Apartment",
        "Country": "Vietnam",
        "City": "Vung Tau City",
        "Address": "Kim To Tower, Hoa Hong Street, Phuoc Tinh",
        "Lat": 10.407518773,
        "Lng": 107.19396743
    },
    {
        "TravelLokaId": 3000010022138,
        "HotelName": "The Opera Hotel Hai Phong",
        "Country": "Vietnam",
        "City": "Hong Bang District",
        "Address": "20B Minh Khai, Hoang Van Thu, Hong Bang",
        "Lat": 20.860817,
        "Lng": 106.685084
    },
    {
        "TravelLokaId": 3000010022260,
        "HotelName": "Phuong Nam Hotel Dien Bien",
        "Country": "Vietnam",
        "City": "Dien Bien Phu City",
        "Address": "211 Group 3",
        "Lat": 21.397299,
        "Lng": 103.019125
    },
    {
        "TravelLokaId": 3000010022269,
        "HotelName": "Hoa Dao Hotel",
        "Country": "Vietnam",
        "City": "Hoa Binh City",
        "Address": "Le Thanh Ton",
        "Lat": 20.8281145,
        "Lng": 105.3376169
    },
    {
        "TravelLokaId": 3000010022421,
        "HotelName": "Kim Quang Villa",
        "Country": "Vietnam",
        "City": "Vung Tau City",
        "Address": "B27 Hoa Sen, Kim To Villa, Phuoc Tinh",
        "Lat": 10.405988328,
        "Lng": 107.193973017
    },
    {
        "TravelLokaId": 3000010022539,
        "HotelName": "Cong Doan Danang Hotel (Danang Trade Union Hotel)",
        "Country": "Vietnam",
        "City": "Hai Chau District",
        "Address": "50 Pasteur Street",
        "Lat": 16.069738,
        "Lng": 108.218032
    },
    {
        "TravelLokaId": 3000010022559,
        "HotelName": "DLGL Dung Quat Hotel",
        "Country": "Vietnam",
        "City": "Binh Son District",
        "Address": "Doc Soi, Dung Quat",
        "Lat": 15.368312,
        "Lng": 108.725645
    },
    {
        "TravelLokaId": 3000010022562,
        "HotelName": "Nu Hotel",
        "Country": "Vietnam",
        "City": "District 1",
        "Address": "18 Bui Vien",
        "Lat": 10.76793,
        "Lng": 106.694853
    },
    {
        "TravelLokaId": 3000010022597,
        "HotelName": "Tan Truong Son Hotel",
        "Country": "Vietnam",
        "City": "Dong Hoi City",
        "Address": "34 Mac Dinh Chi Street",
        "Lat": 17.46049,
        "Lng": 106.624679
    },
    {
        "TravelLokaId": 3000010022623,
        "HotelName": "Hoa Binh 2 Hotel",
        "Country": "Vietnam",
        "City": "Hoa Binh City",
        "Address": "395 An Duong Vuong",
        "Lat": 20.804298,
        "Lng": 105.335334
    },
    {
        "TravelLokaId": 3000010022652,
        "HotelName": "Hanoi New Airport Hotel",
        "Country": "Vietnam",
        "City": "Soc Son District",
        "Address": "Thon Dong, Phu Minh, Soc Son",
        "Lat": 21.193019,
        "Lng": 105.830486
    },
    {
        "TravelLokaId": 3000010022679,
        "HotelName": "Eden Hotel Go Vap",
        "Country": "Vietnam",
        "City": "Go Vap District",
        "Address": "182/45 Le Duc Tho Street, Ward 6, Go Vap",
        "Lat": 10.826856,
        "Lng": 106.691736
    },
    {
        "TravelLokaId": 3000010022780,
        "HotelName": "Bach Duong Hotel - Doi Can",
        "Country": "Vietnam",
        "City": "Ba Dinh District",
        "Address": "459 Doi Can",
        "Lat": 21.037713,
        "Lng": 105.809668
    },
    {
        "TravelLokaId": 3000010022892,
        "HotelName": "Hoan Kiem Hotel",
        "Country": "Vietnam",
        "City": "Hue City",
        "Address": "1 Nguyen Sinh Sac",
        "Lat": 16.475858,
        "Lng": 107.602972
    },
    {
        "TravelLokaId": 3000010023005,
        "HotelName": "Hung Vuong Hotel Phu Yen",
        "Country": "Vietnam",
        "City": "Tuy Hoa City",
        "Address": "239-241 Hung Vuong Street",
        "Lat": 13.101476,
        "Lng": 109.308638
    },
    {
        "TravelLokaId": 3000010023094,
        "HotelName": "Hung Vuong Hotel Quang Ngai",
        "Country": "Vietnam",
        "City": "Quang Ngai City",
        "Address": "45 Hung Vuong Street",
        "Lat": 15.123423,
        "Lng": 108.802554
    },
    {
        "TravelLokaId": 3000010023189,
        "HotelName": "Little House Apartment",
        "Country": "Vietnam",
        "City": "Hoi An",
        "Address": "Group 2, Vong Nhi Village, Cam Thanh Ward",
        "Lat": 15.879372,
        "Lng": 108.362636
    },
    {
        "TravelLokaId": 3000010023389,
        "HotelName": "My Kim Hotel Dalat",
        "Country": "Vietnam",
        "City": "Da Lat",
        "Address": "9 Tran Le",
        "Lat": 11.9377529,
        "Lng": 108.428747
    },
    {
        "TravelLokaId": 3000010023459,
        "HotelName": "Kim Lien Hotel",
        "Country": "Vietnam",
        "City": "Dong Da District",
        "Address": "5 - 7 Dao Duy Anh",
        "Lat": 21.008641,
        "Lng": 105.838535
    },
    {
        "TravelLokaId": 3000010023539,
        "HotelName": "Dong Kinh 2 Hotel",
        "Country": "Vietnam",
        "City": "District 5",
        "Address": "102/4 Tran Tuan Khai Street",
        "Lat": 10.752155,
        "Lng": 106.677213
    },
    {
        "TravelLokaId": 3000010023550,
        "HotelName": "Anh Dao Hotel Da Lat",
        "Country": "Vietnam",
        "City": "Da Lat",
        "Address": "50-52 Hoa Binh Zone",
        "Lat": 11.943821,
        "Lng": 108.436195
    },
    {
        "TravelLokaId": 3000010023792,
        "HotelName": "Thang Muoi Hotel",
        "Country": "Vietnam",
        "City": "Vung Tau City",
        "Address": "151 Thuy Van, Ward 2",
        "Lat": 10.339567,
        "Lng": 107.092096
    },
    {
        "TravelLokaId": 3000010023913,
        "HotelName": "Bich Dao Boutique Dalat",
        "Country": "Vietnam",
        "City": "Da Lat",
        "Address": "8 Trieu Viet Vuong, Ward 4",
        "Lat": 11.928905,
        "Lng": 108.432418
    },
    {
        "TravelLokaId": 3000010023915,
        "HotelName": "Smile House",
        "Country": "Vietnam",
        "City": "District 3",
        "Address": "21/20 Ly Chinh Thang",
        "Lat": 10.790137,
        "Lng": 106.687361
    },
    {
        "TravelLokaId": 3000010024030,
        "HotelName": "Hanoi Hotel Son La",
        "Country": "Vietnam",
        "City": "Son La city",
        "Address": "228 Truong Chinh Street",
        "Lat": 21.32904,
        "Lng": 103.910688
    },
    {
        "TravelLokaId": 3000010024033,
        "HotelName": "Le Soleil Residences",
        "Country": "Vietnam",
        "City": "District 7",
        "Address": "259 Le Van Luong Dist 7",
        "Lat": 10.744445005,
        "Lng": 106.701767046
    },
    {
        "TravelLokaId": 3000010024054,
        "HotelName": "Cuc Phuong Resort",
        "Country": "Vietnam",
        "City": "Nho Quan District",
        "Address": "Dong Tam Village, Cuc Phuong, Nho Quan",
        "Lat": 20.253696,
        "Lng": 105.740595
    },
    {
        "TravelLokaId": 3000010024074,
        "HotelName": "Kim Dung Hotel",
        "Country": "Vietnam",
        "City": "Ha Long City",
        "Address": "20, Cao Đạt, Cai Dam",
        "Lat": 20.970653,
        "Lng": 107.019586
    },
    {
        "TravelLokaId": 3000010024088,
        "HotelName": "Sapa Travel Hotel",
        "Country": "Vietnam",
        "City": "Sa Pa District",
        "Address": "17 Thac Bac Street",
        "Lat": 22.335184,
        "Lng": 103.84137
    },
    {
        "TravelLokaId": 3000010024114,
        "HotelName": "ATS Hotel",
        "Country": "Vietnam",
        "City": "Hoan Kiem District",
        "Address": "33B Pham Ngu Lao str.",
        "Lat": 21.020729,
        "Lng": 105.860653
    },
    {
        "TravelLokaId": 3000010024303,
        "HotelName": "Hy Vong Hotel",
        "Country": "Vietnam",
        "City": "District 9",
        "Address": "49 Street 154",
        "Lat": 10.867605,
        "Lng": 106.806411
    },
    {
        "TravelLokaId": 3000010024309,
        "HotelName": "Golden Quang Tri Hotel",
        "Country": "Vietnam",
        "City": "Dong Ha City",
        "Address": "295 - 297 Le Duan",
        "Lat": 16.815223565,
        "Lng": 107.110463083
    },
    {
        "TravelLokaId": 3000010024310,
        "HotelName": "Gowhere Hanoi Hostel",
        "Country": "Vietnam",
        "City": "Dong Da District",
        "Address": "1B Quoc Tu Giam",
        "Lat": 21.0260089,
        "Lng": 105.838205
    },
    {
        "TravelLokaId": 3000010024344,
        "HotelName": "Thuy Loi BnB Homestay",
        "Country": "Vietnam",
        "City": "Hoi An",
        "Address": "14 Nguyen Tat Thanh, Tan An",
        "Lat": 15.886021,
        "Lng": 108.321671
    },
    {
        "TravelLokaId": 3000010024345,
        "HotelName": "Lifestyle Homestay",
        "Country": "Vietnam",
        "City": "Phu Quoc",
        "Address": "Tran Hung Dao, Quarter 7, Duong Dong Town",
        "Lat": 10.231299,
        "Lng": 103.967716
    },
    {
        "TravelLokaId": 3000010024375,
        "HotelName": "Thien Phu Hotel Sapa",
        "Country": "Vietnam",
        "City": "Sa Pa District",
        "Address": "6 Thach Son",
        "Lat": 22.336347,
        "Lng": 103.84684
    },
    {
        "TravelLokaId": 3000010024444,
        "HotelName": "Rose Hotel Danang",
        "Country": "Vietnam",
        "City": "Thanh Khe District",
        "Address": "326-328 Nguyen Van Linh",
        "Lat": 16.0589324,
        "Lng": 108.2065917
    },
    {
        "TravelLokaId": 3000010024537,
        "HotelName": "Hai Yen Luxury Hotel",
        "Country": "Vietnam",
        "City": "Cam Pha City",
        "Address": "400 Trần Phú, Cẩm Trung",
        "Lat": 21.009609,
        "Lng": 107.271704
    },
    {
        "TravelLokaId": 3000010024576,
        "HotelName": "Saigon Pearl Hotel - Hoang Quoc Viet",
        "Country": "Vietnam",
        "City": "Cau Giay District",
        "Address": "19/26 Hoang Quoc Viet",
        "Lat": 21.046916,
        "Lng": 105.798317
    },
    {
        "TravelLokaId": 3000010024595,
        "HotelName": "Saigon Pearl Hotel - Kim Lien",
        "Country": "Vietnam",
        "City": "Dong Da District",
        "Address": "No 12 Street 83, Xa Dan Ward",
        "Lat": 21.012514,
        "Lng": 105.835321
    },
    {
        "TravelLokaId": 3000010024621,
        "HotelName": "Saigon Pearl Hotel - Pham Hung",
        "Country": "Vietnam",
        "City": "Nam Tu Liem District",
        "Address": "No 4, E4-X2 Pham Hung, My Dinh",
        "Lat": 21.0249967,
        "Lng": 105.7788415
    },
    {
        "TravelLokaId": 3000010024626,
        "HotelName": "Saigon Pearl Palace - Tran Quoc Hoan",
        "Country": "Vietnam",
        "City": "Cau Giay District",
        "Address": "37 Tran Quoc Hoan",
        "Lat": 21.041935,
        "Lng": 105.786464
    },
    {
        "TravelLokaId": 3000010024654,
        "HotelName": "Bamboo Homestay",
        "Country": "Vietnam",
        "City": "Hoi An",
        "Address": "Group 4, Son Pho 2, Tran Binh Trong, Cam Chau,",
        "Lat": 15.882954,
        "Lng": 108.3484854
    },
    {
        "TravelLokaId": 3000010024669,
        "HotelName": "Hai Van Hotel",
        "Country": "Vietnam",
        "City": "Dien Bien Phu City",
        "Address": "488 Vo Nguyen Giap, Him Lam",
        "Lat": 21.4059794,
        "Lng": 103.0315822
    },
    {
        "TravelLokaId": 3000010024677,
        "HotelName": "Tran Gia - Gia Loc Hotel",
        "Country": "Vietnam",
        "City": "Hoang Mai District",
        "Address": "No.12, 158 Alley, Giap Bat Street (No.19, Kim Dong Alley)",
        "Lat": 20.985315,
        "Lng": 105.843549
    },
    {
        "TravelLokaId": 3000010024679,
        "HotelName": "Phuong Tung Hotel",
        "Country": "Vietnam",
        "City": "Da Lat",
        "Address": "25 Thu Khoa Huan",
        "Lat": 11.941372,
        "Lng": 108.434429
    },
    {
        "TravelLokaId": 3000010024777,
        "HotelName": "Hoa Giay Hotel",
        "Country": "Vietnam",
        "City": "Nha Trang",
        "Address": "78/33 Tue Tinh",
        "Lat": 12.2314559,
        "Lng": 109.195689
    },
    {
        "TravelLokaId": 3000010024791,
        "HotelName": "Tropicana Beach Resort",
        "Country": "Vietnam",
        "City": "Vung Tau City",
        "Address": "Road 44A, Phuoc Hai",
        "Lat": 10.406862,
        "Lng": 107.278902
    },
    {
        "TravelLokaId": 3000010024811,
        "HotelName": "Ngoc Han Hotel Cau Giay",
        "Country": "Vietnam",
        "City": "Cau Giay District",
        "Address": "No.64 Lane 186 Tran Duy Hung, Trung Hoa",
        "Lat": 21.008126,
        "Lng": 105.795883
    },
    {
        "TravelLokaId": 3000010024812,
        "HotelName": "New Land House 7",
        "Country": "Vietnam",
        "City": "Cau Giay District",
        "Address": "No 147A, Lane 90 Hoang Ngan, Trung Hoa",
        "Lat": 21.010038,
        "Lng": 105.803817
    },
    {
        "TravelLokaId": 3000010024925,
        "HotelName": "Thanh Tan Hotel",
        "Country": "Vietnam",
        "City": "District 12",
        "Address": "R30, No. 15",
        "Lat": 10.8257884,
        "Lng": 106.6188665
    },
    {
        "TravelLokaId": 3000010024952,
        "HotelName": "Thuy Dung Sapa",
        "Country": "Vietnam",
        "City": "Sa Pa District",
        "Address": "15 hoang van thu",
        "Lat": 22.3362765,
        "Lng": 103.8452474
    },
    {
        "TravelLokaId": 3000010024958,
        "HotelName": "Vanda Hotel Nha Trang",
        "Country": "Vietnam",
        "City": "Nha Trang",
        "Address": "189/4 Tran Phu",
        "Lat": 12.218499,
        "Lng": 109.204697
    },
    {
        "TravelLokaId": 3000010025006,
        "HotelName": "Green Suites 2 Hotel",
        "Country": "Vietnam",
        "City": "District 1",
        "Address": "61 Do Quang Dau",
        "Lat": 10.767102,
        "Lng": 106.690526
    },
    {
        "TravelLokaId": 3000010025024,
        "HotelName": "Son Vu Hotel",
        "Country": "Vietnam",
        "City": "Ngo Quyen District",
        "Address": "177-179 Van Cao Street",
        "Lat": 20.836666,
        "Lng": 106.701243
    },
    {
        "TravelLokaId": 3000010025026,
        "HotelName": "Rose Hotel Hai Phong",
        "Country": "Vietnam",
        "City": "Ngo Quyen District",
        "Address": "No 36, Alley 384 Lach Tray Street",
        "Lat": 20.834038,
        "Lng": 106.696081
    },
    {
        "TravelLokaId": 3000010025034,
        "HotelName": "Vuon Hoa Hong (Rosary) Dalat",
        "Country": "Vietnam",
        "City": "Da Lat",
        "Address": "7/2 Hai Thuong Street",
        "Lat": 11.944185,
        "Lng": 108.430644
    },
    {
        "TravelLokaId": 3000010025042,
        "HotelName": "An Hung Lake View",
        "Country": "Vietnam",
        "City": "Ngo Quyen District",
        "Address": "49 Lach Tray",
        "Lat": 20.849406,
        "Lng": 106.689921
    },
    {
        "TravelLokaId": 3000010025051,
        "HotelName": "Mai Phai Hotel",
        "Country": "Vietnam",
        "City": "District 1",
        "Address": "209 Pham Ngu Lao",
        "Lat": 10.76836,
        "Lng": 106.693017
    },
    {
        "TravelLokaId": 3000010025085,
        "HotelName": "Anh Duong Noi Bai Hotel",
        "Country": "Vietnam",
        "City": "Me Linh District",
        "Address": "Dien Xa, Quang Tien, Soc Son",
        "Lat": 21.196708,
        "Lng": 105.780598
    },
    {
        "TravelLokaId": 3000010025121,
        "HotelName": "Icon 56 Apartment",
        "Country": "Vietnam",
        "City": "District 4",
        "Address": "56 Ben Van Don",
        "Lat": 10.7660826,
        "Lng": 106.7029869
    },
    {
        "TravelLokaId": 3000010025170,
        "HotelName": "Truly Ha Giang 1986",
        "Country": "Vietnam",
        "City": "Bac Quang District",
        "Address": "Quang Tien village",
        "Lat": 22.411227,
        "Lng": 104.8804893
    },
    {
        "TravelLokaId": 3000010025172,
        "HotelName": "Sapa Hotel - 01 Ngu Chi Son",
        "Country": "Vietnam",
        "City": "Sa Pa District",
        "Address": "01 Ngu Chi Son",
        "Lat": 22.336676,
        "Lng": 103.84418
    },
    {
        "TravelLokaId": 3000010025184,
        "HotelName": "Hai Au Hotel",
        "Country": "Vietnam",
        "City": "Vung Tau City",
        "Address": "124 Ha Long",
        "Lat": 10.333148,
        "Lng": 107.073594
    },
    {
        "TravelLokaId": 3000010025196,
        "HotelName": "Dong Viet Hotel",
        "Country": "Vietnam",
        "City": "Da Lat",
        "Address": "H23 Nguyen Thi Nghia, KQH Cong Vien Van Hoa",
        "Lat": 11.949204,
        "Lng": 108.440725
    },
    {
        "TravelLokaId": 3000010025218,
        "HotelName": "M Belle Hotel",
        "Country": "Vietnam",
        "City": "Tay Ho District",
        "Address": "133 Nghi Tam, Yen Phu",
        "Lat": 21.054301,
        "Lng": 105.837176
    },
    {
        "TravelLokaId": 3000010025228,
        "HotelName": "Lanani Hotel",
        "Country": "Vietnam",
        "City": "Da Lat",
        "Address": "07 Phan Dinh Phung Street",
        "Lat": 11.941639,
        "Lng": 108.432822
    },
    {
        "TravelLokaId": 3000010025230,
        "HotelName": "Thien Kim 2 Guesthouse Dalat",
        "Country": "Vietnam",
        "City": "Da Lat",
        "Address": "129 Ba Thang Hai",
        "Lat": 11.941161,
        "Lng": 108.432081
    },
    {
        "TravelLokaId": 3000010025241,
        "HotelName": "Long Beach Resort Phan Thiet",
        "Country": "Vietnam",
        "City": "Phan Thiet City",
        "Address": "Km 9, Tien Thanh Commune",
        "Lat": 10.847541,
        "Lng": 108.044338
    },
    {
        "TravelLokaId": 3000010025250,
        "HotelName": "Hoang Ngan Motel",
        "Country": "Vietnam",
        "City": "Vung Tau City",
        "Address": "57 Pho Duc Chinh",
        "Lat": 10.337711531,
        "Lng": 107.088823963
    },
    {
        "TravelLokaId": 3000010025300,
        "HotelName": "Bao An Hotel",
        "Country": "Vietnam",
        "City": "Dien Bien Phu City",
        "Address": "No 19, Group 12",
        "Lat": 21.386855,
        "Lng": 103.018773
    },
    {
        "TravelLokaId": 3000010025341,
        "HotelName": "Vi's Boutique Hotel",
        "Country": "Vietnam",
        "City": "Lang Son City",
        "Address": "185 Tran Dang Ninh str, Ward Tam Thanh",
        "Lat": 21.861712,
        "Lng": 106.754441
    },
    {
        "TravelLokaId": 3000010025347,
        "HotelName": "Bank Star Hotel",
        "Country": "Vietnam",
        "City": "Do Son District",
        "Address": "79 Ly Thanh Tong Street, Van Son, Do Son",
        "Lat": 20.712054,
        "Lng": 106.788481
    },
    {
        "TravelLokaId": 3000010025352,
        "HotelName": "Holiday Hotel Hai Phong",
        "Country": "Vietnam",
        "City": "Ngo Quyen District",
        "Address": "50/333 Van Cao, Dang Lam",
        "Lat": 20.8361011,
        "Lng": 106.7011455
    },
    {
        "TravelLokaId": 3000010025353,
        "HotelName": "Vu Homestay",
        "Country": "Vietnam",
        "City": "Huong Thuy Town",
        "Address": "Minh Mang Street",
        "Lat": 16.424755,
        "Lng": 107.579694
    },
    {
        "TravelLokaId": 3000010025376,
        "HotelName": "Venus Hotel",
        "Country": "Vietnam",
        "City": "Ha Long City",
        "Address": "Tay Hung Thang Villas Area",
        "Lat": 20.960901,
        "Lng": 106.993666
    },
    {
        "TravelLokaId": 3000010025381,
        "HotelName": "Golden Sand Hotel",
        "Country": "Vietnam",
        "City": "Phan Thiet City",
        "Address": "255 Nguyen Dinh Chieu, Ham Tien Ward",
        "Lat": 10.954990317,
        "Lng": 108.236515752
    },
    {
        "TravelLokaId": 3000010025456,
        "HotelName": "Cam Tu Cau Hotel Dalat",
        "Country": "Vietnam",
        "City": "Da Lat",
        "Address": "118 Nguyen Van Troi",
        "Lat": 11.948253,
        "Lng": 108.43723
    },
    {
        "TravelLokaId": 3000010025473,
        "HotelName": "Gio Bien Resort",
        "Country": "Vietnam",
        "City": "Vung Tau City",
        "Address": "6 Thuy Van",
        "Lat": 10.345601,
        "Lng": 107.097522
    },
    {
        "TravelLokaId": 3000010025494,
        "HotelName": "Phu Hung Noi Bai Hotel",
        "Country": "Vietnam",
        "City": "Me Linh District",
        "Address": "Vo Van Kiet, Dien Xa,Quang Tien, Soc Son",
        "Lat": 21.184636,
        "Lng": 105.780419
    },
    {
        "TravelLokaId": 3000010025516,
        "HotelName": "Bach An Lac Hotel Dalat",
        "Country": "Vietnam",
        "City": "Da Lat",
        "Address": "70 Nguyen Cong Tru Str",
        "Lat": 11.955675,
        "Lng": 108.440454
    },
    {
        "TravelLokaId": 3000010025517,
        "HotelName": "Calla LiLy Villa Dalat",
        "Country": "Vietnam",
        "City": "Da Lat",
        "Address": "D18 Vong Lam Vien",
        "Lat": 11.962591,
        "Lng": 108.475327
    },
    {
        "TravelLokaId": 3000010025531,
        "HotelName": "Eden Hotel Binh Thanh",
        "Country": "Vietnam",
        "City": "Binh Thanh District",
        "Address": "425 Le Quang Dinh, Ward 5, Binh Thanh District",
        "Lat": 10.81489,
        "Lng": 106.68931
    },
    {
        "TravelLokaId": 3000010025555,
        "HotelName": "Tan Anh Hotel",
        "Country": "Vietnam",
        "City": "Da Lat",
        "Address": "54 Nguyen Chi Thanh",
        "Lat": 11.940012,
        "Lng": 108.436314
    },
    {
        "TravelLokaId": 3000010025581,
        "HotelName": "Hoang Quan Hotel",
        "Country": "Vietnam",
        "City": "Da Lat",
        "Address": "9/1 Nguyen Van Cu",
        "Lat": 11.93949,
        "Lng": 108.432528
    },
    {
        "TravelLokaId": 3000010025588,
        "HotelName": "Sapa Rose Hotel",
        "Country": "Vietnam",
        "City": "Sa Pa District",
        "Address": "45A Thach Son Street",
        "Lat": 22.3363469,
        "Lng": 103.8468397
    },
    {
        "TravelLokaId": 3000010025601,
        "HotelName": "Hong Hai Hotel",
        "Country": "Vietnam",
        "City": "Da Lat",
        "Address": "42 Bui Thi Xuan",
        "Lat": 11.952223,
        "Lng": 108.439472
    },
    {
        "TravelLokaId": 3000010025612,
        "HotelName": "De Homestay and Coffee Dalat",
        "Country": "Vietnam",
        "City": "Da Lat",
        "Address": "84 Hai Ba Trung",
        "Lat": 11.954549,
        "Lng": 108.430291
    },
    {
        "TravelLokaId": 3000010025621,
        "HotelName": "Thang Loi 2 Hotel",
        "Country": "Vietnam",
        "City": "Da Lat",
        "Address": "65 Ba Thang Hai Street",
        "Lat": 11.941424,
        "Lng": 108.432192
    },
    {
        "TravelLokaId": 3000010025624,
        "HotelName": "De Homestay Vung Tau",
        "Country": "Vietnam",
        "City": "Vung Tau City",
        "Address": "207 Le Hong Phong Street",
        "Lat": 10.352293,
        "Lng": 107.089337
    },
    {
        "TravelLokaId": 3000010025647,
        "HotelName": "Hanoi Quang Binh Hotel",
        "Country": "Vietnam",
        "City": "Dong Hoi City",
        "Address": "36 Phan Chu Trinh Street",
        "Lat": 17.47816065,
        "Lng": 106.623652466
    },
    {
        "TravelLokaId": 3000010025682,
        "HotelName": "Da Lat Mint Homestay",
        "Country": "Vietnam",
        "City": "Da Lat",
        "Address": "10 Khe Sanh,Yellow Block, Khe Sanh Apartment",
        "Lat": 11.938411,
        "Lng": 108.460067
    },
    {
        "TravelLokaId": 3000010025700,
        "HotelName": "Hong Hoa Hotel Dalat",
        "Country": "Vietnam",
        "City": "Da Lat",
        "Address": "77 Bui Thi Xuan",
        "Lat": 11.945618,
        "Lng": 108.439308
    },
    {
        "TravelLokaId": 3000010025707,
        "HotelName": "Huong Tra Hotel",
        "Country": "Vietnam",
        "City": "Gia Vien District",
        "Address": "T - Junction, Gian Khau, Gia Tran, Gia Vien",
        "Lat": 20.33312,
        "Lng": 105.932395
    },
    {
        "TravelLokaId": 3000010025714,
        "HotelName": "Ho Nui Dinh Hotel",
        "Country": "Vietnam",
        "City": "Gia Vien District",
        "Address": "340 Bai Đính Cúc Phương Gia Sinh",
        "Lat": 20.28579,
        "Lng": 105.86245
    },
    {
        "TravelLokaId": 3000010025716,
        "HotelName": "Phu Thanh Hotel Cat Ba",
        "Country": "Vietnam",
        "City": "Cat Hai District",
        "Address": "No 176, 1-4 Street, Cat Ba Town",
        "Lat": 20.725752,
        "Lng": 107.046661
    },
    {
        "TravelLokaId": 3000010025724,
        "HotelName": "Monte Carlo Hotel",
        "Country": "Vietnam",
        "City": "Hai An District",
        "Address": "549 Nguyen Binh Khiem, Hai An",
        "Lat": 20.845506,
        "Lng": 106.712784
    },
    {
        "TravelLokaId": 3000010025748,
        "HotelName": "Phi Long Backpacker Hostel",
        "Country": "Vietnam",
        "City": "Nha Trang",
        "Address": "31/19E Biệt Thự, Tân Lập",
        "Lat": 12.235579,
        "Lng": 109.195123
    },
    {
        "TravelLokaId": 3000010025758,
        "HotelName": "Hai Duyen Hotel",
        "Country": "Vietnam",
        "City": "Da Lat",
        "Address": "124, 3/2 Road",
        "Lat": 11.94147,
        "Lng": 108.432178
    },
    {
        "TravelLokaId": 3000010025772,
        "HotelName": "Della Boutique Hotel",
        "Country": "Vietnam",
        "City": "District 1",
        "Address": "67 Ham Nghi Blvd",
        "Lat": 10.770505,
        "Lng": 106.704014
    },
    {
        "TravelLokaId": 3000010025778,
        "HotelName": "Cat Ba Central Hostel",
        "Country": "Vietnam",
        "City": "Cat Hai District",
        "Address": "No 240 1/4 Road, Cat Ba Town, Cat Ba Island,",
        "Lat": 20.722504,
        "Lng": 107.052144
    },
    {
        "TravelLokaId": 3000010025780,
        "HotelName": "Hoang Gia Minh Hotel",
        "Country": "Vietnam",
        "City": "Cat Hai District",
        "Address": "18-20 Nui Ngoc",
        "Lat": 20.725273,
        "Lng": 107.050229
    },
    {
        "TravelLokaId": 3000010025781,
        "HotelName": "Cindy Hotel and Suites",
        "Country": "Vietnam",
        "City": "Hong Bang District",
        "Address": "23-24 Nguyen Duc Canh Str, Le Chan Dist",
        "Lat": 20.85586,
        "Lng": 106.681194
    },
    {
        "TravelLokaId": 3000010025795,
        "HotelName": "Villa Kim Nga",
        "Country": "Vietnam",
        "City": "Da Lat",
        "Address": "9 Bis Lu Gia",
        "Lat": 11.950692,
        "Lng": 108.463951
    },
    {
        "TravelLokaId": 3000010025821,
        "HotelName": "Lien An Saigon Hotel",
        "Country": "Vietnam",
        "City": "District 1",
        "Address": "181 Le Thanh Ton",
        "Lat": 10.773595,
        "Lng": 106.698663
    },
    {
        "TravelLokaId": 3000010025838,
        "HotelName": "Cat Vy 1 Hostel",
        "Country": "Vietnam",
        "City": "Da Lat",
        "Address": "164A Phan Dinh Phung",
        "Lat": 11.946686,
        "Lng": 108.43514
    },
    {
        "TravelLokaId": 3000010025840,
        "HotelName": "Cat Vy Guest House",
        "Country": "Vietnam",
        "City": "Da Lat",
        "Address": "A22 Tran Le, Dalat Centre",
        "Lat": 11.937448,
        "Lng": 108.427872
    },
    {
        "TravelLokaId": 3000010025850,
        "HotelName": "Tay Ho Hotel Phan Thiet",
        "Country": "Vietnam",
        "City": "Phan Thiet City",
        "Address": "401 - 403 Tran Hung Dao",
        "Lat": 10.930176,
        "Lng": 108.105968
    },
    {
        "TravelLokaId": 3000010025858,
        "HotelName": "Bonita Grand Hotel",
        "Country": "Vietnam",
        "City": "District 5",
        "Address": "570-572 Tran Hung Dao, D5",
        "Lat": 10.755117,
        "Lng": 106.680394
    },
    {
        "TravelLokaId": 3000010025875,
        "HotelName": "Tara Apartments",
        "Country": "Vietnam",
        "City": "Phu Nhuan District",
        "Address": "17-19-21 Nguyen Van Troi, Ward 11",
        "Lat": 10.796212554,
        "Lng": 106.674310416
    },
    {
        "TravelLokaId": 3000010025890,
        "HotelName": "Hoang Viet 1 Hotel",
        "Country": "Vietnam",
        "City": "Da Lat",
        "Address": "22A Nguyen Chi Thanh, Ward 1",
        "Lat": 11.937226754,
        "Lng": 108.427405581
    },
    {
        "TravelLokaId": 3000010025908,
        "HotelName": "Tuan Vu Homestay",
        "Country": "Vietnam",
        "City": "Da Lat",
        "Address": "57 Tran Nhat Duat",
        "Lat": 11.945319,
        "Lng": 108.429403
    },
    {
        "TravelLokaId": 3000010025915,
        "HotelName": "Le Soleil - Penthouse District 7",
        "Country": "Vietnam",
        "City": "District 7",
        "Address": "259 Le Van Luong, Dist 7",
        "Lat": 10.744445005,
        "Lng": 106.701767046
    },
    {
        "TravelLokaId": 3000010025928,
        "HotelName": "Hotel Hoang Viet 2",
        "Country": "Vietnam",
        "City": "Da Lat",
        "Address": "5I Nam Ky Khoi Nghia",
        "Lat": 11.941877,
        "Lng": 108.435863
    },
    {
        "TravelLokaId": 3000010025942,
        "HotelName": "Le Soleil - Vietnam Charm Apartment District 7",
        "Country": "Vietnam",
        "City": "District 7",
        "Address": "259 Le Van Luong, Dist 7",
        "Lat": 10.744445005,
        "Lng": 106.701767046
    },
    {
        "TravelLokaId": 3000010025944,
        "HotelName": "Tulip Villa Hotel",
        "Country": "Vietnam",
        "City": "Cau Giay District",
        "Address": "Group 64",
        "Lat": 21.0232888,
        "Lng": 105.7955693
    },
    {
        "TravelLokaId": 3000010025945,
        "HotelName": "Hoang Viet 2 - Nguyen Chi Thanh",
        "Country": "Vietnam",
        "City": "Da Lat",
        "Address": "28 Nguyen Chi Thanh",
        "Lat": 11.939891,
        "Lng": 108.43561
    },
    {
        "TravelLokaId": 3000010025948,
        "HotelName": "The L'anmien Villa T89",
        "Country": "Vietnam",
        "City": "Da Lat",
        "Address": "231 Phu Dong Thien Vuong Street, Ward 8",
        "Lat": 11.964524,
        "Lng": 108.443279
    },
    {
        "TravelLokaId": 3000010025953,
        "HotelName": "Le Na Hotel",
        "Country": "Vietnam",
        "City": "Da Lat",
        "Address": "45 Hai Thuong, Ward 5, Dalat Centre",
        "Lat": 11.944081,
        "Lng": 108.430661
    },
    {
        "TravelLokaId": 3000010025968,
        "HotelName": "Dong Phuong Guest House",
        "Country": "Vietnam",
        "City": "Da Lat",
        "Address": "26 Nguyen Chi Thanh",
        "Lat": 11.941624,
        "Lng": 108.436371
    },
    {
        "TravelLokaId": 3000010025984,
        "HotelName": "Lotus Hotel Hai Duong",
        "Country": "Vietnam",
        "City": "Hai Duong City",
        "Address": "447 Truong Chinh, Thanh Binh Ward",
        "Lat": 20.928255,
        "Lng": 106.311324
    },
    {
        "TravelLokaId": 3000010025987,
        "HotelName": "Kim Son Hotel",
        "Country": "Vietnam",
        "City": "Da Lat",
        "Address": "14 Thong Thien Hoc",
        "Lat": 11.95234,
        "Lng": 108.438485
    },
    {
        "TravelLokaId": 3000010025988,
        "HotelName": "Ba That Resort",
        "Country": "Vietnam",
        "City": "La Gi Town",
        "Address": "Cach Mang Thang Tam",
        "Lat": 10.66987,
        "Lng": 107.789816
    },
    {
        "TravelLokaId": 3000010025996,
        "HotelName": "An Binh Guesthouse Ninh Binh",
        "Country": "Vietnam",
        "City": "Ninh Binh City",
        "Address": "01 Tran Hung Dao",
        "Lat": 20.268375,
        "Lng": 105.96842
    },
    {
        "TravelLokaId": 3000010026013,
        "HotelName": "Vu Nhi Hotel",
        "Country": "Vietnam",
        "City": "Da Lat",
        "Address": "12B Nam Ky Khoi Nghia",
        "Lat": 11.940541,
        "Lng": 108.435467
    },
    {
        "TravelLokaId": 3000010026029,
        "HotelName": "Ty Ty Guest House",
        "Country": "Vietnam",
        "City": "Da Lat",
        "Address": "68 Nam Ky Khoi Nghia",
        "Lat": 11.941872,
        "Lng": 108.435847
    },
    {
        "TravelLokaId": 3000010026037,
        "HotelName": "Kinh Do Hotel",
        "Country": "Vietnam",
        "City": "Ninh Binh City",
        "Address": "18 Phan Dinh Phung, Van Giang",
        "Lat": 20.255033,
        "Lng": 105.972829
    },
    {
        "TravelLokaId": 3000010026049,
        "HotelName": "Quynh Giao Hotel",
        "Country": "Vietnam",
        "City": "Da Lat",
        "Address": "12A Nam Ky Khoi Nghia",
        "Lat": 11.940775,
        "Lng": 108.434951
    },
    {
        "TravelLokaId": 3000010026051,
        "HotelName": "Gecko Hostel",
        "Country": "Vietnam",
        "City": "Vung Tau City",
        "Address": "75 Tran Dong Street",
        "Lat": 10.344119,
        "Lng": 107.082593
    },
    {
        "TravelLokaId": 3000010026094,
        "HotelName": "Cat Ba Mountain View Hotel",
        "Country": "Vietnam",
        "City": "Cat Hai District",
        "Address": "452 Ha Sen, Cat Ba",
        "Lat": 20.7385015,
        "Lng": 107.0322963
    },
    {
        "TravelLokaId": 3000010026108,
        "HotelName": "Royal Hotel Ninh Binh",
        "Country": "Vietnam",
        "City": "Ninh Binh City",
        "Address": "Khanh Minh",
        "Lat": 20.275452,
        "Lng": 105.964245
    },
    {
        "TravelLokaId": 3000010026113,
        "HotelName": "Saigon Hotel Ninh Binh",
        "Country": "Vietnam",
        "City": "Ninh Binh City",
        "Address": "305 Nguyen Hue, Nam Binh Ward",
        "Lat": 20.239242,
        "Lng": 105.970196
    },
    {
        "TravelLokaId": 3000010026119,
        "HotelName": "Kim Sang Guesthouse",
        "Country": "Vietnam",
        "City": "La Gi Town",
        "Address": "41 Thong Nhat Street",
        "Lat": 10.660233,
        "Lng": 107.772646
    },
    {
        "TravelLokaId": 3000010026129,
        "HotelName": "Hammock Homestay",
        "Country": "Vietnam",
        "City": "Hoi An",
        "Address": "Bai Lang, Tan Hiep, Cu Lao Cham Island",
        "Lat": 15.9571978,
        "Lng": 108.5073378
    },
    {
        "TravelLokaId": 3000010026170,
        "HotelName": "Viet Lotus Hotel",
        "Country": "Vietnam",
        "City": "Cat Hai District",
        "Address": "220 Nui Ngoc, Cat Ba Town",
        "Lat": 20.724511,
        "Lng": 107.050647
    },
    {
        "TravelLokaId": 3000010026173,
        "HotelName": "Trung Ha Hotel Dalat",
        "Country": "Vietnam",
        "City": "Da Lat",
        "Address": "65 Phan Nhu Thach",
        "Lat": 11.941764,
        "Lng": 108.434544
    },
    {
        "TravelLokaId": 3000010026192,
        "HotelName": "Pho Lanh Hotel Da Lat",
        "Country": "Vietnam",
        "City": "Da Lat",
        "Address": "59 Ha Huy Tap Street",
        "Lat": 11.932856,
        "Lng": 108.440997
    },
    {
        "TravelLokaId": 3000010026193,
        "HotelName": "Ba That Hotel",
        "Country": "Vietnam",
        "City": "La Gi Town",
        "Address": "25 Thong Nhat,",
        "Lat": 10.659763,
        "Lng": 107.774194
    },
    {
        "TravelLokaId": 3000010026203,
        "HotelName": "Sea Mountain Hotel",
        "Country": "Vietnam",
        "City": "Vung Tau City",
        "Address": "108/6 Tran Phu",
        "Lat": 10.363988,
        "Lng": 107.061966
    },
    {
        "TravelLokaId": 3000010026208,
        "HotelName": "Doi Duong Hotel",
        "Country": "Vietnam",
        "City": "Phan Thiet City",
        "Address": "209 Le Loi Street, Phu Thuy Ward",
        "Lat": 10.92462,
        "Lng": 108.114233
    },
    {
        "TravelLokaId": 3000010026228,
        "HotelName": "Da Lan Hotel",
        "Country": "Vietnam",
        "City": "Da Lat",
        "Address": "59 Nam Ky Khoi Nghia",
        "Lat": 11.940572,
        "Lng": 108.435009
    },
    {
        "TravelLokaId": 3000010026236,
        "HotelName": "Thanh Long Hotel Dalat",
        "Country": "Vietnam",
        "City": "Da Lat",
        "Address": "56 Nguyen Chi Thanh Street",
        "Lat": 11.940123,
        "Lng": 108.435915
    },
    {
        "TravelLokaId": 3000010026240,
        "HotelName": "Xuan Hoa 2 Hotel",
        "Country": "Vietnam",
        "City": "Ninh Binh City",
        "Address": "36 Vo Thi Sau, Nam Thanh Ward",
        "Lat": 20.260382,
        "Lng": 105.978569
    },
    {
        "TravelLokaId": 3000010026257,
        "HotelName": "Amis Hotel Vung Tau",
        "Country": "Vietnam",
        "City": "Vung Tau City",
        "Address": "147 – 149 Hoang Hoa Tham",
        "Lat": 10.336103,
        "Lng": 107.087193
    },
    {
        "TravelLokaId": 3000010026263,
        "HotelName": "Lagi Farmstay",
        "Country": "Vietnam",
        "City": "La Gi Town",
        "Address": "Nguyen Du Street, Tan Phuoc",
        "Lat": 10.646448,
        "Lng": 107.720668
    },
    {
        "TravelLokaId": 3000010026281,
        "HotelName": "Long Giang Hotel",
        "Country": "Vietnam",
        "City": "Dien Bien Phu City",
        "Address": "518 Vo Nguyen Giap, Group 21, Him Lam",
        "Lat": 21.397799,
        "Lng": 103.021461
    },
    {
        "TravelLokaId": 3000010026286,
        "HotelName": "Nam Phuong Hai Hotel",
        "Country": "Vietnam",
        "City": "Phan Thiet City",
        "Address": "549 - 551 - 553 Tran Hung Dao",
        "Lat": 10.940017,
        "Lng": 108.104211
    },
    {
        "TravelLokaId": 3000010026295,
        "HotelName": "Cabilagi Garden Resort",
        "Country": "Vietnam",
        "City": "La Gi Town",
        "Address": "Nguyen Du, Tan Phuoc Ward",
        "Lat": 10.633712,
        "Lng": 107.720147
    },
    {
        "TravelLokaId": 3000010026296,
        "HotelName": "Thao Minh New Star Hotel",
        "Country": "Vietnam",
        "City": "Cat Hai District",
        "Address": "197 1/4 Street",
        "Lat": 20.725338,
        "Lng": 107.048933
    },
    {
        "TravelLokaId": 3000010026304,
        "HotelName": "Misu Home",
        "Country": "Vietnam",
        "City": "District 1",
        "Address": "258/109 Tran Hung Dao",
        "Lat": 10.760858947,
        "Lng": 106.687497497
    },
    {
        "TravelLokaId": 3000010026305,
        "HotelName": "Thang Long Backpacker Hostel",
        "Country": "Vietnam",
        "City": "Cat Hai District",
        "Address": "313 Nui Ngoc",
        "Lat": 20.724106,
        "Lng": 107.050284
    },
    {
        "TravelLokaId": 3000010026352,
        "HotelName": "Villa Duy Thao 2",
        "Country": "Vietnam",
        "City": "Da Lat",
        "Address": "9B Phan Nhu Thach",
        "Lat": 11.9416,
        "Lng": 108.435251
    },
    {
        "TravelLokaId": 3000010026357,
        "HotelName": "Non Nuoc Hotel",
        "Country": "Vietnam",
        "City": "Ninh Binh City",
        "Address": "Zone 4, Dong Thanh",
        "Lat": 20.264067,
        "Lng": 105.978538
    },
    {
        "TravelLokaId": 3000010026362,
        "HotelName": "Hong Tam Hotel Dalat",
        "Country": "Vietnam",
        "City": "Da Lat",
        "Address": "12D Nam Ky Khoi Nghia",
        "Lat": 11.940534,
        "Lng": 108.435462
    },
    {
        "TravelLokaId": 3000010026364,
        "HotelName": "An Phuc Hotel",
        "Country": "Vietnam",
        "City": "Vung Tau City",
        "Address": "25/10 Tran Binh Trong",
        "Lat": 10.358157,
        "Lng": 107.09866
    },
    {
        "TravelLokaId": 3000010026365,
        "HotelName": "Duy Thao 3 Hotel",
        "Country": "Vietnam",
        "City": "Da Lat",
        "Address": "43 Yersin, Ward 10",
        "Lat": 11.949703,
        "Lng": 108.455843
    },
    {
        "TravelLokaId": 3000010026375,
        "HotelName": "Tam Coc Bamboo Homestay",
        "Country": "Vietnam",
        "City": "Hoa Lu District",
        "Address": "Civil group 1, Van Lam Hamlet",
        "Lat": 20.2200063,
        "Lng": 105.9394055
    },
    {
        "TravelLokaId": 3000010026382,
        "HotelName": "Milan Hotel",
        "Country": "Vietnam",
        "City": "Dong Da District",
        "Address": "30/157 Chua Lang",
        "Lat": 21.023324,
        "Lng": 105.802879
    },
    {
        "TravelLokaId": 3000010026384,
        "HotelName": "Trang Anh Sea View Hotel",
        "Country": "Vietnam",
        "City": "Cat Hai District",
        "Address": "175D Road 1/4, Cat Ba",
        "Lat": 20.725954,
        "Lng": 107.046946
    },
    {
        "TravelLokaId": 3000010026397,
        "HotelName": "La Pensee Hotel Dalat",
        "Country": "Vietnam",
        "City": "Da Lat",
        "Address": "83 Bui Thi Xuan",
        "Lat": 11.945936,
        "Lng": 108.439531
    },
    {
        "TravelLokaId": 3000010026416,
        "HotelName": "Kim Ngan Hotel Vung Tau",
        "Country": "Vietnam",
        "City": "Vung Tau City",
        "Address": "243 Le Hong Phong",
        "Lat": 10.356243,
        "Lng": 107.082938
    },
    {
        "TravelLokaId": 3000010026428,
        "HotelName": "Cat Ba Sunset Hotel",
        "Country": "Vietnam",
        "City": "Cat Hai District",
        "Address": "180 1/4 Street, Cat Ba island",
        "Lat": 20.725604,
        "Lng": 107.048019
    },
    {
        "TravelLokaId": 3000010026431,
        "HotelName": "Truly Lo Lo Chai",
        "Country": "Vietnam",
        "City": "Dong Van District",
        "Address": "Lo Lo Chai village, Lung Cu Flagpole",
        "Lat": 23.359068,
        "Lng": 105.304571
    },
    {
        "TravelLokaId": 3000010026455,
        "HotelName": "New Boutique Hotel",
        "Country": "Vietnam",
        "City": "District 1",
        "Address": "14 Ho Huan Nghiep Street",
        "Lat": 10.774611,
        "Lng": 106.705261
    },
    {
        "TravelLokaId": 3000010026463,
        "HotelName": "Ngan Tuan Hotel",
        "Country": "Vietnam",
        "City": "District 1",
        "Address": "55 Do Quang Dau",
        "Lat": 10.76727356,
        "Lng": 106.690734981
    },
    {
        "TravelLokaId": 3000010026504,
        "HotelName": "Kim Dung Hotel Saigon",
        "Country": "Vietnam",
        "City": "District 1",
        "Address": "184 Tran Quang Khai",
        "Lat": 10.791747,
        "Lng": 106.689688
    },
    {
        "TravelLokaId": 3000010026509,
        "HotelName": "Bao An Hotel Ninh Binh",
        "Country": "Vietnam",
        "City": "Ninh Binh City",
        "Address": "16 Ton Duc Thang",
        "Lat": 20.267179,
        "Lng": 105.976876
    },
    {
        "TravelLokaId": 3000010026510,
        "HotelName": "Van Hoa Hotel",
        "Country": "Vietnam",
        "City": "Ninh Binh City",
        "Address": "171 Tran Phu",
        "Lat": 20.24285,
        "Lng": 105.969153
    },
    {
        "TravelLokaId": 3000010026517,
        "HotelName": "Sand Garden Resort",
        "Country": "Vietnam",
        "City": "Phan Thiet City",
        "Address": "07-09 Nguyen Dinh Chieu Street",
        "Lat": 10.936966,
        "Lng": 108.188135
    },
    {
        "TravelLokaId": 3000010026523,
        "HotelName": "Nice House Hotel Danang",
        "Country": "Vietnam",
        "City": "Son Tra District",
        "Address": "206 Chinh Huu, Phuoc My, Son Tra",
        "Lat": 16.063532,
        "Lng": 108.2397132
    },
    {
        "TravelLokaId": 3000010026545,
        "HotelName": "Hue Thuong Hotel",
        "Country": "Vietnam",
        "City": "Hue City",
        "Address": "11 Chu Văn An",
        "Lat": 16.4694774,
        "Lng": 107.5934392
    },
    {
        "TravelLokaId": 3000010026559,
        "HotelName": "Vu Hoang Hotel Dalat",
        "Country": "Vietnam",
        "City": "Da Lat",
        "Address": "15 Phan Nhu Thach",
        "Lat": 11.9411978,
        "Lng": 108.4353628
    },
    {
        "TravelLokaId": 3000010026560,
        "HotelName": "Thang Loi BTX Hotel Dalat",
        "Country": "Vietnam",
        "City": "Da Lat",
        "Address": "101 Bui Thi Xuan",
        "Lat": 11.949596,
        "Lng": 108.438735
    },
    {
        "TravelLokaId": 3000010026581,
        "HotelName": "Thy Thu Hotel Dalat",
        "Country": "Vietnam",
        "City": "Da Lat",
        "Address": "12C Nam Ky Khoi Nghia",
        "Lat": 11.94058,
        "Lng": 108.434869
    },
    {
        "TravelLokaId": 3000010026592,
        "HotelName": "99 Hotel",
        "Country": "Vietnam",
        "City": "Tan Binh District",
        "Address": "99/143-145 Nguyen Thai Binh, Ward 4",
        "Lat": 10.801466,
        "Lng": 106.652597
    },
    {
        "TravelLokaId": 3000010026598,
        "HotelName": "Truly Dong Van No 24 Hotel",
        "Country": "Vietnam",
        "City": "Dong Van District",
        "Address": "No 24, Area 4",
        "Lat": 23.266241,
        "Lng": 105.364236
    },
    {
        "TravelLokaId": 3000010026599,
        "HotelName": "Sapa Accommodation",
        "Country": "Vietnam",
        "City": "Sa Pa District",
        "Address": "03 Hoang Dieu",
        "Lat": 22.3366309,
        "Lng": 103.8414994
    },
    {
        "TravelLokaId": 3000010026602,
        "HotelName": "Hoa Ban homestay",
        "Country": "Vietnam",
        "City": "Mai Chau District",
        "Address": "Ban Lac 2",
        "Lat": 20.652534,
        "Lng": 105.071365
    },
    {
        "TravelLokaId": 3000010026626,
        "HotelName": "Green Dalat Hotel",
        "Country": "Vietnam",
        "City": "Da Lat",
        "Address": "H49 Khu Quy Hoach Nguyen Thi Nghia",
        "Lat": 11.948365,
        "Lng": 108.440179
    },
    {
        "TravelLokaId": 3000010026636,
        "HotelName": "GK Home Apartment",
        "Country": "Vietnam",
        "City": "District 1",
        "Address": "28 Nguyen Van Cu",
        "Lat": 10.755628,
        "Lng": 106.686014
    },
    {
        "TravelLokaId": 3000010026637,
        "HotelName": "Lam Kieu Hotel",
        "Country": "Vietnam",
        "City": "Phan Thiet City",
        "Address": "255 Tran Hung Dao Street",
        "Lat": 10.934116,
        "Lng": 108.104213
    },
    {
        "TravelLokaId": 3000010026642,
        "HotelName": "Phuong Dong Hotel",
        "Country": "Vietnam",
        "City": "Phu Quoc",
        "Address": "19 Tran Hung Dao St., Phu Quoc, Kien Giang",
        "Lat": 10.213983,
        "Lng": 103.959087
    },
    {
        "TravelLokaId": 3000010026649,
        "HotelName": "Maccaca Phuc Thinh Hotel",
        "Country": "Vietnam",
        "City": "Da Lat",
        "Address": "67 Phan Nhu Thach",
        "Lat": 11.941811,
        "Lng": 108.434523
    },
    {
        "TravelLokaId": 3000010026657,
        "HotelName": "Phong Lan Hotel",
        "Country": "Vietnam",
        "City": "Cat Hai District",
        "Address": "No 214, 1/4 Street, Cat Ba island",
        "Lat": 20.725081,
        "Lng": 107.049088
    },
    {
        "TravelLokaId": 3000010026665,
        "HotelName": "Cat Ba Hostel",
        "Country": "Vietnam",
        "City": "Cat Hai District",
        "Address": "160 Nui Ngoc street, Cat Ba Island",
        "Lat": 20.72475,
        "Lng": 107.05265
    },
    {
        "TravelLokaId": 3000010026671,
        "HotelName": "Cat Ba Hotel",
        "Country": "Vietnam",
        "City": "Cat Hai District",
        "Address": "No 228 1/4 Street, Cat Ba island",
        "Lat": 20.724872,
        "Lng": 107.049343
    },
    {
        "TravelLokaId": 3000010026688,
        "HotelName": "Lara Homestay Phan Thiet",
        "Country": "Vietnam",
        "City": "La Gi Town",
        "Address": "Group 1, Temple Dunes area, Thanh Phong Hamlet",
        "Lat": 10.722724,
        "Lng": 107.888127
    },
    {
        "TravelLokaId": 3000010026689,
        "HotelName": "Phuong Vy 2 Hotel Dalat",
        "Country": "Vietnam",
        "City": "Da Lat",
        "Address": "8/8 Dao Duy Tu",
        "Lat": 11.934909136,
        "Lng": 108.433336613
    },
    {
        "TravelLokaId": 3000010026706,
        "HotelName": "Muine Home Hotel",
        "Country": "Vietnam",
        "City": "Phan Thiet City",
        "Address": "130D Nguyen Dinh Chieu Street, Ham Tien Ward",
        "Lat": 10.955005,
        "Lng": 108.23193
    },
    {
        "TravelLokaId": 3000010026713,
        "HotelName": "Queen Hotel",
        "Country": "Vietnam",
        "City": "Tan Binh District",
        "Address": "93 Lam Son",
        "Lat": 10.812396,
        "Lng": 106.667055
    },
    {
        "TravelLokaId": 3000010026715,
        "HotelName": "Long An Hotel",
        "Country": "Vietnam",
        "City": "Da Lat",
        "Address": "H27 -  Khu Quy Hoach Nguyen Thi Nghia",
        "Lat": 11.948365,
        "Lng": 108.440179
    },
    {
        "TravelLokaId": 3000010026724,
        "HotelName": "Bay Nghia Hotel",
        "Country": "Vietnam",
        "City": "Da Lat",
        "Address": "50 Phan Nhu Thach",
        "Lat": 11.941025,
        "Lng": 108.433403
    },
    {
        "TravelLokaId": 3000010026727,
        "HotelName": "Malibu Resort Mui Ne",
        "Country": "Vietnam",
        "City": "Phan Thiet City",
        "Address": "Area 5",
        "Lat": 10.942136,
        "Lng": 108.299152
    },
    {
        "TravelLokaId": 3000010026752,
        "HotelName": "Hai Uyen Hotel",
        "Country": "Vietnam",
        "City": "Da Lat",
        "Address": "67 Nam Ky Khoi Nghia",
        "Lat": 11.940463,
        "Lng": 108.434775
    },
    {
        "TravelLokaId": 3000010026755,
        "HotelName": "Tan Khanh Tien Hotel",
        "Country": "Vietnam",
        "City": "Thanh Khe District",
        "Address": "08 Ly Thai Tong, Thanh Khe Tay Ward",
        "Lat": 16.07552603,
        "Lng": 108.176087849
    },
    {
        "TravelLokaId": 3000010026787,
        "HotelName": "Quy Hoa Hotel Dalat",
        "Country": "Vietnam",
        "City": "Da Lat",
        "Address": "34 Tang Bat Ho",
        "Lat": 11.944315,
        "Lng": 108.434699
    },
    {
        "TravelLokaId": 3000010026789,
        "HotelName": "Bao Phuong Hotel Dalat",
        "Country": "Vietnam",
        "City": "Da Lat",
        "Address": "39 Nam Ky Khoi Nghia",
        "Lat": 11.940509,
        "Lng": 108.43502
    },
    {
        "TravelLokaId": 3000010026801,
        "HotelName": "Chau Ngan An Hotel Dalat",
        "Country": "Vietnam",
        "City": "Da Lat",
        "Address": "139 Bui Thi Xuan",
        "Lat": 11.948589,
        "Lng": 108.439397
    },
    {
        "TravelLokaId": 3000010026812,
        "HotelName": "Huong Sen Hotel Dalat",
        "Country": "Vietnam",
        "City": "Da Lat",
        "Address": "39 - 41 Phan Nhu Thach",
        "Lat": 11.941764,
        "Lng": 108.434544
    },
    {
        "TravelLokaId": 3000010026818,
        "HotelName": "Luu Thai Hien Guest House Dalat",
        "Country": "Vietnam",
        "City": "Da Lat",
        "Address": "97/3 Phan Boi Chau",
        "Lat": 11.9438676,
        "Lng": 108.4383862
    },
    {
        "TravelLokaId": 3000010026819,
        "HotelName": "Xuan Hong 2 Hotel",
        "Country": "Vietnam",
        "City": "Da Lat",
        "Address": "71 Nam Ky Khoi Nghia",
        "Lat": 11.940662,
        "Lng": 108.4345
    },
    {
        "TravelLokaId": 3000010026820,
        "HotelName": "Thanh Truc Hotel",
        "Country": "Vietnam",
        "City": "Da Lat",
        "Address": "75 Bui Thi Xuan",
        "Lat": 11.94591,
        "Lng": 108.439827
    },
    {
        "TravelLokaId": 3000010026827,
        "HotelName": "Phuong Uyen Hotel Dalat",
        "Country": "Vietnam",
        "City": "Da Lat",
        "Address": "28 Nguyen Van Troi",
        "Lat": 11.944984,
        "Lng": 108.435921
    },
    {
        "TravelLokaId": 3000010026828,
        "HotelName": "Hong Nhung Hotel",
        "Country": "Vietnam",
        "City": "Da Lat",
        "Address": "7 Bis Bui Thi Xuan",
        "Lat": 11.948626,
        "Lng": 108.438946
    },
    {
        "TravelLokaId": 3000010026829,
        "HotelName": "Hung Ha 1 Hotel",
        "Country": "Vietnam",
        "City": "Da Lat",
        "Address": "78 Nguyen Chi Thanh Street",
        "Lat": 11.939891,
        "Lng": 108.43561
    },
    {
        "TravelLokaId": 3000010026833,
        "HotelName": "Seaside Tuan Chau Hotel",
        "Country": "Vietnam",
        "City": "Ha Long City",
        "Address": "South Side, Tuan Chau Tourist Wharf",
        "Lat": 20.920644,
        "Lng": 106.991373
    },
    {
        "TravelLokaId": 3000010026834,
        "HotelName": "Xuan Quynh Hotel",
        "Country": "Vietnam",
        "City": "Da Lat",
        "Address": "3F Nam Ky Khoi Nghia",
        "Lat": 11.941904,
        "Lng": 108.435891
    },
    {
        "TravelLokaId": 3000010026843,
        "HotelName": "Hung Ha 2 Hotel",
        "Country": "Vietnam",
        "City": "Da Lat",
        "Address": "60 Hill 4, Phan Boi Chau",
        "Lat": 11.944557,
        "Lng": 108.438159
    },
    {
        "TravelLokaId": 3000010026849,
        "HotelName": "Bong Hong Hotel",
        "Country": "Vietnam",
        "City": "Da Lat",
        "Address": "163 Ba Thang Hai",
        "Lat": 11.939811,
        "Lng": 108.430863
    },
    {
        "TravelLokaId": 3000010026855,
        "HotelName": "Trieu Hao Guest House Dalat",
        "Country": "Vietnam",
        "City": "Da Lat",
        "Address": "129 Phan Boi Chau",
        "Lat": 11.943749,
        "Lng": 108.439463
    },
    {
        "TravelLokaId": 3000010026860,
        "HotelName": "Kieu Trang Hotel",
        "Country": "Vietnam",
        "City": "Da Lat",
        "Address": "11B Hai Ba Trung",
        "Lat": 11.944533,
        "Lng": 108.43308
    },
    {
        "TravelLokaId": 3000010026867,
        "HotelName": "Blue Sea Hotel",
        "Country": "Vietnam",
        "City": "Vung Tau City",
        "Address": "89 Thuy Van Street, Thang Tam Ward",
        "Lat": 10.350753,
        "Lng": 107.100947
    },
    {
        "TravelLokaId": 3000010026870,
        "HotelName": "Hijal House Hoi An Villa",
        "Country": "Vietnam",
        "City": "Hoi An",
        "Address": "11B Xuân Diệu, Tân An",
        "Lat": 15.8895785,
        "Lng": 108.3221749
    },
    {
        "TravelLokaId": 3000010026872,
        "HotelName": "Cat Ba Classic Sails",
        "Country": "Vietnam",
        "City": "Cat Hai District",
        "Address": "No 180  1/4 street, Cat Ba island",
        "Lat": 20.725604,
        "Lng": 107.048019
    },
    {
        "TravelLokaId": 3000010026873,
        "HotelName": "Tan Thien Nga Hotel",
        "Country": "Vietnam",
        "City": "Tan Binh District",
        "Address": "62/6 Truong Cong Dinh, Ward 14",
        "Lat": 10.801466,
        "Lng": 106.652597
    },
    {
        "TravelLokaId": 3000010026875,
        "HotelName": "Tien Thanh Hotel",
        "Country": "Vietnam",
        "City": "Da Lat",
        "Address": "38 Tran Phu, Ward 4",
        "Lat": 11.936882,
        "Lng": 108.439646
    },
    {
        "TravelLokaId": 3000010026885,
        "HotelName": "Dao Hung Hotel",
        "Country": "Vietnam",
        "City": "Tan Binh District",
        "Address": "44 Binh Gia",
        "Lat": 10.800166,
        "Lng": 106.644693
    },
    {
        "TravelLokaId": 3000010026889,
        "HotelName": "Sky Luck Hotel",
        "Country": "Vietnam",
        "City": "Vung Tau City",
        "Address": "12/3 Hoang Hoa Tham",
        "Lat": 10.340654,
        "Lng": 107.07791
    },
    {
        "TravelLokaId": 3000010026891,
        "HotelName": "Phu Nhuan Hotel New",
        "Country": "Vietnam",
        "City": "Dong Da District",
        "Address": "No 7, Alley 68, 34 Hoang Cau",
        "Lat": 21.020268,
        "Lng": 105.823496
    },
    {
        "TravelLokaId": 3000010026896,
        "HotelName": "Vinh Tuan Guest House Dalat",
        "Country": "Vietnam",
        "City": "Da Lat",
        "Address": "107 Phan Boi Chau",
        "Lat": 11.943539,
        "Lng": 108.438852
    },
    {
        "TravelLokaId": 3000010026897,
        "HotelName": "Bat Tri Hotel",
        "Country": "Vietnam",
        "City": "Da Lat",
        "Address": "119 Bui Thi Xuan",
        "Lat": 11.948569,
        "Lng": 108.439322
    },
    {
        "TravelLokaId": 3000010026916,
        "HotelName": "Mr. TRAN ( Blue Hotel )",
        "Country": "Vietnam",
        "City": "Vung Tau City",
        "Address": "259A Thi Sach",
        "Lat": 10.350494,
        "Lng": 107.096587
    },
    {
        "TravelLokaId": 3000010026932,
        "HotelName": "Villa Kim Gia Dalat",
        "Country": "Vietnam",
        "City": "Da Lat",
        "Address": "10A, Ho Xuan Huong Street",
        "Lat": 11.952093455,
        "Lng": 108.471238911
    },
    {
        "TravelLokaId": 3000010026933,
        "HotelName": "Thien Hung Hotel",
        "Country": "Vietnam",
        "City": "Quang Ngai City",
        "Address": "Alley 166, Hai Ba Trung, Le Hong Phong Ward",
        "Lat": 15.131271,
        "Lng": 108.793732
    },
    {
        "TravelLokaId": 3000010026939,
        "HotelName": "Sao Mai Guest House Dalat",
        "Country": "Vietnam",
        "City": "Da Lat",
        "Address": "Lot 8B, Ba Trieu Street",
        "Lat": 11.938034,
        "Lng": 108.433982
    },
    {
        "TravelLokaId": 3000010026945,
        "HotelName": "Van Khang Hotel",
        "Country": "Vietnam",
        "City": "Phu Nhuan District",
        "Address": "168 Dao Duy Anh",
        "Lat": 10.806228,
        "Lng": 106.676803
    },
    {
        "TravelLokaId": 3000010026948,
        "HotelName": "Nhat Mai Guest House Dalat",
        "Country": "Vietnam",
        "City": "Da Lat",
        "Address": "No.136, 3-2 Street",
        "Lat": 11.941418,
        "Lng": 108.432048
    },
    {
        "TravelLokaId": 3000010026953,
        "HotelName": "My Hoa 1 Hotel",
        "Country": "Vietnam",
        "City": "Nam Tu Liem District",
        "Address": "AX1 - No 2 KTDC Dinh Thon, My Dinh",
        "Lat": 21.01997,
        "Lng": 105.777697
    },
    {
        "TravelLokaId": 3000010026967,
        "HotelName": "Mr. TRAN (Bao Dam Hang Hai Hotel)",
        "Country": "Vietnam",
        "City": "Vung Tau City",
        "Address": "70 Ha Long",
        "Lat": 10.332558,
        "Lng": 107.073021
    },
    {
        "TravelLokaId": 3000010026973,
        "HotelName": "Thanh Loi 1 Hotel",
        "Country": "Vietnam",
        "City": "Ninh Binh City",
        "Address": "01 Dinh Tien Hoang",
        "Lat": 20.262997,
        "Lng": 105.97427
    },
    {
        "TravelLokaId": 3000010026975,
        "HotelName": "Hoan Hy Hotel Dalat",
        "Country": "Vietnam",
        "City": "Da Lat",
        "Address": "No. 14-16, 3-2 Street",
        "Lat": 11.942969,
        "Lng": 108.435168
    },
    {
        "TravelLokaId": 3000010026983,
        "HotelName": "Thao Dung Guesthouse",
        "Country": "Vietnam",
        "City": "Phan Thiet City",
        "Address": "Lane 69 Nguyen Dinh Chieu, Mui Ne Ward",
        "Lat": 10.947691,
        "Lng": 108.200399
    },
    {
        "TravelLokaId": 3000010026987,
        "HotelName": "Tuyet Son Hotel",
        "Country": "Vietnam",
        "City": "Da Lat",
        "Address": "63 Phan Nhu Thach",
        "Lat": 11.941764,
        "Lng": 108.434544
    },
    {
        "TravelLokaId": 3000010026989,
        "HotelName": "My Thoa Guest House",
        "Country": "Vietnam",
        "City": "Da Lat",
        "Address": "6F Nam Ky Khoi Nghia",
        "Lat": 11.940927,
        "Lng": 108.435911
    },
    {
        "TravelLokaId": 3000010026990,
        "HotelName": "Thanh Loi 2 Hotel",
        "Country": "Vietnam",
        "City": "Ninh Binh City",
        "Address": "08 Dao Duy Tu",
        "Lat": 20.265435,
        "Lng": 105.972858
    },
    {
        "TravelLokaId": 3000010026991,
        "HotelName": "Anh Hien Hotel Mui Ne",
        "Country": "Vietnam",
        "City": "Phan Thiet City",
        "Address": "81A Nguyen Dinh Chieu Street, Ham Tien Ward",
        "Lat": 10.947787,
        "Lng": 108.201983
    },
    {
        "TravelLokaId": 3000010027018,
        "HotelName": "Rosa Homestay Dalat",
        "Country": "Vietnam",
        "City": "Da Lat",
        "Address": "C27 Mac Dinh Chi Street, Ward 4",
        "Lat": 11.940361,
        "Lng": 108.430018
    },
    {
        "TravelLokaId": 3000010027026,
        "HotelName": "247C/A Guesthouse",
        "Country": "Vietnam",
        "City": "Phan Thiet City",
        "Address": "247 C/A Nguyen Dinh Chieu, Mui Ne Ward",
        "Lat": 10.955099,
        "Lng": 108.234252
    },
    {
        "TravelLokaId": 3000010027038,
        "HotelName": "Hoang Gia Hotel - Lao Cai",
        "Country": "Vietnam",
        "City": "Lao Cai City",
        "Address": "233 Tran Hung Dao Highway, Bac Cuong Ward",
        "Lat": 22.4676319,
        "Lng": 103.9858009
    },
    {
        "TravelLokaId": 3000010027041,
        "HotelName": "Anh Nhi Hotel",
        "Country": "Vietnam",
        "City": "Sa Pa District",
        "Address": "No 078 Luong Dinh Cua",
        "Lat": 22.338229,
        "Lng": 103.851495
    },
    {
        "TravelLokaId": 3000010027050,
        "HotelName": "Khanh Vi Van Hotel Dalat",
        "Country": "Vietnam",
        "City": "Da Lat",
        "Address": "38 Tran Phu",
        "Lat": 11.93645,
        "Lng": 108.432496
    },
    {
        "TravelLokaId": 3000010027053,
        "HotelName": "Duy Dang Hotel Dalat",
        "Country": "Vietnam",
        "City": "Da Lat",
        "Address": "1A Hoang Van Thu",
        "Lat": 11.93795,
        "Lng": 108.428917
    },
    {
        "TravelLokaId": 3000010027054,
        "HotelName": "Sunrise Binh Minh Hostel Dalat",
        "Country": "Vietnam",
        "City": "Da Lat",
        "Address": "5/4 Tran Khanh Du",
        "Lat": 11.957705,
        "Lng": 108.44153
    },
    {
        "TravelLokaId": 3000010027061,
        "HotelName": "Hoang Lan Hotel",
        "Country": "Vietnam",
        "City": "Da Lat",
        "Address": "03 Phan Nhu Thach",
        "Lat": 11.9416321,
        "Lng": 108.4339365
    },
    {
        "TravelLokaId": 3000010027064,
        "HotelName": "Hung Phuc Hotel",
        "Country": "Vietnam",
        "City": "Phan Thiet City",
        "Address": "55 Huynh Thuc Khang, Mui Ne Ward",
        "Lat": 10.95243,
        "Lng": 108.255015
    },
    {
        "TravelLokaId": 3000010027066,
        "HotelName": "Bien Vang Hotel Danang",
        "Country": "Vietnam",
        "City": "Son Tra District",
        "Address": "118 Pham Van Dong, My Khe Beach",
        "Lat": 16.070408,
        "Lng": 108.237644
    },
    {
        "TravelLokaId": 3000010027073,
        "HotelName": "Villa Du Lac Da Lat",
        "Country": "Vietnam",
        "City": "Da Lat",
        "Address": "39A1 Ngo Van So",
        "Lat": 11.955624,
        "Lng": 108.470101
    },
    {
        "TravelLokaId": 3000010027080,
        "HotelName": "Thien Xuan Guesthouse",
        "Country": "Vietnam",
        "City": "Da Lat",
        "Address": "19 Khe Sanh",
        "Lat": 11.937185,
        "Lng": 108.458749
    },
    {
        "TravelLokaId": 3000010027088,
        "HotelName": "Lao Cai Galaxy Hotel",
        "Country": "Vietnam",
        "City": "Lao Cai City",
        "Address": "268 Minh Khai,",
        "Lat": 22.488589,
        "Lng": 103.976336
    },
    {
        "TravelLokaId": 3000010027089,
        "HotelName": "Minh Hoa Hotel",
        "Country": "Vietnam",
        "City": "Thanh Khe District",
        "Address": "95 Le Dinh Ly",
        "Lat": 16.055512,
        "Lng": 108.211704
    },
    {
        "TravelLokaId": 3000010027120,
        "HotelName": "Huu Nguyen Guest House",
        "Country": "Vietnam",
        "City": "Da Lat",
        "Address": "09 Nam Ky Khoi Nghia",
        "Lat": 11.940887,
        "Lng": 108.435957
    },
    {
        "TravelLokaId": 3000010027144,
        "HotelName": "Phung Nghi Guesthouse",
        "Country": "Vietnam",
        "City": "Da Lat",
        "Address": "64 Nguyen Chi Thanh",
        "Lat": 11.939894,
        "Lng": 108.435724
    },
    {
        "TravelLokaId": 3000010027161,
        "HotelName": "Island Pearl Hotel",
        "Country": "Vietnam",
        "City": "Ha Long City",
        "Address": "No 44,45 Nam Tuan Chau Wharf,",
        "Lat": 20.919676,
        "Lng": 106.991578
    },
    {
        "TravelLokaId": 3000010027162,
        "HotelName": "Moon House",
        "Country": "Vietnam",
        "City": "Tan Lac District",
        "Address": "Ngoi Village, Ngoi Hoa Commune, Tan Lac Ward",
        "Lat": 20.745484,
        "Lng": 105.193241
    },
    {
        "TravelLokaId": 3000010027165,
        "HotelName": "Viet Hoa Hotel",
        "Country": "Vietnam",
        "City": "Ha Long City",
        "Address": "35 Vuon Dao, Bai Chay",
        "Lat": 20.958295,
        "Lng": 107.050563
    },
    {
        "TravelLokaId": 3000010027172,
        "HotelName": "Giang Son 1 Hotel",
        "Country": "Vietnam",
        "City": "District 1",
        "Address": "283/14 Pham Ngu Lao",
        "Lat": 10.767243587,
        "Lng": 106.690973639
    },
    {
        "TravelLokaId": 3000010027173,
        "HotelName": "Anh Tu Hotel",
        "Country": "Vietnam",
        "City": "District 3",
        "Address": "21 Ba Huyen Thanh Quan",
        "Lat": 10.775197,
        "Lng": 106.689836
    },
    {
        "TravelLokaId": 3000010027178,
        "HotelName": "A In Hotel Trung Son",
        "Country": "Vietnam",
        "City": "Binh Chanh District",
        "Address": "No 34, 6C Street, Trung Son Residences, Binh Hung Ward",
        "Lat": 10.736666,
        "Lng": 106.690373
    },
    {
        "TravelLokaId": 3000010027179,
        "HotelName": "The Ky Moi Hotel",
        "Country": "Vietnam",
        "City": "Ha Long City",
        "Address": "27 Vuon Dao",
        "Lat": 20.958291,
        "Lng": 107.050569
    },
    {
        "TravelLokaId": 3000010027181,
        "HotelName": "Duy Tan Hotel",
        "Country": "Vietnam",
        "City": "Da Lat",
        "Address": "No.183, Ba Thang Hai Street",
        "Lat": 11.938707,
        "Lng": 108.429612
    },
    {
        "TravelLokaId": 3000010027184,
        "HotelName": "P&K Hotel",
        "Country": "Vietnam",
        "City": "Da Lat",
        "Address": "No. 116, 3 Thang 2 Street",
        "Lat": 11.94139,
        "Lng": 108.432326
    },
    {
        "TravelLokaId": 3000010027190,
        "HotelName": "Orion Hotel Sapa",
        "Country": "Vietnam",
        "City": "Sa Pa District",
        "Address": "161 Thach Son",
        "Lat": 22.33733938,
        "Lng": 103.850058651
    },
    {
        "TravelLokaId": 3000010027192,
        "HotelName": "Rou Hostel",
        "Country": "Vietnam",
        "City": "District 1",
        "Address": "37B Co Bac",
        "Lat": 10.765153,
        "Lng": 106.695393
    },
    {
        "TravelLokaId": 3000010027193,
        "HotelName": "Pizza Tet Hostel",
        "Country": "Vietnam",
        "City": "Da Lat",
        "Address": "A19 Tran Le",
        "Lat": 11.93757,
        "Lng": 108.427992
    },
    {
        "TravelLokaId": 3000010027206,
        "HotelName": "Peace Guesthouse (Nhà Nghỉ Hòa Bình)",
        "Country": "Vietnam",
        "City": "Da Lat",
        "Address": "64 Truong Cong Dinh",
        "Lat": 11.944786,
        "Lng": 108.434881
    },
    {
        "TravelLokaId": 3000010027268,
        "HotelName": "Conico Hotel",
        "Country": "Vietnam",
        "City": "Da Lat",
        "Address": "Group 79 Bui Thi Xuan",
        "Lat": 11.946031,
        "Lng": 108.439683
    },
    {
        "TravelLokaId": 3000010027276,
        "HotelName": "Xuan Cuong Hotel",
        "Country": "Vietnam",
        "City": "Da Lat",
        "Address": "30 Nguyen Van Troi",
        "Lat": 11.946205,
        "Lng": 108.435744
    },
    {
        "TravelLokaId": 3000010027279,
        "HotelName": "Kim Village Resort Mui Ne",
        "Country": "Vietnam",
        "City": "Phan Thiet City",
        "Address": "69/1 Nguyen Dinh Chieu, Mui Ne Ward",
        "Lat": 10.947357,
        "Lng": 108.200316
    },
    {
        "TravelLokaId": 3000010027292,
        "HotelName": "Hoang Gia 2 Hotel Lao Cai",
        "Country": "Vietnam",
        "City": "Lao Cai City",
        "Address": "32 Tran Hung Dao Street",
        "Lat": 22.475188,
        "Lng": 103.981041
    },
    {
        "TravelLokaId": 3000010027293,
        "HotelName": "Hon Ngoc Mui Ne Resort (Muine Pearl Resort)",
        "Country": "Vietnam",
        "City": "Phan Thiet City",
        "Address": "Nguyen Huu Tho, Ward 5",
        "Lat": 10.93898,
        "Lng": 108.297392
    },
    {
        "TravelLokaId": 3000010027304,
        "HotelName": "Tiny Homestay Dalat",
        "Country": "Vietnam",
        "City": "Da Lat",
        "Address": "42/4 Ha Huy Tap",
        "Lat": 11.935174807,
        "Lng": 108.440825068
    },
    {
        "TravelLokaId": 3000010027307,
        "HotelName": "Time House Apartment",
        "Country": "Vietnam",
        "City": "Nha Trang",
        "Address": "16A Ngo Thoi Nhiem, Tan Lap",
        "Lat": 12.239536,
        "Lng": 109.191003
    },
    {
        "TravelLokaId": 3000010027316,
        "HotelName": "Hoang Lam Resort Mui Ne",
        "Country": "Vietnam",
        "City": "Phan Thiet City",
        "Address": "126A Nguyen Dinh Chieu, Mui Ne Ward",
        "Lat": 10.94824,
        "Lng": 108.204139
    },
    {
        "TravelLokaId": 3000010027319,
        "HotelName": "Banh Mi House",
        "Country": "Vietnam",
        "City": "District 1",
        "Address": "275C Pham Ngu Lao, Pham Ngu Lao Ward",
        "Lat": 10.7678807,
        "Lng": 106.691606
    },
    {
        "TravelLokaId": 3000010027323,
        "HotelName": "Vu Thanh Hotel",
        "Country": "Vietnam",
        "City": "Da Lat",
        "Address": "34A Hai Ba Trung",
        "Lat": 11.947021,
        "Lng": 108.433709
    },
    {
        "TravelLokaId": 3000010027327,
        "HotelName": "New Sun Hotel Sapa",
        "Country": "Vietnam",
        "City": "Sa Pa District",
        "Address": "28 Thach Son Street",
        "Lat": 22.336347,
        "Lng": 103.84684
    },
    {
        "TravelLokaId": 3000010027335,
        "HotelName": "Sydney Hotel",
        "Country": "Vietnam",
        "City": "Phan Thiet City",
        "Address": "13A Nguyen Dinh Chieu, Mui Ne Ward",
        "Lat": 10.94269,
        "Lng": 108.193163
    },
    {
        "TravelLokaId": 3000010027355,
        "HotelName": "Halong Party Hotel 2 ( Hai Yen)",
        "Country": "Vietnam",
        "City": "Ha Long City",
        "Address": "56 Vuon Dao",
        "Lat": 20.954306,
        "Lng": 107.043572
    },
    {
        "TravelLokaId": 3000010027363,
        "HotelName": "Halong Party Hotel",
        "Country": "Vietnam",
        "City": "Ha Long City",
        "Address": "21 Vuon Dao",
        "Lat": 20.96036,
        "Lng": 107.049853
    },
    {
        "TravelLokaId": 3000010027368,
        "HotelName": "Thuy Thuy Cottages",
        "Country": "Vietnam",
        "City": "Phan Thiet City",
        "Address": "123 Nguyen Dinh Chieu Street, Mui Ne Ward",
        "Lat": 10.952095,
        "Lng": 108.212295
    },
    {
        "TravelLokaId": 3000010027373,
        "HotelName": "Celine Hotel",
        "Country": "Vietnam",
        "City": "Da Lat",
        "Address": "38 Phan Boi Chau",
        "Lat": 11.944425,
        "Lng": 108.438222
    },
    {
        "TravelLokaId": 3000010027375,
        "HotelName": "Hoa Hong Hotel - Xa Dan",
        "Country": "Vietnam",
        "City": "Dong Da District",
        "Address": "92 Xa Dan",
        "Lat": 21.009094,
        "Lng": 105.839077
    },
    {
        "TravelLokaId": 3000010027378,
        "HotelName": "Tiny Tigers Hostel",
        "Country": "Vietnam",
        "City": "Da Lat",
        "Address": "77 Doan Thi Diem",
        "Lat": 11.938793,
        "Lng": 108.43353
    },
    {
        "TravelLokaId": 3000010027421,
        "HotelName": "Ta Phin Stone Garden Ecological",
        "Country": "Vietnam",
        "City": "Sa Pa District",
        "Address": "Group 4, Sa Seng , Ta Phin Community",
        "Lat": 22.396071,
        "Lng": 103.842301
    },
    {
        "TravelLokaId": 3000010027439,
        "HotelName": "Hoa Thuy Vu - Arum Villa Dalat",
        "Country": "Vietnam",
        "City": "Da Lat",
        "Address": "2C Tran Hung Dao",
        "Lat": 11.93496,
        "Lng": 108.441512
    },
    {
        "TravelLokaId": 3000010027442,
        "HotelName": "Song Hong View Hotel",
        "Country": "Vietnam",
        "City": "Lao Cai City",
        "Address": "188A Duyen Hai street",
        "Lat": 22.504004,
        "Lng": 103.96228
    },
    {
        "TravelLokaId": 3000010027452,
        "HotelName": "CHILLAXROOM Apartment",
        "Country": "Vietnam",
        "City": "District 1",
        "Address": "422 Vo Van Kiet",
        "Lat": 10.75954,
        "Lng": 106.69338
    },
    {
        "TravelLokaId": 3000010027455,
        "HotelName": "Tan Quyen Hotel",
        "Country": "Vietnam",
        "City": "Tan Binh District",
        "Address": "79 Hoang Van Thu",
        "Lat": 10.80044,
        "Lng": 106.662569
    },
    {
        "TravelLokaId": 3000010027467,
        "HotelName": "Sapa Riverside Hotel",
        "Country": "Vietnam",
        "City": "Sa Pa District",
        "Address": "18 Ngu Chi Son Street",
        "Lat": 22.337156,
        "Lng": 103.846583
    },
    {
        "TravelLokaId": 3000010027476,
        "HotelName": "Gold Stars Hotel Long Hai",
        "Country": "Vietnam",
        "City": "Vung Tau City",
        "Address": "Road 44",
        "Lat": 10.38579,
        "Lng": 107.239331
    },
    {
        "TravelLokaId": 3000010027496,
        "HotelName": "Sun Smile Homestay",
        "Country": "Vietnam",
        "City": "Da Lat",
        "Address": "Alley 1/3, Le Hong Phong",
        "Lat": 11.9338012,
        "Lng": 108.4326974
    },
    {
        "TravelLokaId": 3000010027514,
        "HotelName": "Mimiho Homestay",
        "Country": "Vietnam",
        "City": "Hoi An",
        "Address": "22 Nguyen Duc Canh, Tan An",
        "Lat": 15.893689133,
        "Lng": 108.316028757
    },
    {
        "TravelLokaId": 3000010027521,
        "HotelName": "Skybird Homestay",
        "Country": "Vietnam",
        "City": "Hoi An",
        "Address": "354 Cua Dai, Cam Chau",
        "Lat": 15.8854979,
        "Lng": 108.3449364
    },
    {
        "TravelLokaId": 3000010027551,
        "HotelName": "My Hoa 2 Hotel",
        "Country": "Vietnam",
        "City": "Hai Lang District",
        "Address": "No 89, Thien Hien",
        "Lat": 16.739509,
        "Lng": 107.239484
    },
    {
        "TravelLokaId": 3000010027554,
        "HotelName": "Thanh Do Hotel",
        "Country": "Vietnam",
        "City": "Da Lat",
        "Address": "50 Nguyen Chi Thanh",
        "Lat": 11.940165,
        "Lng": 108.436203
    },
    {
        "TravelLokaId": 3000010027555,
        "HotelName": "Hoan Vu 1 Hotel",
        "Country": "Vietnam",
        "City": "Binh Thanh District",
        "Address": "21m-22m Mieu Noi Resident",
        "Lat": 10.796211,
        "Lng": 106.692708
    },
    {
        "TravelLokaId": 3000010027558,
        "HotelName": "Hoan Vu 2 Hotel",
        "Country": "Vietnam",
        "City": "Binh Thanh District",
        "Address": "28M Mieu Noi Resident, Binh Thanh",
        "Lat": 10.7964,
        "Lng": 106.692591
    },
    {
        "TravelLokaId": 3000010027561,
        "HotelName": "Queen 2 Hotel",
        "Country": "Vietnam",
        "City": "Tan Binh District",
        "Address": "83 Lam Son",
        "Lat": 10.812378,
        "Lng": 106.667023
    },
    {
        "TravelLokaId": 3000010027571,
        "HotelName": "Viethouse Lodge",
        "Country": "Vietnam",
        "City": "Ha Long City",
        "Address": "Tuan Chau Island",
        "Lat": 20.92745,
        "Lng": 106.986038
    },
    {
        "TravelLokaId": 3000010027583,
        "HotelName": "Anh Son Guest House",
        "Country": "Vietnam",
        "City": "Da Lat",
        "Address": "53 Bui Thi Xuan Street",
        "Lat": 11.945914,
        "Lng": 108.439725
    },
    {
        "TravelLokaId": 3000010027595,
        "HotelName": "Sapa Truc Lam Hotel",
        "Country": "Vietnam",
        "City": "Sa Pa District",
        "Address": "468 Dien Bien Phu",
        "Lat": 22.34017,
        "Lng": 103.835756
    },
    {
        "TravelLokaId": 3000010027600,
        "HotelName": "Magic Dieu Linh Hotel",
        "Country": "Vietnam",
        "City": "Dong Hoi City",
        "Address": "305 Ly Thuong Kiet",
        "Lat": 17.482542,
        "Lng": 106.612428
    },
    {
        "TravelLokaId": 3000010027604,
        "HotelName": "Bach Long Ha Long",
        "Country": "Vietnam",
        "City": "Ha Long City",
        "Address": "35 Dao Anh",
        "Lat": 20.95933,
        "Lng": 107.05242
    },
    {
        "TravelLokaId": 3000010027616,
        "HotelName": "Gold Star Hotel",
        "Country": "Vietnam",
        "City": "Da Lat",
        "Address": "136 Hai Ba Trung Street",
        "Lat": 11.954553,
        "Lng": 108.430247
    },
    {
        "TravelLokaId": 3000010027618,
        "HotelName": "Minh Gia 1 Hotel",
        "Country": "Vietnam",
        "City": "Ha Long City",
        "Address": "43 Anh Dao, Bai Chay",
        "Lat": 20.953256,
        "Lng": 107.044765
    },
    {
        "TravelLokaId": 3000010027627,
        "HotelName": "Minh Gia 2 Hotel",
        "Country": "Vietnam",
        "City": "Cam Pha City",
        "Address": "No 7, 95A Anh Dao",
        "Lat": 21.006382,
        "Lng": 107.292514
    },
    {
        "TravelLokaId": 3000010027637,
        "HotelName": "Ngoc Huong Hotel",
        "Country": "Vietnam",
        "City": "Quang Ngai City",
        "Address": "112 Đinh Tiên Hoàng",
        "Lat": 15.1163814,
        "Lng": 108.816349
    },
    {
        "TravelLokaId": 3000010027639,
        "HotelName": "Toan Thang 2 Hotel",
        "Country": "Vietnam",
        "City": "Ha Long City",
        "Address": "10A Anh Dao",
        "Lat": 20.953256,
        "Lng": 107.044765
    },
    {
        "TravelLokaId": 3000010027643,
        "HotelName": "Thanh Loan Hotel",
        "Country": "Vietnam",
        "City": "Da Lat",
        "Address": "33/21 Ho Tung Mau Street",
        "Lat": 11.9389892,
        "Lng": 108.4389257
    },
    {
        "TravelLokaId": 3000010027649,
        "HotelName": "Anh Thu Hotel",
        "Country": "Vietnam",
        "City": "Da Lat",
        "Address": "17 Ho Tung Mau",
        "Lat": 11.9379299,
        "Lng": 108.4397007
    },
    {
        "TravelLokaId": 3000010027653,
        "HotelName": "Hoa Hue Guest House Dalat",
        "Country": "Vietnam",
        "City": "Da Lat",
        "Address": "97/4 Phan Boi Chau",
        "Lat": 11.943858696,
        "Lng": 108.438664153
    },
    {
        "TravelLokaId": 3000010027661,
        "HotelName": "Sapa Winter Hotel",
        "Country": "Vietnam",
        "City": "Sa Pa District",
        "Address": "No 3 Kim Dong street",
        "Lat": 22.337395,
        "Lng": 103.848613
    },
    {
        "TravelLokaId": 3000010027670,
        "HotelName": "Phu Gia Hotel",
        "Country": "Vietnam",
        "City": "Ha Long City",
        "Address": "No 350, Alley 35 Don Dien, Ha Khau Ward",
        "Lat": 20.953256,
        "Lng": 107.044765
    },
    {
        "TravelLokaId": 3000010027693,
        "HotelName": "Amely Hotel",
        "Country": "Vietnam",
        "City": "Cau Giay District",
        "Address": "76 Duy Tan",
        "Lat": 21.031799,
        "Lng": 105.783847
    },
    {
        "TravelLokaId": 3000010027724,
        "HotelName": "Hoang Hoa Guesthouse",
        "Country": "Vietnam",
        "City": "Da Lat",
        "Address": "48 Khe Sanh",
        "Lat": 11.938117,
        "Lng": 108.459106
    },
    {
        "TravelLokaId": 3000010027736,
        "HotelName": "Blue Ocean Hotel Saigon",
        "Country": "Vietnam",
        "City": "District 7",
        "Address": "11A-15-17 Hung Phuoc 2, Phu My Hung",
        "Lat": 10.731431,
        "Lng": 106.707969
    },
    {
        "TravelLokaId": 3000010027738,
        "HotelName": "Kim Thai Guest House",
        "Country": "Vietnam",
        "City": "Da Lat",
        "Address": "No 7, Ha Huy Tap",
        "Lat": 11.936058,
        "Lng": 108.441031
    },
    {
        "TravelLokaId": 3000010027744,
        "HotelName": "Huong Ha Mini Hotel",
        "Country": "Vietnam",
        "City": "Da Lat",
        "Address": "No 5, Ha Huy Tap",
        "Lat": 11.936058,
        "Lng": 108.441031
    },
    {
        "TravelLokaId": 3000010027746,
        "HotelName": "Huong Duong Hotel",
        "Country": "Vietnam",
        "City": "Da Lat",
        "Address": "Lot A6-A7 Hai Thuong",
        "Lat": 11.941715,
        "Lng": 108.431819
    },
    {
        "TravelLokaId": 3000010027748,
        "HotelName": "Mely 2 Hotel",
        "Country": "Vietnam",
        "City": "Cau Giay District",
        "Address": "B24/57 Nguyen Khanh Toan",
        "Lat": 21.036292,
        "Lng": 105.802873
    },
    {
        "TravelLokaId": 3000010027753,
        "HotelName": "My Trang Guest House",
        "Country": "Vietnam",
        "City": "Da Lat",
        "Address": "300 Bui Thi Xuan",
        "Lat": 11.945989,
        "Lng": 108.439833
    },
    {
        "TravelLokaId": 3000010027755,
        "HotelName": "Thuy Ngu Hotel",
        "Country": "Vietnam",
        "City": "Cau Giay District",
        "Address": "61 Tran Quoc Vuong, Xuan Thuy Ward",
        "Lat": 21.036497,
        "Lng": 105.785625
    },
    {
        "TravelLokaId": 3000010027765,
        "HotelName": "Thao Lien Hotel",
        "Country": "Vietnam",
        "City": "Da Lat",
        "Address": "93 Bui Thi Xuan",
        "Lat": 11.949547,
        "Lng": 108.438706
    },
    {
        "TravelLokaId": 3000010027767,
        "HotelName": "Nhat Linh Hotel Sapa",
        "Country": "Vietnam",
        "City": "Sa Pa District",
        "Address": "No 093 Thach Son Street",
        "Lat": 22.336749,
        "Lng": 103.847352
    },
    {
        "TravelLokaId": 3000010027774,
        "HotelName": "An Bang Garden House",
        "Country": "Vietnam",
        "City": "Hoi An",
        "Address": "Nguyen Phan Vinh, Cam An",
        "Lat": 15.9144165,
        "Lng": 108.3350766
    },
    {
        "TravelLokaId": 3000010027777,
        "HotelName": "Sao Anh Mai Hotel",
        "Country": "Vietnam",
        "City": "Phu Nhuan District",
        "Address": "50-52 Block C, Hoa Cuc",
        "Lat": 10.798693,
        "Lng": 106.688835
    },
    {
        "TravelLokaId": 3000010027778,
        "HotelName": "Tay Nguyen Hotel",
        "Country": "Vietnam",
        "City": "Buon Ma Thuot City",
        "Address": "110 Ly Thuong Kiet",
        "Lat": 12.682864,
        "Lng": 108.043554
    },
    {
        "TravelLokaId": 3000010027784,
        "HotelName": "Lava Sapa Hotel",
        "Country": "Vietnam",
        "City": "Sa Pa District",
        "Address": "396 Dien Bien Phu",
        "Lat": 22.34017,
        "Lng": 103.835756
    },
    {
        "TravelLokaId": 3000010027819,
        "HotelName": "Hoang Lan Hotel",
        "Country": "Vietnam",
        "City": "Ha Long City",
        "Address": "15-17 Vuon Dao",
        "Lat": 20.958289,
        "Lng": 107.050546
    },
    {
        "TravelLokaId": 3000010027824,
        "HotelName": "Q Sapa Hotel",
        "Country": "Vietnam",
        "City": "Sa Pa District",
        "Address": "04 Vo Thi Sau Street",
        "Lat": 22.336777,
        "Lng": 103.846554
    },
    {
        "TravelLokaId": 3000010027826,
        "HotelName": "Vanda Villa",
        "Country": "Vietnam",
        "City": "Da Lat",
        "Address": "70 Hoang Dieu",
        "Lat": 11.942593201,
        "Lng": 108.4253034
    },
    {
        "TravelLokaId": 3000010027853,
        "HotelName": "Ngoc Diem Hotel",
        "Country": "Vietnam",
        "City": "District 1",
        "Address": "84B Bui Vien",
        "Lat": 10.767212,
        "Lng": 106.693287
    },
    {
        "TravelLokaId": 3000010027859,
        "HotelName": "CoCo Riverside Homestay",
        "Country": "Vietnam",
        "City": "Hoi An",
        "Address": "Group 1, Thanh Dong, Cam Thanh",
        "Lat": 15.881128,
        "Lng": 108.3492893
    },
    {
        "TravelLokaId": 3000010027862,
        "HotelName": "Hoang Long Hotel",
        "Country": "Vietnam",
        "City": "Phu Nhuan District",
        "Address": "127 Phan Xich Long",
        "Lat": 10.803484,
        "Lng": 106.681462
    },
    {
        "TravelLokaId": 3000010027873,
        "HotelName": "Thuy Tien Hotel",
        "Country": "Vietnam",
        "City": "Thu Duc District",
        "Address": "485 To Ngoc Van, Tam Phu Ward",
        "Lat": 10.8660332,
        "Lng": 106.7403433
    },
    {
        "TravelLokaId": 3000010027892,
        "HotelName": "Asean Hai Ngoc",
        "Country": "Vietnam",
        "City": "Ha Long City",
        "Address": "No 4",
        "Lat": 20.959025,
        "Lng": 107.049435
    },
    {
        "TravelLokaId": 3000010027946,
        "HotelName": "Minh Huy Hotel",
        "Country": "Vietnam",
        "City": "District 3",
        "Address": "704 Dien Bien Phu",
        "Lat": 10.770472,
        "Lng": 106.676591
    },
    {
        "TravelLokaId": 3000010027947,
        "HotelName": "Thanh Hoai Hotel",
        "Country": "Vietnam",
        "City": "Da Lat",
        "Address": "29 Phan Boi Chau",
        "Lat": 11.944447,
        "Lng": 108.438349
    },
    {
        "TravelLokaId": 3000010027958,
        "HotelName": "Buu Dien Ha Long Hotel",
        "Country": "Vietnam",
        "City": "Ha Long City",
        "Address": "No 1 Ha Long",
        "Lat": 20.960673,
        "Lng": 107.061859
    },
    {
        "TravelLokaId": 3000010027959,
        "HotelName": "Ha Long Eden Hotel",
        "Country": "Vietnam",
        "City": "Ha Long City",
        "Address": "1 Ha Long",
        "Lat": 20.956009945,
        "Lng": 107.049188
    },
    {
        "TravelLokaId": 3000010027974,
        "HotelName": "Tom & Tony Hotel",
        "Country": "Vietnam",
        "City": "Phu Nhuan District",
        "Address": "325 Phan Xich Long",
        "Lat": 10.803594,
        "Lng": 106.681358
    },
    {
        "TravelLokaId": 3000010027976,
        "HotelName": "Blue Diamond Hotel (Airport)",
        "Country": "Vietnam",
        "City": "Tan Binh District",
        "Address": "B116 Bach Dang",
        "Lat": 10.814527,
        "Lng": 106.669976
    },
    {
        "TravelLokaId": 3000010027983,
        "HotelName": "Thang Lap Hotel",
        "Country": "Vietnam",
        "City": "Da Lat",
        "Address": "33/15 Ho Tung Mau, Ward 3",
        "Lat": 11.938979,
        "Lng": 108.439156
    },
    {
        "TravelLokaId": 3000010027994,
        "HotelName": "Nhi Nhi Hotel",
        "Country": "Vietnam",
        "City": "Binh Chanh District",
        "Address": "57 - 59 No 6 Street, Trung son hamlet",
        "Lat": 10.737519,
        "Lng": 106.691128
    },
    {
        "TravelLokaId": 3000010028008,
        "HotelName": "Van Long Hotel",
        "Country": "Vietnam",
        "City": "Da Lat",
        "Address": "97 Bui Thi Xuan",
        "Lat": 11.949586,
        "Lng": 108.438707
    },
    {
        "TravelLokaId": 3000010028009,
        "HotelName": "Tuyet Mai Hotel Dalat",
        "Country": "Vietnam",
        "City": "Da Lat",
        "Address": "4 Nguyen Van Troi",
        "Lat": 11.944861,
        "Lng": 108.43583
    },
    {
        "TravelLokaId": 3000010028010,
        "HotelName": "Phuong Thy Hotel",
        "Country": "Vietnam",
        "City": "Binh Thanh District",
        "Address": "No. 3, Phan Boi Chau",
        "Lat": 10.802532,
        "Lng": 106.700869
    },